인허가일자,상세영업상태명,폐업일자,휴업시작일자,휴업종료일자,지번주소,도로명주소,사업장명,경도,위도
20190124,영업중,0,0,0,서울특별시 강동구 성내동 452,서울특별시 강동구 강동대로 143-52,느루요양병원,127.1205404,37.52786519
19870424,영업중,0,0,0,서울특별시 종로구 무악동 32-2,서울특별시 종로구 통일로16길 4-2,세란병원,126.9574507,37.57517001
20200708,영업중,0,0,0,서울특별시 강서구 마곡동 731-11,서울특별시 강서구 방화대로34길 60,보금한방병원,126.8197305,37.56997332
19790324,영업중,0,0,0,서울특별시 종로구 평동 73,서울특별시 종로구 새문안로 29,강북삼성병원,126.9667009,37.5682221
20151214,영업중,0,0,0,서울특별시 영등포구 신길동 505,서울특별시 영등포구 여의대방로 145,서울바른병원,126.9199957,37.50029796
20000810,영업중,0,0,0,서울특별시 중구 충무로1가 26-1,서울특별시 중구 충무로1가 명동2길 50,한누리치과병원,126.9830995,37.56117909
20160708,영업중,0,0,0,서울특별시 중구 순화동 1-1,서울특별시 중구 통일로4길 30,광화문자생한방병원,126.9698592,37.56486869
20160913,영업중,0,0,0,서울특별시 중구 흥인동 86,서울특별시 중구 다산로 258,참바로병원,127.0166186,37.56602494
20060302,영업중,0,0,0,서울특별시 중구 신당동 422-1,서울특별시 중구 동호로 204,반도정형외과병원,127.0099288,37.55620677
20061120,영업중,0,0,0,서울특별시 중구 신당동 336-2,서울특별시 중구 다산로 171,유치과병원,127.0128115,37.55889092
20100930,영업중,0,0,0,서울특별시 중구 명동1가 53-1,서울특별시 중구 명동1가 명동길 43,라임나무치과병원,126.9847163,37.56399222
20001010,영업중,0,0,0,서울특별시 성동구 도선동 365-1,서울특별시 성동구 무학로2길 8,연세슬기병원,127.0306552,37.56428346
19811201,영업중,0,0,0,서울특별시 중구 묵정동 1-1,서울특별시 중구 퇴계로 244-16,의료법인 제일의료재단 제일병원,126.9991373,37.5620176
19840403,영업중,0,0,0,서울특별시 용산구 이촌동 301-2,서울특별시 용산구 이촌로88길 8,금강아산병원(재단법인 아산사회복지재단),126.9779557,37.51812019
19780223,영업중,0,0,0,서울특별시 용산구 한남동 657-1,서울특별시 용산구 대사관로11길 50,순천향대학교 부속 서울병원,127.0016253,37.53593905
19820421,영업중,0,0,0,서울특별시 용산구 서계동 224-1,서울특별시 용산구 청파로93길 22,소화병원(의료법인 소화병원),126.9676188,37.55428402
20171123,영업중,0,0,0,서울특별시 성동구 행당동 130-1,서울특별시 성동구 왕십리로 267,9988병원,127.0380011,37.558609
20050811,영업중,0,0,0,서울특별시 성동구 홍익동 102,서울특별시 성동구 마장로 207,서울특별시장애인치과병원,127.0327712,37.56673763
20160216,영업중,0,0,0,서울특별시 성동구 용답동 235-1,서울특별시 성동구 천호대로 430,시온요양병원,127.0665288,37.56081063
20120530,영업중,0,0,0,서울특별시 광진구 능동 222-1,서울특별시 광진구 천호대로 566,연세무척나은병원,127.0805944,37.55633043
20190701,영업중,0,0,0,서울특별시 광진구 자양동 685,서울특별시 광진구 자양로 38,편안한요양병원,127.0864567,37.53158872
20120816,영업중,0,0,0,서울특별시 광진구 자양동 24-1,서울특별시 광진구 아차산로22길 14,서울프라임병원,127.0641105,37.54131991
20171211,영업중,0,0,0,서울특별시 광진구 화양동 24-1,서울특별시 광진구 동일로 164,동부참사랑요양병원,127.0668453,37.54671057
19620201,영업중,0,0,0,서울특별시 광진구 중곡동 30-1,서울특별시 광진구 용마산로 127,국립정신건강센터,127.0857669,37.56500388
19821116,영업중,0,0,0,서울특별시 광진구 화양동 4-1,서울특별시 광진구 능동로 120-1,건국대학교병원,127.0732183,37.54079564
20040611,영업중,0,0,0,서울특별시 광진구 능동 276-2,서울특별시 광진구 천호대로 556,광진예치과병원,127.07967659999998,37.55670183
19720424,영업중,0,0,0,서울특별시 성동구 사근동 110,서울특별시 성동구 왕십리로 220,한양대학교병원,127.0472584,37.55764185
20070430,영업중,0,0,0,서울특별시 광진구 자양동 25-2,서울특별시 광진구 동일로 82-1,리안요양병원,127.063075,37.53993248
20080118,영업중,0,0,0,서울특별시 광진구 화양동 6-1,서울특별시 광진구 능동로 103,에스(S)리더치과병원,127.0705009,37.54036924
20111226,영업중,0,0,0,서울특별시 광진구 군자동 27-1,서울특별시 광진구 능동로23길 36,바른본병원,127.0758013,37.55320406
20020111,영업중,0,0,0,서울특별시 동대문구 용두동 45-1,서울특별시 동대문구 고산자로 421,서울명병원,127.0379617,37.57737125
20160127,영업중,0,0,0,서울특별시 강동구 천호동 51-1,서울특별시 강동구 양재대로121길 7,올바른서울병원,127.1410608,37.54229378
20030730,영업중,0,0,0,서울특별시 동대문구 장안동 306-4,서울특별시 동대문구 장한로 143,코리아병원,127.0715189,37.57319761
20150316,영업중,0,0,0,서울특별시 동대문구 답십리동 2-17,서울특별시 동대문구 한천로 67,멘토스병원,127.0627142,37.56767177
19711005,영업중,0,0,0,서울특별시 동대문구 회기동 1-1,서울특별시 동대문구 회기로25길 31,경희대학교치과병원,127.0554546,37.59206389
19821008,영업중,0,0,0,서울특별시 동대문구 용두동 14-4,서울특별시 동대문구 왕산로 156,동서울병원,127.0406946,37.57848294
20160923,영업중,0,0,0,서울특별시 동대문구 장안동 313-1,서울특별시 동대문구 장한로28가길 129,대한민국요양병원,127.0726832,37.57861408
20170426,영업중,0,0,0,서울특별시 동대문구 장안동 464-1,서울특별시 동대문구 장한로 6,지혜병원,127.0654035,37.56183919
20191030,영업중,0,0,0,서울특별시 동대문구 답십리동 94-1,서울특별시 동대문구 전농로 110,엘치과병원,127.0578462,37.57457325
20000929,영업중,0,0,0,서울특별시 동대문구 신설동 93-19,서울특별시 동대문구 하정로 22,의료법인마리아의료재단마리아병원,127.02696840000002,37.57298577
20190714,영업중,0,0,0,서울특별시 동대문구 제기동 892-1,서울특별시 동대문구 약령서길 131,행복닥터스요양병원,127.0367533,37.58418322
19711005,영업중,0,0,0,서울특별시 동대문구 회기동 1-5,서울특별시 동대문구 경희대로3길 56,경희대학교병원,127.0513687,37.59670322
20200828,영업중,0,0,0,서울특별시 강북구 미아동 460-110,서울특별시 강북구 도봉로 77,서울유병원,127.0296424,37.61609737
20120824,영업중,0,0,0,서울특별시 동대문구 답십리동 492-1,서울특별시 동대문구 천호대로 313,하늘병원,127.0552585,37.56540494
20020801,영업중,0,0,0,서울특별시 동대문구 용두동 237-15,서울특별시 동대문구 왕산로22길 72,서울특별시 동부병원,127.0319898,37.57611191
20031222,영업중,0,0,0,서울특별시 동대문구 신설동 94-35,서울특별시 동대문구 하정로 4,시카고치과병원,127.0270067,37.5714119
20070504,영업중,0,0,0,서울특별시 동대문구 전농동 1-1,서울특별시 동대문구 한천로 229,신우요양병원,127.0684465,37.5813732
20110329,영업중,0,0,0,서울특별시 동대문구 용두동 740-1,서울특별시 동대문구 무학로 193-1,날개병원,127.0294422,37.58160517
20111122,영업중,0,0,0,서울특별시 동대문구 장안동 370-1,서울특별시 동대문구 답십리로 266,린여성병원,127.0698102,37.57222481
20090212,영업중,0,0,0,서울특별시 동대문구 장안동 413-1,서울특별시 동대문구 한천로 4,영동병원,127.0585201,37.56325042
20110310,영업중,0,0,0,서울특별시 동대문구 제기동 1046-1,서울특별시 동대문구 고산자로36길 4,서울나은병원,127.038693,37.57873999
20130422,영업중,0,0,0,서울특별시 구로구 구로동 586-1,서울특별시 구로구 구로중앙로 174,의료법인 우리아이들 의료재단 우리아이들병원,126.8818065,37.50235663
20111122,영업중,0,0,0,서울특별시 중랑구 중화동 144,서울특별시 중랑구 봉화산로24길 4,디앤에프병원,127.0830977,37.60157825
19851113,영업중,0,0,0,서울특별시 광진구 자양동 627,서울특별시 광진구 자양로13길 13,혜민병원,127.0831838,37.53530847
20021025,영업중,0,0,0,서울특별시 중랑구 망우동 488-8,서울특별시 중랑구 용마산로117길 49,장스여성병원,127.0975543,37.59971925
20170113,영업중,0,0,0,서울특별시 강서구 마곡동 731-7,서울특별시 강서구 방화대로34길 55,면력한방병원,126.81927140000002,37.57024908
20101210,영업중,0,0,0,서울특별시 중랑구 신내동 666,서울특별시 중랑구 봉화산로 194,로하스동서울요양병원,127.0947033,37.60641705
20070322,영업중,0,0,0,서울특별시 중랑구 망우동 207-1,서울특별시 중랑구 망우로 474,조앤조병원,127.10469109999998,37.60026614
20181022,영업중,0,0,0,서울특별시 강남구 논현동 94,서울특별시 강남구 도산대로 334,씨티칼리지요양병원,127.0385115,37.5225967
20200831,영업중,0,0,0,서울특별시 송파구 문정동 383-2,서울특별시 송파구 정의로 30,새숨병원,127.1154627,37.48176792
20141022,영업중,0,0,0,서울특별시 성북구 보문동4가 18,서울특별시 성북구 보문동4가 보문로 86,성북웰니스요양병원,127.0209506,37.58299697
20170331,영업중,0,0,0,서울특별시 성북구 동선동4가 53,서울특별시 성북구 동선동4가 아리랑로 16,더서울병원,127.0164935,37.59422641
19851202,영업중,0,0,0,서울특별시 성북구 하월곡동 88-1,서울특별시 성북구 동소문로46길 31,사회복지법인 성가소비녀회 성가복지병원,127.03084479999998,37.60725194
20150313,영업중,0,0,0,서울특별시 성북구 정릉동 16,서울특별시 성북구 동소문로 215,새마음요양병원,127.0216831,37.6014739
20180124,영업중,0,0,0,서울특별시 성북구 종암동 25-1,서울특별시 성북구 종암로5길 9-2,성북서울요양병원,127.0350838,37.59435547
20041201,영업중,0,0,0,서울특별시 동작구 흑석동 224-1,서울특별시 동작구 서달로 151,중앙대학교병원,126.9608384,37.50703813
19740924,영업중,0,0,0,서울특별시 영등포구 대림동 962-4,서울특별시 영등포구 시흥대로 659,대림성모병원,126.9075823,37.49087431
20200728,영업중,0,0,0,서울특별시 노원구 상계동 366-4,서울특별시 노원구 노원로 461,그레이스힐 요양병원,127.06542140000002,37.65732811
20191015,영업중,0,0,0,서울특별시 강북구 번동 105,서울특별시 강북구 월계로 183,꿈의숲요양병원,127.0450766,37.62039621
20080414,영업중,0,0,0,서울특별시 강북구 미아동 317-1,서울특별시 강북구 도봉로 161,민병원,127.0269824,37.62314179
20090814,영업중,0,0,0,서울특별시 강북구 수유동 521-57,서울특별시 강북구 삼각산로 20,현인요양병원,127.0066406,37.63860953
20070117,영업중,0,0,0,서울특별시 강북구 미아동 734,서울특별시 강북구 삼양로38다길 18,효성요양병원,127.0219747,37.62170527
20070801,영업중,0,0,0,서울특별시 강북구 미아동 189-1,서울특별시 강북구 도봉로76길 10,포근한요양병원,127.02425990000002,37.63273783
20100324,영업중,0,0,0,서울특별시 강북구 번동 463-1,서울특별시 강북구 도봉로96길 12,서울현대병원,127.0293183,37.64041222
20121012,영업중,0,0,0,서울특별시 강북구 수유동 188-1,서울특별시 강북구 한천로 1083,강북우리들병원,127.0226364,37.64254307
20141121,영업중,0,0,0,서울특별시 강북구 미아동 228-44,서울특별시 강북구 도봉로24길 16-8,서울좋은병원,127.0300568,37.61929409
20180319,영업중,0,0,0,서울특별시 강북구 미아동 317-1,서울특별시 강북구 도봉로 161,강북휴요양병원,127.0269824,37.62314179
19950720,영업중,0,0,0,서울특별시 강북구 번동 418-1,서울특별시 강북구 도봉로 358,경희치과병원,127.0273111,37.63924062
19820329,영업중,0,0,0,서울특별시 강북구 수유동 45-1,서울특별시 강북구 노해로 3,의료법인성화의료재단  대한병원,127.0226628,37.63589311
19820522,영업중,0,0,0,서울특별시 강북구 수유동 47-1,서울특별시 강북구 도봉로81길 3,신일병원,127.0228965,37.63511137
20150813,영업중,0,0,0,서울특별시 도봉구 쌍문동 508-1,서울특별시 도봉구 삼양로 610,베이직병원,127.0139861,37.65741542
20050502,영업중,0,0,0,서울특별시 도봉구 쌍문동 657,서울특별시 도봉구 도봉로 569,로덴성문치과병원,127.038552,37.65586658
20050516,영업중,0,0,0,서울특별시 도봉구 창동 749,서울특별시 도봉구 도봉로 634,바로선병원,127.0423314,37.66083931
20060705,영업중,0,0,0,서울특별시 도봉구 방학동 669,서울특별시 도봉구 방학로 183,스카이요양병원,127.0320956,37.66190141
20070522,영업중,0,0,0,서울특별시 도봉구 쌍문동 509-1,서울특별시 도봉구 삼양로 616,퍼스트요양병원,127.0141072,37.6579864
20120727,영업중,0,0,0,서울특별시 도봉구 방학동 703,서울특별시 도봉구 방학로2길 82,성모샘병원,127.0410273,37.66654585
20160629,영업중,0,0,0,서울특별시 도봉구 쌍문동 503-1,서울특별시 도봉구 삼양로 586,서울사랑요양병원,127.01336,37.6553605
20190326,영업중,0,0,0,서울특별시 노원구 상계동 724,서울특별시 노원구 노해로 488,샤인치과교정과 치과병원,127.06213,37.65431164
20190225,영업중,0,0,0,서울특별시 노원구 상계동 301-6,서울특별시 노원구 노원로 416,파로스병원,127.06786979999998,37.65370443
20160310,영업중,0,0,0,서울특별시 노원구 공릉동 617-1,서울특별시 노원구 동일로 1004,강북연세병원,127.0752513,37.61978937
20060411,영업중,0,0,0,서울특별시 서초구 서초동 1426-1,서울특별시 서초구 서초중앙로 4,기쁨병원,127.017994,37.48277904
20160823,영업중,0,0,0,서울특별시 노원구 월계동 50-1,서울특별시 노원구 화랑로 323,더조은요양병원,127.0636019,37.61486252
20170608,영업중,0,0,0,서울특별시 노원구 상계동 1142-2,서울특별시 노원구 동일로243길 48,의료법인 행복나눔의료재단 사랑요양병원,127.0524293,37.67878786
20120516,영업중,0,0,0,서울특별시 종로구 평창동 158-1,서울특별시 종로구 평창문화로 75,로이병원,126.9691913,37.60680976
20100120,영업중,0,0,0,서울특별시 노원구 상계동 292-1,서울특별시 노원구 노해로 503-2,다인치과병원,127.0637347,37.65533089
20120905,영업중,0,0,0,서울특별시 노원구 상계동 723,서울특별시 노원구 노해로 502,참튼튼병원,127.0636644,37.65444168
20130104,영업중,0,0,0,서울특별시 노원구 상계동 292-1,서울특별시 노원구 노해로 503-2,재단법인자생의료재단노원자생한방병원,127.0637347,37.65533089
20130201,영업중,0,0,0,서울특별시 노원구 중계동 160,서울특별시 노원구 덕릉로 692,노원솔요양병원,127.0757113,37.65936589
20140404,영업중,0,0,0,서울특별시 노원구 상계동 387-10,서울특별시 노원구 상계로 146,희망요양병원,127.070735,37.65837176
20020816,영업중,0,0,0,서울특별시 노원구 공릉동 680-1,서울특별시 노원구 동일로 987,태능성심요양병원,127.07476509999998,37.6183933
20040102,영업중,0,0,0,서울특별시 노원구 상계동 727,서울특별시 노원구 노해로 482,강북예치과병원,127.0617053,37.65421785
20041019,영업중,0,0,0,서울특별시 강북구 미아동 67-1,서울특별시 강북구 도봉로 74,햇빛병원,127.0301953,37.61572107
20051215,영업중,0,0,0,서울특별시 노원구 공릉동 680-1,서울특별시 노원구 동일로 987,방병원,127.07476509999998,37.6183933
20150716,영업중,0,0,0,서울특별시 노원구 상계동 366-1,서울특별시 노원구 노원로 466,노원 바로유 한방병원,127.0659821,37.65799213
19890814,영업중,0,0,0,서울특별시 노원구 상계동 762,서울특별시 노원구 덕릉로70가길 96,인제대학교 상계백병원,127.0559066,37.64239595
20060810,영업중,0,0,0,서울특별시 양천구 목동 404-1,서울특별시 양천구 오목로 359,목동힘찬병원,126.8773291,37.52460448
20200203,영업중,0,0,0,서울특별시 은평구 불광동 221-1,서울특별시 은평구 불광로 137,이우요양병원,126.9324979,37.61890889
20200311,영업중,0,0,0,서울특별시 강북구 미아동 304-1,서울특별시 강북구 도봉로 193,강북으뜸병원,127.0259352,37.62603859
20110414,영업중,0,0,0,서울특별시 강서구 등촌동 657,서울특별시 강서구 공항대로 389,부민병원,126.8509697,37.55682871
20190906,영업중,0,0,0,서울특별시 은평구 갈현동 390-1,서울특별시 은평구 통일로 937,은평요양병원,126.9196217,37.62661966
19610515,영업중,0,0,0,서울특별시 은평구 진관동 55,서울특별시 은평구 진관3로 15-35,가톨릭대학교 은평성모병원,126.9183748,37.64217518
19601124,영업중,0,0,0,서울특별시 은평구 역촌동 산 31-1,서울특별시 은평구 갈현로7길 49-1,서울특별시서북병원,126.9036881,37.60429703
20090323,영업중,0,0,0,서울특별시 은평구 응암동 104-1,서울특별시 은평구 응암로34길 10,노블요양병원,126.9218288,37.59813828
20110610,영업중,0,0,0,서울특별시 은평구 녹번동 153-1,서울특별시 은평구 서오릉로 63,최원호병원,126.92304140000002,37.60570162
20110715,영업중,0,0,0,서울특별시 은평구 녹번동 27-2,서울특별시 은평구 녹번로6길 5-24,연세에덴요양병원,126.9323406,37.60647677
20120312,영업중,0,0,0,서울특별시 은평구 구산동 1-19,서울특별시 은평구 연서로 137,로하스은평효요양병원,126.9168493,37.61143968
20160107,영업중,0,0,0,서울특별시 은평구 신사동 8-1,서울특별시 은평구 갈현로2길 6,21C메트로한방병원,126.910877,37.60033665
20170929,영업중,0,0,0,서울특별시 은평구 역촌동 44-1,서울특별시 은평구 연서로2길 6,리드힐병원,126.9168269,37.60073486
19970221,영업중,0,0,0,서울특별시 은평구 응암동 603-1,서울특별시 은평구 응암로4길 25,인정병원,126.9172424,37.58717331
19980421,영업중,0,0,0,서울특별시 은평구 구산동 191-1,서울특별시 은평구 갈현로11가길 7-16,서울재활병원,126.9067887,37.60566643
20020625,영업중,0,0,0,서울특별시 은평구 대조동 15-1,서울특별시 은평구 통일로 719-2,서울병원,126.9302415,37.60983073
20040324,영업중,0,0,0,서울특별시 은평구 녹번동 154-1,서울특별시 은평구 서오릉로 41,연세노블병원,126.9241346,37.60451445
20140307,영업중,0,0,0,서울특별시 은평구 응암동 96-1,서울특별시 은평구 은평로 170,한국효요양병원,126.9268768,37.60119644
20060803,영업중,0,0,0,서울특별시 은평구 대조동 187-1,서울특별시 은평구 통일로 821,문치과병원,126.92289309999998,37.61681693
20070601,영업중,0,0,0,서울특별시 양천구 신정동 942-1,서울특별시 양천구 오목로23길 11-2,양천효요양병원,126.8509244,37.52526547
20160121,영업중,0,0,0,서울특별시 은평구 불광동 281-7,서울특별시 은평구 불광로 54,의료법인 성누가의료재단 성누가병원,126.9315692,37.61180652
20150713,영업중,0,0,0,서울특별시 강남구 역삼동 604-1,서울특별시 강남구 논현로105길 48,라이브치과병원,127.0302409,37.50558631
20060807,영업중,0,0,0,서울특별시 은평구 갈현동 462-1,서울특별시 은평구 연서로 175,은평연세병원,126.9173637,37.61448714
20070411,영업중,0,0,0,서울특별시 은평구 구산동 2-1,서울특별시 은평구 서오릉로 151,하나효요양병원,126.9159454,37.61175464
19800128,영업중,0,0,0,서울특별시 은평구 갈현동 395-1,서울특별시 은평구 통일로 873,의료법인 청구성심병원,126.9195294,37.62077785
19911230,영업중,0,0,0,서울특별시 동대문구 청량리동 40,서울특별시 동대문구 제기로38길 29,서울성심병원,127.0499689,37.58464236
20160602,영업중,0,0,0,서울특별시 서대문구 홍은동 437-1,서울특별시 서대문구 통일로 544,효담요양병원,126.9395747,37.59625573
20150701,영업중,0,0,0,서울특별시 서대문구 창천동 53-47,서울특별시 서대문구 연세로5길 26,잎사귀치과병원,126.9354093,37.55656189
20150126,영업중,0,0,0,서울특별시 서대문구 홍제동 251,서울특별시 서대문구 통일로 442-11,제이여성병원,126.9452459,37.58867953
20160323,영업중,0,0,0,서울특별시 마포구 상암동 1738,서울특별시 마포구 월드컵북로 494,푸르메재단 넥슨어린이재활병원,126.8805364,37.58465012
20150811,영업중,0,0,0,서울특별시 서대문구 남가좌동 102-54,서울특별시 서대문구 모래내로13길 9-8,가자연세병원,126.9164347,37.56937984
20080501,영업중,0,0,0,서울특별시 중랑구 상봉2동 101,서울특별시 중랑구 망우로 316,한걸음요양병원,127.0875092,37.59647603
20060220,영업중,0,0,0,서울특별시 서대문구 연희동 192-1,서울특별시 서대문구 연희로11가길 43,강북연세요양병원,126.92785890000002,37.56656223
19740401,영업중,0,0,0,서울특별시 서대문구 신촌동 134,서울특별시 서대문구 연세로 50-1,학교법인연세대학교치과대학치과병원,126.9394717,37.5646889
20171228,영업중,0,0,0,서울특별시 마포구 마포동 33-1,서울특별시 마포구 마포대로 25,연세한강병원,126.9447721,37.53941284
20200207,영업중,0,0,0,서울특별시 마포구 서교동 353-1,서울특별시 마포구 양화로 133,메디람한방병원,126.9209558,37.55529651
20200217,영업중,0,0,0,서울특별시 마포구 신수동 81-1,서울특별시 마포구 백범로 32,세솟는정형외과병원,126.9374658,37.55180614
20190711,영업중,0,0,0,서울특별시 마포구 성산동 275-1,서울특별시 마포구 성산로 124,마포요양병원,126.9074615,37.56385777
19940401,영업중,0,0,0,서울특별시 강서구 화곡동 1031,서울특별시 강서구 강서로 202,유광사여성병원,126.8382316,37.54421011
19950119,영업중,0,0,0,서울특별시 마포구 합정동 363-1,서울특별시 마포구 독막로 38,혜당한방병원,126.9174835,37.54788296
19991124,영업중,0,0,0,서울특별시 마포구 신수동 66-1,서울특별시 마포구 서강로 106,신촌연세병원,126.9336355,37.5524528
20120803,영업중,0,0,0,서울특별시 마포구 성산동 200,서울특별시 마포구 새터산길 9,에스엠씨요양병원,126.9069394,37.56522005
20130717,영업중,0,0,0,서울특별시 마포구 동교동 166-1,서울특별시 마포구 양화로 178,네모치과병원,126.9251254,37.55751821
20130821,영업중,0,0,0,서울특별시 마포구 도화동 566,서울특별시 마포구 마포대로 78,한그루치과병원,126.9497773,37.5419063
20110318,영업중,0,0,0,서울특별시 동대문구 장안동 431-1,서울특별시 동대문구 천호대로83길 46,맑은수병원,127.065616,37.56408263
19920411,영업중,0,0,0,서울특별시 강북구 미아동 304-1,서울특별시 강북구 도봉로 193,성신병원,127.0259352,37.62603859
20120904,영업중,0,0,0,서울특별시 양천구 신월동 550-1,서울특별시 양천구 신월로 160,라온휴병원,126.841584,37.51750521
20191213,영업중,0,0,0,서울특별시 양천구 신정동 1268,서울특별시 양천구 중앙로 181,서울스마트요양병원,126.8557743,37.51274219
20070614,영업중,0,0,0,서울특별시 동대문구 장안동 309-1,서울특별시 동대문구 장한로 152,햇살요양병원,127.0721788,37.57402516
19930820,영업중,0,0,0,서울특별시 양천구 신정동 899-1,서울특별시 양천구 목동로 225,홍익병원,126.8636366,37.52847874
20160429,영업중,0,0,0,서울특별시 양천구 신월동 546-3,서울특별시 양천구 신월로9길 10,솔빛한방병원,126.8399196,37.51819407
20180530,영업중,0,0,0,서울특별시 양천구 신정동 943-1,서울특별시 양천구 중앙로 312,목동제일여성병원,126.8512962,37.5239466
19971215,영업중,0,0,0,서울특별시 양천구 신정동 907-1,서울특별시 양천구 은행정로 70,목동예치과병원,126.85911570000002,37.52582419
20010402,영업중,0,0,0,서울특별시 양천구 신월동 51-1,서울특별시 양천구 화곡로4길 22,메디힐병원,126.827886,37.53749519
20021231,영업중,0,0,0,서울특별시 양천구 신정동 888-1,서울특별시 양천구 신정중앙로21길 12-3,이엔이치과병원,126.8619455,37.52730732
20040628,영업중,0,0,0,서울특별시 양천구 목동 404-1,서울특별시 양천구 오목로 359,의료법인해인의료재단 동신한방병원,126.8773291,37.52460448
20020918,영업중,0,0,0,서울특별시 동대문구 전농동 497-1,서울특별시 동대문구 서울시립대로7길 8,다일천사병원,127.0480963,37.57736628
20090519,영업중,0,0,0,서울특별시 양천구 신정동 318,서울특별시 양천구 목동서로 271,목동중앙치과병원,126.8695173,37.52291107
20100219,영업중,0,0,0,서울특별시 양천구 목동 404-1,서울특별시 양천구 오목로 359,재단법인자생의료재단목동자생한방병원,126.8773291,37.52460448
20110328,영업중,0,0,0,서울특별시 양천구 신정동 1320,서울특별시 양천구 신정이펜2로 20,서울특별시서남병원,126.8322321,37.51273989
20120605,영업중,0,0,0,서울특별시 양천구 신정동 994-1,서울특별시 양천구 오목로 236,목동연세요양병원,126.86369109999998,37.52586806
20200918,영업중,0,0,0,서울특별시 강남구 도곡동 542,서울특별시 강남구 도곡로 216,치휴한방병원,127.0427267,37.49257469
20190614,영업중,0,0,0,서울특별시 강서구 방화동 606-1,서울특별시 강서구 금낭화로1길 30,강서바른세상병원,126.8102073,37.56617838
20190618,영업중,0,0,0,서울특별시 강서구 마곡동 731,서울특별시 강서구 방화대로44길 55,에스앤유서울병원,126.8186028,37.57067323
20190318,영업중,0,0,0,서울특별시 강서구 화곡동 1065,서울특별시 강서구 화곡로25길 8,하나로한방병원,126.8382928,37.54156861
20070823,영업중,0,0,0,서울특별시 강서구 내발산동 678,서울특별시 강서구 공항대로36길 97,서울스타병원,126.8361568,37.55423095
20140411,영업중,0,0,0,서울특별시 강서구 화곡동 786-1,서울특별시 강서구 곰달래로60가길 23,새미래요양병원,126.8618768,37.53005200000001
20150311,영업중,0,0,0,서울특별시 강서구 화곡동 938-1,서울특별시 강서구 곰달래로 66,강서수한방병원,126.8400767,37.52997898
20160919,영업중,0,0,0,서울특별시 강서구 방화동 769-26,서울특별시 강서구 양천로 31,365강서수요양병원,126.8072938,37.57300585
20170111,영업중,0,0,0,서울특별시 강서구 등촌동 700,서울특별시 강서구 공항대로41길 34,에이스한방병원,126.8457054,37.55928898
20040624,영업중,0,0,0,서울특별시 강서구 방화동 273-1,서울특별시 강서구 방화대로 352,솔병원,126.8174665,37.57243146
20090717,영업중,0,0,0,서울특별시 강서구 화곡동 114-8,서울특별시 강서구 화곡로 188-1,더와이즈치과병원,126.8423901,37.54239959
20090924,영업중,0,0,0,서울특별시 강서구 화곡동 377-1,서울특별시 강서구 화곡로18길 52,의료법인 나누리병원,126.8365091,37.53797486
20100211,영업중,0,0,0,서울특별시 강서구 등촌동 664,서울특별시 강서구 공항대로41길 10,새빛요양병원,126.8451463,37.55838917
20100308,영업중,0,0,0,서울특별시 강서구 내발산동 701,서울특별시 강서구 강서로47가길 3,서울대효병원,126.8356955,37.5525131
20100903,영업중,0,0,0,서울특별시 강서구 등촌동 671,서울특별시 강서구 강서로56길 38,강서힘찬병원,126.8406276,37.55918706
20120430,영업중,0,0,0,서울특별시 강서구 과해동 676,서울특별시 강서구 하늘길 76,우리들병원,126.7986332,37.56179823
20120720,영업중,0,0,0,서울특별시 강서구 방화동 572-2,서울특별시 강서구 양천로 88,방화병원,126.8135352,37.57339803
20081208,영업중,0,0,0,서울특별시 강서구 화곡동 1076,서울특별시 강서구 화곡로 174-2,서울바로나치과병원,126.8408484,37.54155057
19860218,영업중,0,0,0,서울특별시 강서구 등촌동 512-1,서울특별시 강서구 등촌로 185,실로암안과병원,126.8622577,37.54649638
20121010,영업중,0,0,0,서울특별시 강서구 등촌동 632,서울특별시 강서구 양천로 584,참바른병원,126.8634135,37.55602908
20010801,영업중,0,0,0,서울특별시 강서구 화곡동 1052,서울특별시 강서구 강서로 188,참요양병원,126.8392032,37.54322107
20030128,영업중,0,0,0,서울특별시 강서구 등촌동 669,서울특별시 강서구 공항대로 311,강서송도병원,126.8421878,37.55855871
20030502,영업중,0,0,0,서울특별시 강서구 내발산동 677,서울특별시 강서구 강서로 318,웰튼병원,126.83711909999998,37.55401908
20180731,영업중,0,0,0,서울특별시 강서구 화곡동 1026,서울특별시 강서구 강서로 216,서울큰나무병원,126.8373301,37.54509174
20200206,영업중,0,0,0,서울특별시 강서구 염창동 252,서울특별시 강서구 양천로73가길 60,모나리자요양병원,126.8754173,37.54999499
20010528,영업중,0,0,0,서울특별시 강서구 화곡동 349-1,서울특별시 강서구 강서로17가길 7-11,강서필병원,126.8439227,37.53310495
20070808,영업중,0,0,0,서울특별시 구로구 가리봉동 137-1,서울특별시 구로구 남부순환로 1303,의료법인 어울림의료재단 정성요양병원,126.8956227,37.47881177
20070910,영업중,0,0,0,서울특별시 구로구 개봉동 415,서울특별시 구로구 남부순환로95길 38-14,강서효요양병원,126.8564437,37.49500248
20000124,영업중,0,0,0,서울특별시 강서구 내발산동 701,서울특별시 강서구 강서로47가길 3,미즈메디병원,126.8356955,37.5525131
20061201,영업중,0,0,0,서울특별시 영등포구 양평동5가 121-1,서울특별시 영등포구 양평동5가 양평로22사길 9,서울은빛요양병원,126.8949502,37.5408331
20190114,영업중,0,0,0,서울특별시 구로구 고척동 50,서울특별시 구로구 경인로47길 95-5,오케이요양병원,126.8636214,37.50283462
20190130,영업중,0,0,0,서울특별시 구로구 고척동 73-3,서울특별시 구로구 경인로 393-7,리본병원,126.8631031,37.49744484
20131001,영업중,0,0,0,서울특별시 구로구 구로동 25,서울특별시 구로구 새말로 94,아름제일병원,126.890436,37.50545357
20110909,영업중,0,0,0,서울특별시 구로구 구로동 704-5,서울특별시 구로구 구로동로33길 5,예스병원,126.8832118,37.49196092
20180517,영업중,0,0,0,서울특별시 구로구 구로동 552-1,서울특별시 구로구 공원로11길 18,재단법인 제중의료복지재단 제중요양병원,126.8869625,37.50324604
20180921,영업중,0,0,0,서울특별시 구로구 오류동 55-5,서울특별시 구로구 경인로22길 32,더세인트요양병원,126.8452972,37.49598027
20140526,영업중,0,0,0,서울특별시 구로구 고척동 191-1,서울특별시 구로구 중앙로 100,연세사랑모아여성병원,126.8605977,37.50632833
20190227,영업중,0,0,0,서울특별시 구로구 오류동 44-1,서울특별시 구로구 경인로 195-1,해달한방병원,126.8424561,37.49530203
20160315,영업중,0,0,0,서울특별시 구로구 구로동 44,서울특별시 구로구 공원로8길 24,의료법인 서울효천의료재단 에이치플러스요양병원,126.8907807,37.50304035
19920801,영업중,0,0,0,서울특별시 영등포구 영등포동4가 156,서울특별시 영등포구 영등포동4가 영신로 136,건양의료재단 김안과병원,126.90137,37.51980163
20120709,영업중,0,0,0,서울특별시 구로구 오류동 159,서울특별시 구로구 서해안로 2296,삼성미래여성병원,126.8404017,37.49122112
19830831,영업중,0,0,0,서울특별시 구로구 구로동 80,서울특별시 구로구 구로동로28길 33-31,고려대학교의과대학부속구로병원,126.8847203,37.49209752
20000209,영업중,0,0,0,서울특별시 구로구 고척동 76-1,서울특별시 구로구 중앙로 10-18,구로성심병원,126.8664446,37.49990751
19760903,영업중,0,0,0,서울특별시 구로구 개봉동 353-1,서울특별시 구로구 경인로 330,의료법인다나의료재단구로다나병원,126.8567703,37.49716718
20070103,영업중,0,0,0,서울특별시 금천구 가산동 151-1,서울특별시 금천구 남부순환로112길 31,성지병원,126.8942479,37.47739238
20101108,영업중,0,0,0,서울특별시 금천구 독산동 150-1,서울특별시 금천구 시흥대로 457,새움병원,126.897778,37.47436782
20121226,영업중,0,0,0,서울특별시 금천구 독산동 331-3,서울특별시 금천구 범안로17길 29-2,성신고려요양병원,126.8937844,37.46798373
20151202,영업중,0,0,0,서울특별시 금천구 독산동 288-1,서울특별시 금천구 시흥대로 421,서울바른세상병원,126.8976736,37.47116222
20111021,영업중,0,0,0,서울특별시 금천구 시흥동 883,서울특별시 금천구 시흥대로 232,서울대효병원,126.900926,37.45459215
19810709,영업중,0,0,0,서울특별시 종로구 연건동 28-2,서울특별시 종로구 명륜4가 대학로9가길 20,서울대학교병원,126.999455,37.58072263
19850621,영업중,0,0,0,서울특별시 금천구 시흥동 882,서울특별시 금천구 시흥대로64길 35,희명병원,126.9005564,37.45663794
20190925,영업중,0,0,0,서울특별시 금천구 시흥동 1031,서울특별시 금천구 시흥대로73길 67,금천한방병원,126.8958627,37.45600498
20160922,영업중,0,0,0,서울특별시 영등포구 여의도동 35,서울특별시 영등포구 국제금융로6길 26,유디치과병원,126.9269428,37.52192944
20180726,영업중,0,0,0,서울특별시 은평구 응암동 119-1,서울특별시 은평구 응암로 269,시온한방병원,126.918804,37.59597483
20180416,영업중,0,0,0,서울특별시 종로구 숭인동 200-6,서울특별시 종로구 종로 394,서울숭인병원,127.0212477,37.57442681
20110718,영업중,0,0,0,서울특별시 영등포구 문래동2가 39-1,서울특별시 영등포구 문래동2가 도림로133길 20,로하스참사랑요양병원,126.8936587,37.51274713
20160128,영업중,0,0,0,서울특별시 성북구 안암동5가 126-1,서울특별시 성북구 안암동2가 고려대로17길 27,학교법인 고려중앙학원 고려대학교의과대학부속병원(안암병원),127.0269594,37.58713518
20131107,영업중,0,0,0,서울특별시 영등포구 양평동1가 28-1,서울특별시 영등포구 양평동1가 선유동1로 3,한강수병원,126.89127109999998,37.52249671
19940613,영업중,0,0,0,서울특별시 강남구 일원동 50,서울특별시 강남구 일원로 81,삼성서울병원,127.0859585,37.48865329
20120614,영업중,0,0,0,서울특별시 금천구 독산동 899-1,서울특별시 금천구 남부순환로 1394,금천수요양병원,126.9056253,37.47991387
20120724,영업중,0,0,0,서울특별시 서초구 양재동 20-1,서울특별시 서초구 바우뫼로37길 56,참포도나무병원,127.0379887,37.48072331
20080225,영업중,0,0,0,서울특별시 구로구 개봉동 43-1,서울특별시 구로구 고척로21나길 88-41,의료법인 미소들노인전문병원,126.84113,37.5029242
19830404,영업중,0,0,0,서울특별시 강남구 도곡동 146-82,서울특별시 강남구 언주로 211,연세대학교의과대학 강남세브란스병원,127.04740359999998,37.49258602
20060621,영업중,0,0,0,서울특별시 노원구 상계동 373-1,서울특별시 노원구 상계로 114,메디아이여성병원,127.0674578,37.65735494
19840302,영업중,0,0,0,서울특별시 영등포구 영등포동4가 92,서울특별시 영등포구 영등포동4가 영등포로36길 13,씨엠병원,126.9037392,37.51887481
20090901,영업중,0,0,0,서울특별시 강남구 역삼동 642,서울특별시 강남구 테헤란로25길 10,선한목자병원,127.03543159999998,37.50124584
20070312,영업중,0,0,0,서울특별시 영등포구 영등포동7가 77-1,서울특별시 영등포구 영등포동7가 국회대로 646,신화요양병원,126.90591840000002,37.5253329
20151119,영업중,0,0,0,서울특별시 영등포구 영등포동8가 68,서울특별시 영등포구 영등포동8가 영중로 133,닥터김앤박요양병원,126.9053446,37.5283123
20150212,영업중,0,0,0,서울특별시 영등포구 대림동 681,서울특별시 영등포구 가마산로 368,초록나무요양병원,126.8993184,37.50122623
20100111,영업중,0,0,0,서울특별시 동작구 사당1동 1008-1,서울특별시 동작구 동작대로17길 5,더본병원,126.9811139,37.48258201
20110307,영업중,0,0,0,서울특별시 동작구 사당1동 147-2,서울특별시 동작구 동작대로 109-2,연세바른병원,126.9817758,37.48612313
20130801,영업중,0,0,0,서울특별시 동작구 대방동 417-1,서울특별시 동작구 여의대방로 136,의료법인덕수의료재단보라매요양병원,126.9206784,37.49920383
20150512,영업중,0,0,0,서울특별시 동작구 신대방동 358-3,서울특별시 동작구 여의대방로22길 98,기분좋은한방병원,126.9253746,37.49772045
20151127,영업중,0,0,0,서울특별시 영등포구 영등포동6가 8-1,서울특별시 영등포구 영등포동6가 영중로 61,새길병원,126.904558,37.52181634
20180622,영업중,0,0,0,서울특별시 동작구 사당1동 138,서울특별시 동작구 동작대로27나길 21,내이처럼치과병원,126.9806392,37.48659108
19911116,영업중,0,0,0,서울특별시 동작구 신대방동 425,서울특별시 동작구 보라매로5길 20,서울특별시보라매병원,126.9242721,37.49376103
20010307,영업중,0,0,0,서울특별시 동작구 노량진동 311-3,서울특별시 동작구 장승배기로 103,청화병원,126.9397702,37.50669527
20031226,영업중,0,0,0,서울특별시 동작구 상도1동 614-1,서울특별시 동작구 양녕로 283,정동병원,126.9494608,37.50492977
20070604,영업중,0,0,0,서울특별시 동작구 사당1동 1042-1,서울특별시 동작구 동작대로 19,따뜻한치과병원,126.9810857,37.47809807
20071023,영업중,0,0,0,서울특별시 동작구 신대방동 686,서울특별시 동작구 대림로 61,의료법인에이치엠피의료재단녹십초요양병원,126.9066083,37.48851536
20051227,영업중,0,0,0,서울특별시 노원구 상계동 711,서울특별시 노원구 덕릉로70가길 21,선의요양병원,127.0607652,37.64350718
19840807,영업중,0,0,0,서울특별시 영등포구 대림동 709,서울특별시 영등포구 도림로 154,명지성모병원,126.8989637,37.49387887
20100514,영업중,0,0,0,서울특별시 관악구 봉천동 875-1,서울특별시 관악구 남부순환로 1802,강남초이스병원,126.95031000000002,37.4812691
19950520,영업중,0,0,0,서울특별시 관악구 봉천동 884-1,서울특별시 관악구 봉천로 444,미래드림여성병원,126.9491055,37.48228599
20190610,영업중,0,0,0,서울특별시 관악구 남현동 1058-1,서울특별시 관악구 남부순환로 2062,더웰샘한방병원,126.9777621,37.47638679
20200529,영업중,0,0,0,서울특별시 중랑구 망우동 490-1,서울특별시 중랑구 망우로 404,경동한방병원,127.0971543,37.59887626
20131002,영업중,0,0,0,서울특별시 관악구 신림동 726-1,서울특별시 관악구 난곡로 219,조인트힐병원,126.9173475,37.47391286
20140905,영업중,0,0,0,서울특별시 관악구 신림동 1421-1,서울특별시 관악구 신림로66길 42,강남수요양병원,126.9320277,37.48557057
20140617,영업중,0,0,0,서울특별시 관악구 봉천동 869-1,서울특별시 관악구 남부순환로 1812,연세건우병원,126.9512979,37.48111038
20130201,영업중,0,0,0,서울특별시 관악구 신림동 86-1,서울특별시 관악구 신림로58길 13,척편한병원,126.9306317,37.48260341
20150217,영업중,0,0,0,서울특별시 관악구 신림동 산 56-1,,관악서울대학교치과병원,126.95713909999998,37.45334804
20040102,영업중,0,0,0,서울특별시 서초구 방배동 852-1,서울특별시 서초구 방배로27길 9,가야치과병원,126.9916133,37.4897056
20100816,영업중,0,0,0,서울특별시 서초구 서초동 1677-1,서울특별시 서초구 서초대로 334,모커리한방병원,127.0182613,37.49470212
19980326,영업중,0,0,0,서울특별시 서초구 방배동 896-1,서울특별시 서초구 서초대로 116,의료법인 청해의료재단 제일병원,126.9950523,37.48781871
19990724,영업중,0,0,0,서울특별시 서초구 방배동 481-1,서울특별시 서초구 효령로2길 26,대항병원,126.9876293,37.47601455
20090709,영업중,0,0,0,서울특별시 서초구 반포동 20-15,서울특별시 서초구 사평대로 253,서울귀한이치과병원,127.010967,37.50525716
20080401,영업중,0,0,0,서울특별시 서초구 방배동 478-1,서울특별시 서초구 효령로 12,연세사랑병원,126.9866959,37.47686772
20091102,영업중,0,0,0,서울특별시 서초구 반포동 736,서울특별시 서초구 사평대로57길 72,고도일병원,127.0222516,37.50736447
20100412,영업중,0,0,0,서울특별시 서초구 반포동 44-1,서울특별시 서초구 서초중앙로 199,강남요양병원,127.0118722,37.49958603
19890814,영업중,0,0,0,서울특별시 서초구 방배동 837-1,서울특별시 서초구 방배로 196,재단법인 동국한방병원,126.991859,37.49108795
20130117,영업중,0,0,0,서울특별시 서초구 서초동 1657-1,서울특별시 서초구 서초중앙로 126,365엠씨(mc)병원,127.0140942,37.49298521
20150623,영업중,0,0,0,서울특별시 서초구 서초동 1694-1,서울특별시 서초구 서초중앙로 154,염창환병원,127.0135348,37.49537653
20140513,영업중,0,0,0,서울특별시 서초구 방배동 765-1,서울특별시 서초구 방배중앙로27길 47,이건목원리한방병원,126.9831202,37.49512341
20071231,영업중,0,0,0,서울특별시 서초구 서초동 1485-1,서울특별시 서초구 효령로46길 5,의료법인 부원의료재단 서초요양병원,127.0089867,37.48329988
20171106,영업중,0,0,0,서울특별시 서초구 방배동 446-1,서울특별시 서초구 방배천로2길 10,서초프라임요양병원,126.9832778,37.47679824
20180626,영업중,0,0,0,서울특별시 서초구 서초동 1515-1,서울특별시 서초구 명달로22길 4,올바로병원,127.0044421,37.48673885
20011017,영업중,0,0,0,서울특별시 서초구 잠원동 38-1,서울특별시 서초구 신반포로47길 30,길인의료재단 기린한방병원,127.0192147,37.51210006
20030901,영업중,0,0,0,서울특별시 서초구 서초동 1602-1,서울특별시 서초구 효령로 279,21세기병원,127.0147406,37.48492928
20030916,영업중,0,0,0,서울특별시 강남구 논현동 63,서울특별시 강남구 도산대로38길 11,나누리병원,127.0323812,37.5200033
20031219,영업중,0,0,0,서울특별시 강남구 도곡동 910,서울특별시 강남구 논현로41길 19,강남베드로병원,127.0396489,37.48583122
20050425,영업중,0,0,0,서울특별시 강남구 삼성동 52,서울특별시 강남구 삼성로 654,마디병원,127.0507124,37.518582
20061220,영업중,0,0,0,서울특별시 강남구 대치동 907,서울특별시 강남구 선릉로 406,누네안과병원,127.0507995,37.50116382
20070521,영업중,0,0,0,서울특별시 강남구 논현동 62,서울특별시 강남구 도산대로 228,석플란트치과병원,127.03211840000002,37.52053466
20130320,영업중,0,0,0,서울특별시 강남구 삼성동 142,서울특별시 강남구 테헤란로63길 20,유디성신치과병원,127.0503662,37.50655566
20130410,영업중,0,0,0,서울특별시 강남구 수서동 713,서울특별시 강남구 밤고개로1길 10,기쁨정원치과병원,127.1018246,37.4880079
20150724,영업중,0,0,0,서울특별시 강남구 역삼동 705,서울특별시 강남구 테헤란로51길 10,강남초이스정형외과병원,127.0469616,37.50474975
20180914,영업중,0,0,0,서울특별시 강남구 논현동 218,서울특별시 강남구 언주로125길 7,강남지인병원,127.03459479999998,37.51290412
20151124,영업중,0,0,0,서울특별시 강남구 삼성동 90,서울특별시 강남구 영동대로 632,지앤지병원,127.0593959,37.51675287
20130530,영업중,0,0,0,서울특별시 강남구 삼성동 115,서울특별시 강남구 봉은사로 458,소람한방병원,127.0499391,37.51175561
20130125,영업중,0,0,0,서울특별시 강남구 역삼동 773,서울특별시 강남구 언주로71길 9,안강병원,127.044253,37.49733628
20091130,영업중,0,0,0,서울특별시 강남구 역삼동 732,서울특별시 강남구 역삼로33길 10,하나이비인후과병원,127.0417518,37.49784215
20101227,영업중,0,0,0,서울특별시 강남구 삼성동 158,서울특별시 강남구 삼성로96길 20,아림치과병원,127.0575437,37.50891679
20110309,영업중,0,0,0,서울특별시 강남구 삼성동 171,서울특별시 강남구 봉은사로114길 13,서울특별시서울의료원강남분원,127.06624920000002,37.51434036
20111028,영업중,0,0,0,서울특별시 강남구 논현동 200,서울특별시 강남구 강남대로 478,굿라이프치과병원,127.0246485,37.50510019
20180727,영업중,0,0,0,서울특별시 강남구 신사동 635,서울특별시 강남구 언주로 858,노블케어요양병원,127.0339581,37.52693086
20200515,영업중,0,0,0,서울특별시 강남구 도곡동 543,서울특별시 강남구 도곡로 204,서울본브릿지병원,127.0413733,37.49214421
20120921,영업중,0,0,0,서울특별시 강남구 청담동 71,서울특별시 강남구 학동로97길 30,튼튼병원,127.0550626,37.52170688
20190813,영업중,0,0,0,서울특별시 강남구 논현동 235,서울특별시 강남구 봉은사로29길 6,힘찬큐한방병원,127.0348039,37.50817313
20190329,영업중,0,0,0,서울특별시 강남구 도곡동 543,서울특별시 강남구 도곡로 204,예작병원,127.0413733,37.49214421
20181207,영업중,0,0,0,서울특별시 강남구 논현동 98,서울특별시 강남구 언주로 730,미니쉬치과병원,127.0348283,37.52017372
20191031,영업중,0,0,0,서울특별시 강남구 논현동 2,서울특별시 강남구 도산대로 110,미림한방병원,127.0210582,37.5161764
20161028,영업중,0,0,0,서울특별시 강남구 도곡동 949,서울특별시 강남구 강남대로 276,메디움강남요양병원,127.0328169,37.48802649
20170329,영업중,0,0,0,서울특별시 강남구 개포동 1230,서울특별시 강남구 논현로16길 11,소우주요양병원,127.0472258,37.47656228
20160421,영업중,0,0,0,서울특별시 강남구 삼성동 77,서울특별시 강남구 영동대로115길 5,트리니티요양병원,127.0590398,37.515063
20170531,영업중,0,0,0,서울특별시 강남구 개포동 1164,서울특별시 강남구 논현로2길 6,큰사랑요양병원,127.0512005,37.47203997
20120227,영업중,0,0,0,서울특별시 강남구 대치동 995,서울특별시 강남구 영동대로 324,광혜병원,127.06622620000002,37.5031804
20080909,영업중,0,0,0,서울특별시 강남구 논현동 175-10,서울특별시 강남구 봉은사로25길 36-1,비에비스나무병원,127.032181,37.50972545
20090311,영업중,0,0,0,서울특별시 강남구 논현동 5,서울특별시 강남구 도산대로 134,아이디병원,127.0233047,37.5173862
19940317,영업중,0,0,0,서울특별시 강남구 신사동 624-13,서울특별시 강남구 언주로165길 9,서울치과병원,127.0323193,37.52576054
19940425,영업중,0,0,0,서울특별시 강남구 삼성동 161,서울특별시 강남구 봉은사로 612,(의)가산의료재단 광동한방병원,127.0621065,37.51425016
19960123,영업중,0,0,0,서울특별시 강남구 신사동 636,서울특별시 강남구 언주로 868,에이플러스치과병원,127.0339,37.527731
19980612,영업중,0,0,0,서울특별시 강남구 대치동 994,서울특별시 강남구 영동대로 235,재단법인대한스포츠의학재단강남나무병원,127.0672606,37.50006336
19990526,영업중,0,0,0,서울특별시 강남구 신사동 617,서울특별시 강남구 압구정로 226,호산여성병원,127.0325296,37.52865218
19990906,영업중,0,0,0,서울특별시 강남구 대치동 945,서울특별시 강남구 테헤란로 520,가우디치과병원,127.0610538,37.50779557
20000726,영업중,0,0,0,서울특별시 강남구 신사동 665-1,서울특별시 강남구 선릉로 823,수치과병원,127.0392662,37.52559982
20071217,영업중,0,0,0,서울특별시 강남구 신사동 626,서울특별시 강남구 도산대로35길 46,미병원,127.0306922,37.52373787
20080319,영업중,0,0,0,서울특별시 강남구 신사동 665-1,서울특별시 강남구 선릉로 823,수플란트치과병원,127.0392662,37.52559982
20080326,영업중,0,0,0,서울특별시 강남구 신사동 638,서울특별시 강남구 압구정로 302,토마스병원,127.0340799,37.52885901
20131031,영업중,0,0,0,서울특별시 강남구 도곡동 909-3,서울특별시 강남구 남부순환로 2645,요나한방병원,127.039105,37.48559533
20131114,영업중,0,0,0,서울특별시 강남구 논현동 90,서울특별시 강남구 언주로133길 7,강남제이에스병원,127.0346229,37.51618394
20131220,영업중,0,0,0,서울특별시 강남구 대치동 651,서울특별시 강남구 남부순환로 2909,이솝한방병원,127.0573574,37.49219915
20140331,영업중,0,0,0,서울특별시 강남구 세곡동 521,서울특별시 강남구 헌릉로590길 60,의료법인참예원의료재단강남구립행복요양병원,127.103337,37.46113512
19901022,영업중,0,0,0,서울특별시 강남구 역삼동 650,서울특별시 강남구 논현로 570,차의과학대학교 강남차병원,127.0342398,37.50711377
20180720,영업중,0,0,0,서울특별시 강남구 청담동 71,서울특별시 강남구 학동로97길 30,청담힐요양병원,127.0550626,37.52170688
20150625,영업중,0,0,0,서울특별시 강남구 청담동 15,서울특별시 강남구 도산대로70길 43,청담병원,127.0449337,37.5206135
20150720,영업중,0,0,0,서울특별시 강남구 논현동 210,서울특별시 강남구 학동로 234,담소유병원,127.03458059999998,37.51482526
20020816,영업중,0,0,0,서울특별시 강남구 대치동 606-1,서울특별시 강남구 남부순환로 2941,연치과병원,127.0617608,37.49421763
19990621,영업중,0,0,0,서울특별시 강남구 논현동 142,서울특별시 강남구 강남대로 542,자생한방병원,127.02205,37.51054923
20030715,영업중,0,0,0,서울특별시 강남구 역삼동 682,서울특별시 강남구 봉은사로 326,케이에스병원,127.0426399,37.50964466
20180516,영업중,0,0,0,서울특별시 강남구 논현동 241,서울특별시 강남구 학동로 338,리봄한방병원,127.039935,37.51648712
20050114,영업중,0,0,0,서울특별시 송파구 오금동 77,서울특별시 송파구 마천로17길 8,의료법인일맥의료재단 인애가요양병원,127.1354035,37.50520742
20120312,영업중,0,0,0,서울특별시 송파구 석촌동 14,서울특별시 송파구 삼학사로 70,올림픽병원,127.0972559,37.5034951
20161222,영업중,0,0,0,서울특별시 송파구 가락동 112,서울특별시 송파구 중대로 134,혜민안과병원,127.1228668,37.49440078
19930109,영업중,0,0,0,서울특별시 송파구 문정동 17,서울특별시 송파구 문정로5길 3-11,인애가송파한방병원,127.1288438,37.48719441
20170103,영업중,0,0,0,서울특별시 송파구 가락동 48-1,서울특별시 송파구 오금로36길 70-5,자닮인요양병원,127.1207106,37.49855213
20100226,영업중,0,0,0,서울특별시 송파구 오금동 126,서울특별시 송파구 마천로 164,의료법인참예원의료재단 송파참노인전문병원,127.1373992,37.50351193
20110927,영업중,0,0,0,서울특별시 송파구 거여동 559,서울특별시 송파구 오금로 484,송파새희망요양병원,127.1426686,37.49363747
20160630,영업중,0,0,0,서울특별시 송파구 가락동 121,서울특별시 송파구 송이로 150,강남센트럴요양병원,127.1242023,37.49349329
20091006,영업중,0,0,0,서울특별시 송파구 송파동 20,서울특별시 송파구 백제고분로 393,강남힘찬병원,127.1089082,37.5067218
19980407,영업중,0,0,0,서울특별시 송파구 풍납동 496,서울특별시 송파구 올림픽로 585,의료법인정애의료재단서울초이스병원,127.1214371,37.53409645
20070430,영업중,0,0,0,서울특별시 송파구 삼전동 28,서울특별시 송파구 삼전로 52,강남수병원,127.087561,37.50340952
20080623,영업중,0,0,0,서울특별시 송파구 가락동 121,서울특별시 송파구 송이로 150,의료법인마리아의료재단마리아병원,127.1242023,37.49349329
20051020,영업중,0,0,0,서울특별시 송파구 방이동 114,서울특별시 송파구 오금로19길 4,포레힐요양병원,127.1134936,37.51006932
20150421,영업중,0,0,0,서울특별시 송파구 방이동 22,서울특별시 송파구 올림픽로 336,재단법인자생의료재단잠실자생한방병원,127.1074335,37.51538874
20200424,영업중,0,0,0,서울특별시 송파구 삼전동 180,서울특별시 송파구 백제고분로 262,서울연세요양병원,127.0953849,37.50223303
20190701,영업중,0,0,0,서울특별시 송파구 문정동 383-2,서울특별시 송파구 정의로 30,학교법인혜화학원 대전대학교서울한방병원,127.1154627,37.48176792
20080102,영업중,0,0,0,서울특별시 송파구 가락동 159-4,서울특별시 송파구 송이로 74,뉴스타트병원,127.1191659,37.49938881
20190517,영업중,0,0,0,서울특별시 송파구 방이동 109,서울특별시 송파구 오금로15길 2,포레스트한방병원,127.1091865,37.51198078
19980330,영업중,0,0,0,서울특별시 송파구 석촌동 174,서울특별시 송파구 백제고분로39길 6,한솔병원,127.1054706,37.50503673
20190319,영업중,0,0,0,서울특별시 송파구 잠실동 35,서울특별시 송파구 석촌호수로 93,더바름치과병원,127.0895457,37.50987874
20140103,영업중,0,0,0,서울특별시 송파구 거여동 37,서울특별시 송파구 오금로 513,송파미소병원,127.1458569,37.49322183
20140428,영업중,0,0,0,서울특별시 송파구 송파동 20,서울특별시 송파구 백제고분로 393,빠른병원,127.1089082,37.5067218
20180222,영업중,0,0,0,서울특별시 강동구 길동 426,서울특별시 강동구 천호대로 1151,고은빛여성병원,127.1392971,37.53414228
20140415,영업중,0,0,0,서울특별시 송파구 마천동 26,서울특별시 송파구 성내천로21길 21,더사랑요양병원,127.1435765,37.50083329
20190211,영업중,0,0,0,서울특별시 송파구 가락동 36,서울특별시 송파구 중대로 193,서울힐링요양병원,127.1257698,37.49934659
20090818,영업중,0,0,0,서울특별시 강동구 성내동 199,서울특별시 강동구 천호대로 1096,조은마디병원,127.1336038,37.5351374
20111101,영업중,0,0,0,서울특별시 강동구 길동 320-1,서울특별시 강동구 양재대로 1562,강동한방병원,127.1430543,37.54485184
20120803,영업중,0,0,0,서울특별시 강동구 명일동 345-1,서울특별시 강동구 양재대로 1594,사랑플러스병원,127.1437259,37.54766428
20040902,영업중,0,0,0,서울특별시 강동구 성내동 551,서울특별시 강동구 성내로 28,의료법인일맥의료재단인애가한방병원,127.1233921,37.52929768
19930730,영업중,0,0,0,서울특별시 양천구 목동 911,서울특별시 양천구 목동동로 430,이화여자대학교의과대학부속목동병원,126.8847914,37.53463101
20080829,영업중,0,0,0,서울특별시 강동구 성내동 81-12,서울특별시 강동구 올림픽로62길 9-7,허리나은병원,127.1234693,37.53673352
20070625,영업중,0,0,0,서울특별시 강동구 성내동 553,서울특별시 강동구 올림픽로48길 7,청병원,127.1208418,37.5295556
20140421,영업중,0,0,0,서울특별시 강동구 성내동 548,서울특별시 강동구 성내로 58,채원자연통합병원,127.1261996,37.52802863
20141028,영업중,0,0,0,서울특별시 강동구 길동 459,서울특별시 강동구 천호대로177길 10,남기세병원,127.1375721,37.53492988
20141117,영업중,0,0,0,서울특별시 강동구 상일동 501,서울특별시 강동구 상일로10길 36,연세미래엔미소치과병원,127.1740726,37.55074396
20180405,영업중,0,0,0,서울특별시 영등포구 신길동 861,서울특별시 영등포구 여의대방로 203,연세베스트요양병원,126.9219855,37.50534668
20150313,영업중,0,0,0,서울특별시 마포구 노고산동 57-1,서울특별시 마포구 신촌로 94,신촌다인치과병원,126.9359555,37.55510981
19840403,영업중,0,0,0,서울특별시 중랑구 상봉2동 108,서울특별시 중랑구 면목로 477,강북21세기병원,127.0857014,37.59437266
20070410,영업중,0,0,0,서울특별시 강동구 천호동 362,서울특별시 강동구 천중로12길 27,강동성모요양병원,127.1273357,37.54388718
20030425,영업중,0,0,0,서울특별시 강남구 청담동 131-17,서울특별시 강남구 영동대로 726,제일정형외과병원,127.05615159999998,37.52278818
20200617,영업중,0,0,0,서울특별시 강서구 마곡동 731,서울특별시 강서구 방화대로44길 55,무척바른한방병원,126.8186028,37.57067323
20090217,영업중,0,0,0,서울특별시 강남구 대치동 910,서울특별시 강남구 역삼로 428,재단법인위담 위담한방병원,127.0538989,37.5012743
20180626,영업중,0,0,0,서울특별시 강남구 대치동 960,서울특별시 강남구 삼성로 408,강남위담한방병원,127.0586862,37.50374577
20060126,영업중,0,0,0,서울특별시 관악구 신림동 543,서울특별시 관악구 남부순환로 1449,서울본병원,126.9117257,37.48129876
20190314,영업중,0,0,0,서울특별시 금천구 시흥동 1031,서울특별시 금천구 시흥대로73길 67,파라솔요양병원,126.8958627,37.45600498
20181001,영업중,0,0,0,서울특별시 관악구 봉천동 1673-1,서울특별시 관악구 남부순환로231길 10,장튼위튼병원,126.9567851,37.48023177
20110630,영업중,0,0,0,서울특별시 영등포구 영등포동4가 150-1,서울특별시 영등포구 영등포동4가 영신로34길 1,덕수의료재단 덕수요양병원,126.9013621,37.5200983
20001220,영업중,0,0,0,서울특별시 영등포구 영등포동8가 12-1,서울특별시 영등포구 영등포동8가 영중로34길 6,뉴서울성모요양병원,126.9061311,37.5260364
20060608,영업중,0,0,0,서울특별시 성북구 길음동 21,서울특별시 성북구 동소문로 325,서울척병원,127.0293735,37.60903579
20190528,영업중,0,0,0,서울특별시 송파구 마천동 32,서울특별시 송파구 마천로 238,송파그랜드요양병원,127.1437512,37.49964832
20150911,영업중,0,0,0,서울특별시 동대문구 용두동 36-1,서울특별시 동대문구 천호대로 128,서울에이스요양병원,127.0376302,37.57388486
20121214,영업중,0,0,0,서울특별시 동대문구 용두동 129-281,서울특별시 동대문구 무학로26길 58,왕십리휴요양병원,127.0340703,37.57334272
20110328,영업중,0,0,0,서울특별시 영등포구 신길동 232-79,서울특별시 영등포구 신길로 179,재단법인한국산업보건환경연구소부설 해상병원,126.91068,37.50820963
20080918,영업중,0,0,0,서울특별시 동대문구 답십리동 497-1,서울특별시 동대문구 고미술로 16,효림요양병원,127.0503177,37.5694727
20170131,영업중,0,0,0,서울특별시 송파구 문정동 383-2,서울특별시 송파구 정의로 30,민트병원,127.1154627,37.48176792
20170908,영업중,0,0,0,서울특별시 영등포구 신길동 65-1,서울특별시 영등포구 영등포로67가길 20,어울림병원,126.9206596,37.51487703
20140520,영업중,0,0,0,서울특별시 강동구 천호동 51-1,서울특별시 강동구 양재대로121길 7,강동모커리한방병원,127.1410608,37.54229378
20181214,영업중,0,0,0,서울특별시 강동구 천호동 421-1,서울특별시 강동구 구천면로 205,강동우리들요양병원,127.1274487,37.54068599
20170407,영업중,0,0,0,서울특별시 송파구 송파동 135,서울특별시 송파구 백제고분로 426,서재곤링커병원,127.1116123,37.5088649
20140204,영업중,0,0,0,서울특별시 강동구 둔촌동 6-2,서울특별시 강동구 동남로 625,한국보훈복지의료공단 보훈요양병원,127.1476923,37.52968902
20120316,영업중,0,0,0,서울특별시 강동구 천호동 315,서울특별시 강동구 올림픽로 746,강동연세병원,127.1269446,37.5476722
20060227,영업중,0,0,0,서울특별시 강동구 상일동 149,서울특별시 강동구 동남로 892,강동경희대학교치과병원,127.1573815,37.55322236
20101208,영업중,0,0,0,서울특별시 구로구 구로동 1126-1,서울특별시 구로구 시흥대로 551,참튼튼병원,126.9004429,37.48272258
20191213,영업중,0,0,0,서울특별시 성동구 성수동2가 279,서울특별시 성동구 성수동2가 아차산로13길 38,연세바로척병원,127.06217279999998,37.54629179
20140818,영업중,0,0,0,서울특별시 영등포구 대림동 603-2,서울특별시 영등포구 대방천로 28,새롬한방병원,126.89678290000002,37.50587255
20200727,영업중,0,0,0,서울특별시 중랑구 망우동 207-2,서울특별시 중랑구 망우로 470,러스크서울병원,127.1043101,37.60007083
20191226,영업중,0,0,0,서울특별시 관악구 신림동 1638-1,서울특별시 관악구 신원로 35,치유본한방병원,126.9288943,37.48222721
20160705,영업중,0,0,0,서울특별시 중랑구 망우동 460-1,서울특별시 중랑구 봉우재로 234,늘찬병원,127.0988679,37.59512388
19970929,영업중,0,0,0,서울특별시 강서구 화곡동 105-68,서울특별시 강서구 까치산로 23,더와이즈황병원,126.8429797,37.54211637
20190726,영업중,0,0,0,서울특별시 영등포구 신길동 103-1,서울특별시 영등포구 영등포로 357,대윤한방병원,126.9183635,37.51475447
20100429,영업중,0,0,0,서울특별시 관악구 봉천동 937-1,서울특별시 관악구 은천로11길 7,은천요양병원,126.941775,37.4864386
20150113,영업중,0,0,0,서울특별시 관악구 신림동 527-13,서울특별시 관악구 난곡로66길 14,심정병원,126.9154668,37.48254879
20150121,영업중,0,0,0,서울특별시 송파구 가락동 122,서울특별시 송파구 송이로 136,서울석병원,127.123232,37.49449363
20140109,영업중,0,0,0,서울특별시 서초구 서초동 1603-1,서울특별시 서초구 서초중앙로 42,장덕한방병원,127.0160733,37.48575312
20060427,영업중,0,0,0,서울특별시 중랑구 망우동 227,서울특별시 중랑구 양원역로 38,서울특별시 북부병원,127.1076716,37.60432352
20180704,영업중,0,0,0,서울특별시 영등포구 문래동3가 54,서울특별시 영등포구 문래동3가 당산로4길 12,서울센트럴요양병원,126.8967533,37.5161323
20140206,영업중,0,0,0,서울특별시 송파구 신천동 7,서울특별시 송파구 올림픽로35길 120,(本)본브릿지병원,127.0992561,37.51887613
20121213,영업중,0,0,0,서울특별시 성동구 송정동 81-1,서울특별시 성동구 광나루로 279,학교법인대진교육재단 제인병원,127.0607814,37.54841534
20190708,영업중,0,0,0,서울특별시 서초구 방배동 795-1,서울특별시 서초구 방배로37길 11,참푸른병원,126.9891251,37.49351551
20130715,영업중,0,0,0,서울특별시 송파구 가락동 57,서울특별시 송파구 송이로 111,드림요양병원,127.1221817,37.49670901
19890520,영업중,0,0,0,서울특별시 송파구 풍납동 388,서울특별시 송파구 강동대로 13,재단법인아산사회복지재단 서울아산병원,127.11037,37.52905385
19800620,영업중,0,0,0,서울특별시 관악구 신림동 10-270,서울특별시 관악구 남부순환로184가길 49,에이치플러스 양지병원,126.9336486,37.48314468
19820419,영업중,0,0,0,서울특별시 영등포구 영등포동7가 94-76,서울특별시 영등포구 영등포동7가 버드나루로12길 8,한림대학교 한강성심병원,126.9106888,37.52500138
19800111,영업중,0,0,0,서울특별시 영등포구 대림동 948-1,서울특별시 영등포구 신길로 1,한림대학교 강남성심병원,126.90867649999998,37.49328975
20200812,영업중,0,0,0,서울특별시 강동구 길동 420,서울특별시 강동구 진황도로 124,서울성심한방병원,127.1395719,37.5343823
20080118,폐업,20171218,0,0,서울특별시 동대문구 용두동 36-10,서울특별시 동대문구 고산자로 377,효림병원,127.0376882,37.57336958
20110602,휴업,0,20191120,20201119,서울특별시 중구 을지로3가 302-1,서울특별시 중구 을지로3가 을지로14길 16-6,을지치과병원,126.9918659,37.56558528
20090831,휴업,0,20200801,20210731,서울특별시 강남구 논현동 59,서울특별시 강남구 도산대로 202,강남을지대학교병원,127.0285596,37.51940003
19990602,휴업,0,20201005,20201011,서울특별시 강서구 염창동 263,서울특별시 강서구 양천로 706,강서연세병원,126.8740001,37.54911877
20081215,휴업,0,20200810,20201012,서울특별시 동작구 상도동 255,서울특별시 동작구 성대로 31,서울요양병원,126.93376979999998,37.49914207
20150713,전출,0,0,0,서울특별시 서초구 서초동 1305,서울특별시 서초구 강남대로 441,라이브치과병원,127.0251548,37.50169696
20060411,전출,0,0,0,서울특별시 강남구 도곡동 942-1,서울특별시 강남구 도곡로 116,기쁨병원,127.0332656,37.48979
20080624,폐업,20181001,0,0,서울특별시 종로구 돈의동 78,서울특별시 종로구 돈화문로9길 26,춘원당한방병원,126.9903382,37.57179349
19850422,폐업,20181101,0,0,서울특별시 성동구 금호동2가 500,서울특별시 성동구 금호동2가 금호산15길 5,서울중앙병원,127.0187738,37.55360644
20110628,폐업,20181010,0,0,서울특별시 동대문구 답십리동 268-1,서울특별시 동대문구 전농로 43,서울편안한요양병원,127.0563835,37.56888366
19660107,폐업,20180331,0,0,서울특별시 동대문구 청량리동 46-3,서울특별시 동대문구 제기로 144,청량리정신병원,127.0490875,37.58606976
20050610,폐업,20200723,0,0,서울특별시 동대문구 청량리동 689,서울특별시 동대문구 약령시로 124,경동요양병원,127.0437429,37.58293498
20130621,폐업,20170123,0,0,서울특별시 중랑구 면목동 161-1,서울특별시 중랑구 동일로96길 10,기운찬병원,127.0805072,37.58466863
20020104,폐업,20190117,0,0,서울특별시 성북구 장위동 33-1,서울특별시 성북구 한천로 638,의료법인조광의료재단  주사랑병원,127.0581429,37.61531744
20070928,직권폐업,20181231,0,0,서울특별시 강북구 번동 464-1,서울특별시 강북구 도봉로 388,정인노인전문병원,127.0296042,37.6413211
20110808,폐업,20190528,0,0,서울특별시 도봉구 방학동 677,서울특별시 도봉구 방학로 101,(사)한국지체장애인협회 새보람요양병원,127.0410048,37.66259292
20100531,폐업,20180601,0,0,서울특별시 노원구 하계동 256,서울특별시 노원구 노원로16길 15,서울휴먼요양병원,127.0743236,37.64278877
20110603,폐업,20190328,20190228,20190527,서울특별시 노원구 상계동 366-1,서울특별시 노원구 노원로 466,노원스마트요양병원,127.0659821,37.65799213
20050420,폐업,20180514,0,0,서울특별시 노원구 상계동 301-6,서울특별시 노원구 노원로 416,모네여성병원,127.06786979999998,37.65370443
20170628,폐업,20200831,0,0,서울특별시 노원구 공릉동 323-1,서울특별시 노원구 동일로 1107,서울스페셜병원,127.0710698,37.62852102
20080501,폐업,20170701,0,0,서울특별시 노원구 상계동 1115-1,서울특별시 노원구 동일로 1680,새서울병원,127.05559270000002,37.67836145
20080303,폐업,20180304,0,0,서울특별시 은평구 응암동 427-109,서울특별시 은평구 응암로22길 5-6,서울요양병원,126.91890259999998,37.5941451
20100105,폐업,20171105,0,0,서울특별시 은평구 녹번동 19-38,서울특별시 은평구 통일로 642,참튼튼병원,126.935229,37.60405376
20160913,폐업,20181210,0,0,서울특별시 은평구 불광동 483-1,서울특별시 은평구 통일로 908,수사랑한방병원,126.9201903,37.62408853
20020425,폐업,20170620,0,0,서울특별시 은평구 역촌동 62-1,서울특별시 은평구 연서로 73,참조은치과병원,126.9150218,37.60562231
20020827,폐업,20170531,0,0,서울특별시 은평구 역촌동 44-1,서울특별시 은평구 연서로2길 6,참사랑병원,126.9168269,37.60073486
19830311,폐업,20170630,0,0,서울특별시 은평구 응암동 42,서울특별시 은평구 은평로16나길 3-15,재)마리아수녀회 도티기념병원,126.9279674,37.59848617
20110211,폐업,20200314,0,0,서울특별시 양천구 신월동 549-1,서울특별시 양천구 신월로 150,서울인화요양병원,126.8404798,37.51706281
20121108,폐업,20200501,0,0,서울특별시 양천구 신정동 1023-1,서울특별시 양천구 신월로36길 17,서울그린치과병원,126.858628,37.52019634
20080620,폐업,20180814,0,0,서울특별시 강서구 가양동 1479,서울특별시 강서구 양천로57길 9-20,큰나무병원,126.8511818,37.56405705
20110615,폐업,20170808,0,0,서울특별시 강서구 화곡동 24-2,서울특별시 강서구 화곡로 248-26,비엠씨한방병원,126.846723,37.54791211
20160825,폐업,20190629,0,0,서울특별시 구로구 구로동 586-1,서울특별시 구로구 구로중앙로 174,우리모두들치과병원,126.8818065,37.50235663
20120125,폐업,20190115,0,0,서울특별시 구로구 오류동 44-1,서울특별시 구로구 경인로 195-1,의료법인 씨티의료재단 씨티병원,126.8424561,37.49530203
20080728,폐업,20171001,0,0,서울특별시 영등포구 양평동1가 120-1,서울특별시 영등포구 양평동1가 선유로27길 9,오산당요양병원,126.8894786,37.52450704
20031101,폐업,20190504,0,0,서울특별시 영등포구 여의도동 26,서울특별시 영등포구 국제금융로2길 37,예림치과병원,126.9240763,37.52288835
20001220,폐업,20180430,0,0,서울특별시 영등포구 대림동 706-1,서울특별시 영등포구 도림로 142,서울복지한방병원,126.8980779,37.49332312
20071130,폐업,20170601,0,0,서울특별시 영등포구 양평동1가 190,서울특별시 영등포구 양평동1가 영등포로 59,서울으뜸병원,126.88796809999998,37.52289694
20000104,폐업,20180402,0,0,서울특별시 영등포구 대림동 706,서울특별시 영등포구 도림로 142,서울복지병원,126.8978768,37.49316872
19870123,폐업,20170930,0,0,서울특별시 영등포구 영등포동 173-2,서울특별시 영등포구 당산동1가 영신로 145,서울대윤병원,126.9010698,37.52074308
20090814,폐업,20171001,0,0,서울특별시 서초구 서초동 1305,서울특별시 서초구 강남대로 441,사람사랑치과병원,127.0251548,37.50169696
20050805,폐업,20180721,0,0,서울특별시 서초구 서초동 1328,서울특별시 서초구 강남대로 373,사과나무치과병원,127.0279461,37.49609001
20060519,폐업,20200828,0,0,서울특별시 강남구 대치동 889,서울특별시 강남구 선릉로 435,네모치과병원,127.0493313,37.50421934
20050305,폐업,20171101,0,0,서울특별시 강남구 역삼동 825,서울특별시 강남구 강남대로 390,포샤르치과병원,127.0286135,37.49783761
20120430,폐업,20191031,0,0,서울특별시 강남구 역삼동 736,서울특별시 강남구 테헤란로 138,투데이치과병원,127.03424479999998,37.49963321
20120516,폐업,20200531,0,0,서울특별시 강남구 신사동 597,서울특별시 강남구 논현로164길 14,이지앤성형외과병원,127.0292022,37.52345235
20131206,폐업,20190228,0,0,서울특별시 강남구 신사동 514,서울특별시 강남구 강남대로152길 18,그랜드성형외과병원,127.0209565,37.51732283
19901222,폐업,20180603,0,0,서울특별시 강남구 역삼동 648,서울특별시 강남구 테헤란로7길 12,청아치과병원,127.0309214,37.50001679
20170626,폐업,20180917,0,0,서울특별시 송파구 석촌동 52,서울특별시 송파구 석촌호수로18길 8-14,프리허그한방병원,127.1002619,37.50612982
20100610,폐업,20190812,0,0,서울특별시 강동구 길동 412-1,서울특별시 강동구 양재대로111길 7,예닮요양병원,127.1390192,37.53695501
20051115,폐업,20170712,0,0,서울특별시 강동구 천호동 362,서울특별시 강동구 천중로12길 27,사회복지법인소원의항구로뎀노인전문병원,127.1273357,37.54388718
20130201,폐업,20180119,0,0,서울특별시 강동구 천호동 357,서울특별시 강동구 올림픽로 684,의료법인 한국암치료재단 헬스피아요양병원,127.1252816,37.54225899
20181101,폐업,20200817,0,0,서울특별시 강동구 길동 419,서울특별시 강동구 진황도로 122,서울실버한방병원,127.1394144,37.53454948
20090820,폐업,20180405,0,0,서울특별시 강동구 천호동 421-1,서울특별시 강동구 구천면로 205,연세영동요양병원,127.1274487,37.54068599
20090603,영업중,0,0,0,서울특별시 성동구 성수동2가 275-2,서울특별시 성동구 성수동2가 동일로 93,서울효사랑요양병원,127.0630988,37.54114734
20101006,영업중,0,0,0,서울특별시 성동구 행당동 198-1,서울특별시 성동구 왕십리로 296,서울연세병원,127.0361477,37.56063992
20070528,영업중,0,0,0,서울특별시 광진구 구의동 80-25,서울특별시 광진구 자양로 215,제니스병원,127.0864477,37.54651443
19660107,영업중,0,0,0,서울특별시 동대문구 휘경동 283-1,서울특별시 동대문구 망우로 82,삼육서울병원,127.0625424,37.58972578
19710821,영업중,0,0,0,서울특별시 동대문구 회기동 1-5,서울특별시 동대문구 경희대로 23,경희대학교한방병원,127.0507402,37.59377356
20110325,영업중,0,0,0,서울특별시 동대문구 장안동 294-11,서울특별시 동대문구 답십리로 261,참튼튼병원,127.0693587,37.57273223
19921112,영업중,0,0,0,서울특별시 동대문구 휘경동 283-1,서울특별시 동대문구 망우로 82,삼육치과병원,127.0625424,37.58972578
20051207,영업중,0,0,0,서울특별시 성북구 장위동 50-50,서울특별시 성북구 화랑로 271,의료법인유라의료재단 온누리요양병원,127.0588094,37.61217113
19930203,영업중,0,0,0,서울특별시 도봉구 방학동 705-4,서울특별시 도봉구 도봉로 720,도봉병원,127.043802,37.66875973
20040823,영업중,0,0,0,서울특별시 도봉구 방학동 442,서울특별시 도봉구 시루봉로 137,경희늘푸른노인전문병원,127.0273695,37.66319356
20080317,영업중,0,0,0,서울특별시 도봉구 창동 715-28,서울특별시 도봉구 해등로 129,다나병원,127.040438,37.65505324
20100721,영업중,0,0,0,서울특별시 도봉구 쌍문동 707-13,서울특별시 도봉구 도봉로 639,정병원,127.0418209,37.66153921
20070427,영업중,0,0,0,서울특별시 노원구 공릉동 680-9,서울특별시 노원구 동일로 987,태릉마이크로병원,127.0749418,37.61825474
19660505,영업중,0,0,0,서울특별시 은평구 응암동 232-3,서울특별시 은평구 백련산로 90,서울특별시은평병원,126.9237628,37.59420556
20030822,영업중,0,0,0,서울특별시 강서구 등촌동 673-1,서울특별시 강서구 공항대로 281,로고스치과병원,126.8389048,37.55886306
19851105,영업중,0,0,0,서울특별시 금천구 독산동 960,서울특별시 금천구 독산로 362,실버한방병원,126.9041873,37.47906927
19960429,영업중,0,0,0,서울특별시 금천구 독산동 899-5,서울특별시 금천구 남부순환로 1398,구로한방병원,126.90613770000002,37.47994439
20031107,영업중,0,0,0,서울특별시 금천구 독산동 1012-18,서울특별시 금천구 시흥대로114길 5,아카시아병원,126.89854950000002,37.46808921
20110302,영업중,0,0,0,서울특별시 금천구 시흥동 999-31,서울특별시 금천구 시흥대로 239,뉴연세여성병원,126.8999472,37.45521246
20110620,영업중,0,0,0,서울특별시 금천구 시흥동 890-6,서울특별시 금천구 시흥대로 202,녹십자요양병원,126.90211709999998,37.45196729999999
19910222,영업중,0,0,0,서울특별시 동작구 상도동 188-19,서울특별시 동작구 상도로 146,의료법인성석의료재단동작경희병원,126.9358622,37.50247633
20111017,영업중,0,0,0,서울특별시 강동구 천호동 425-5,서울특별시 강동구 올림픽로 664,아이엠치과병원,127.1249756,37.54055443
20081118,영업중,0,0,0,서울특별시 서대문구 북가좌동 392-24,서울특별시 서대문구 수색로 131,사랑요양병원,126.9056773,37.57420741
19910519,휴업,0,20190101,20211231,서울특별시 서대문구 북아현동 126-22,서울특별시 서대문구 신촌로37길 10,의료법인 현창의료재단 서서울병원,126.957006,37.55771785
20071005,폐업,20190115,0,0,서울특별시 도봉구 쌍문동 507-43,서울특별시 도봉구 삼양로 598,조이요양병원,127.0140756,37.65624317
20111101,폐업,20180630,0,0,서울특별시 강서구 등촌동 628-9,서울특별시 강서구 화곡로 416,강서성모요양병원,126.8555276,37.55972453
20000328,폐업,20180705,0,0,서울특별시 강서구 방화동 487-5,서울특별시 강서구 양천로 45-5,뉴강서성심병원,126.808801,37.57328785
19850329,폐업,20180119,0,0,서울특별시 강동구 천호동 357,서울특별시 강동구 올림픽로 684,의료법인 한국암치료재단 서울중입자병원,127.1252988,37.54227704
19891012,영업중,0,0,0,서울특별시 종로구 삼청동 26-3,서울특별시 종로구 삼청로10길 12,서울지구병원,126.9820094,37.58786755
20040901,영업중,0,0,0,서울특별시 종로구 연건동 28-21,서울특별시 종로구 대학로 101,서울대학교치과병원,126.998354,37.5785473
19770401,영업중,0,0,0,서울특별시 종로구 평동 164,서울특별시 종로구 새문안로 9,서울적십자병원,126.9673859,37.56749742
20060622,영업중,0,0,0,서울특별시 중구 을지로6가 18-17,서울특별시 중구 을지로6가 장충단로 263,더블유치과병원,127.0084723,37.56811504
20111028,영업중,0,0,0,서울특별시 중구 황학동 688,서울특별시 중구 퇴계로 447,연세스위트치과병원,127.0217222,37.56604228
20100402,영업중,0,0,0,서울특별시 중구 을지로6가 18-79,서울특별시 중구 을지로6가 을지로 245,국립중앙의료원,127.0062719,37.56802249
19760310,영업중,0,0,0,서울특별시 중구 저동2가 85,서울특별시 중구 저동2가 마른내로 9,인제대학교 서울백병원,126.9888563,37.56508767
19940225,영업중,0,0,0,서울특별시 중구 신당동 366-97,서울특별시 중구 다산로 78,서울송도병원,127.008382,37.55116814
20170804,영업중,0,0,0,서울특별시 성동구 용답동 235-3,서울특별시 성동구 천호대로 436,굿모닝요양병원,127.0672094,37.56069135
20030917,영업중,0,0,0,서울특별시 중랑구 면목동 608,서울특별시 중랑구 사가정로49길 53,녹색병원,127.08606090000002,37.58356426
20140521,영업중,0,0,0,서울특별시 동대문구 장안동 311-5,서울특별시 동대문구 장한로32길 7,브레인요양병원,127.0725832,37.57546837
20050329,영업중,0,0,0,서울특별시 중랑구 묵동 158-7,서울특별시 중랑구 공릉로 76,의료법인한국의료재단프라임병원,127.0794602,37.6172287
20160502,영업중,0,0,0,서울특별시 중랑구 면목동 617-2,서울특별시 중랑구 면목로 310,연세본병원,127.0879754,37.57963775
19830822,영업중,0,0,0,서울특별시 중랑구 망우동 94-2,서울특별시 중랑구 망우로 511,의료법인풍산의료재단동부제일병원,127.1095783,37.60086346
20071205,영업중,0,0,0,서울특별시 중랑구 상봉2동 74-43,서울특별시 중랑구 망우로 373,서울선병원,127.0936277,37.59862277
19880329,영업중,0,0,0,서울특별시 성북구 안암동5가 103-130,서울특별시 성북구 안암동5가 안암로 99,의료법인 우신향병원,127.03094109999998,37.58461773
20030602,영업중,0,0,0,서울특별시 성북구 종암동 10-125,서울특별시 성북구 종암로 72,로덴치과병원,127.0356113,37.59699923
20080901,영업중,0,0,0,서울특별시 중랑구 망우동 149-17,서울특별시 중랑구 망우로 476,라본병원,127.1050929,37.60031007
20060911,영업중,0,0,0,서울특별시 성북구 보문동7가 105-3,서울특별시 성북구 보문동7가 보문로 46,보문효사랑요양병원,127.0227254,37.57973781
20110628,영업중,0,0,0,서울특별시 성북구 하월곡동 88-747,서울특별시 성북구 동소문로 306,동서요양병원,127.0289234,37.60689201
19880115,영업중,0,0,0,서울특별시 성북구 종암동 10-125,서울특별시 성북구 종암로 72,의료법인서광의료재단 성북중앙병원,127.0356113,37.59699923
20180223,영업중,0,0,0,서울특별시 성북구 하월곡동 88-863,서울특별시 성북구 동소문로46길 10,성북우리아이들병원,127.0293598,37.60686454
20161212,영업중,0,0,0,서울특별시 강북구 번동 461-68,서울특별시 강북구 한천로 1002,북서울요양병원,127.0300183,37.63813574
19940221,영업중,0,0,0,서울특별시 강북구 수유동 520,서울특별시 강북구 삼각산로 58,국립재활원,127.0114587,37.63917458
20130719,영업중,0,0,0,서울특별시 도봉구 쌍문동 707-13,서울특별시 도봉구 도봉로 639,정요양병원,127.0418209,37.66153921
19740328,영업중,0,0,0,서울특별시 도봉구 쌍문동 388-1,서울특별시 도봉구 우이천로 308,의료법인한전의료재단 한일병원,127.0295405,37.64538852
20020904,영업중,0,0,0,서울특별시 도봉구 방학동 665-6,서울특별시 도봉구 도당로 51,가화실버한방병원,127.0343929,37.66283058
20080131,영업중,0,0,0,서울특별시 도봉구 창동 731-1,서울특별시 도봉구 도봉로 604,에이치큐브병원,127.0410351,37.65831497
20080331,영업중,0,0,0,서울특별시 도봉구 방학동 719-3,서울특별시 도봉구 도봉로152길 26,의성한방병원,127.0452746,37.66923195
20091109,영업중,0,0,0,서울특별시 도봉구 창동 650-46,서울특별시 도봉구 도봉로 446,의료법인 상원의료재단 강북힘찬병원,127.03337720000002,37.6456628
20141117,영업중,0,0,0,서울특별시 송파구 신천동 11-7,서울특별시 송파구 올림픽로 319,케이치과병원,127.1054645,37.51565063
20060913,영업중,0,0,0,서울특별시 영등포구 영등포동8가 50-1,서울특별시 영등포구 영등포동8가 영중로 122,마리아성모요양병원,126.9059605,37.52713152
20020805,영업중,0,0,0,서울특별시 은평구 응암동 87-9,서울특별시 은평구 은평로 133,본서부병원,126.9229088,37.60100759
20110309,영업중,0,0,0,서울특별시 중랑구 신내동 316,서울특별시 중랑구 신내로 156,서울특별시서울의료원,127.098732,37.61307869
20040302,영업중,0,0,0,서울특별시 서대문구 연희동 194-37,서울특별시 서대문구 성산로 365-14,의료법인제민의료재단동서병원,126.9302592,37.56466512
19840227,영업중,0,0,0,서울특별시 서대문구 연희동 194-37,서울특별시 서대문구 성산로 365-14,의료법인제민의료재단동서한방병원,126.9302592,37.56466512
20181211,영업중,0,0,0,서울특별시 양천구 목동 408-121,서울특별시 양천구 오목로 282,목동성모요양병원,126.868558,37.52518551
20030728,영업중,0,0,0,서울특별시 양천구 목동 513-2,서울특별시 양천구 공항대로 610,포미즈여성병원,126.8723584,37.54678970000001
20041001,영업중,0,0,0,서울특별시 구로구 구로동 26-2,서울특별시 구로구 새말로 110,마루치과병원,126.8921352,37.50633461
20181226,영업중,0,0,0,서울특별시 강서구 마곡동 728-24,서울특별시 강서구 공항대로 260,이화여자대학교의과대학부속서울병원,126.8362668,37.55726306
20121228,영업중,0,0,0,서울특별시 도봉구 쌍문동 508-2,서울특별시 도봉구 삼양로 606,포근한맘요양병원,127.013808,37.65707697
20070222,영업중,0,0,0,서울특별시 구로구 가리봉동 137-5,서울특별시 구로구 남부순환로 1291,남부효요양병원,126.8943759,37.47905202
20101109,영업중,0,0,0,서울특별시 구로구 고척동 324,서울특별시 구로구 중앙로1길 18-18,아나파한방병원,126.863581,37.49923145
20140612,영업중,0,0,0,서울특별시 구로구 고척동 176-3,서울특별시 구로구 중앙로 91,목동현대요양병원,126.8604237,37.50555424
19811113,영업중,0,0,0,서울특별시 영등포구 당산동3가 386-3,서울특별시 영등포구 당산동3가 당산로31길 10,의료법인 인봉의료재단 영등포병원,126.8959973,37.52690865
20080404,영업중,0,0,0,서울특별시 중랑구 묵동 180-55,서울특별시 중랑구 동일로 890,마디세상병원,127.0781893,37.60991545
20091015,영업중,0,0,0,서울특별시 영등포구 대림동 668-12,서울특별시 영등포구 가마산로 381,대림요양병원,126.89977240000002,37.50261844
19950520,영업중,0,0,0,서울특별시 관악구 봉천동 36-83,서울특별시 관악구 관악로 242,강남고려병원,126.9567796,37.48561534
19820930,영업중,0,0,0,서울특별시 영등포구 신길동 451-5,서울특별시 영등포구 여의대방로53길 22,성애의료재단 성애병원,126.9223689,37.51205002
19950114,영업중,0,0,0,서울특별시 노원구 하계동 280-1,서울특별시 노원구 한글비석로 68,노원을지대학교병원,127.0699341,37.63643466
20080415,영업중,0,0,0,서울특별시 관악구 봉천동 945-2,서울특별시 관악구 남부순환로 1704,강남효요양병원,126.939398,37.4830464
20081104,영업중,0,0,0,서울특별시 서초구 서초동 1602-8,서울특별시 서초구 서초중앙로 39,서울탑치과병원,127.015711,37.48527671
19780523,영업중,0,0,0,서울특별시 서초구 내곡동 375,서울특별시 서초구 헌릉로 260,서울특별시어린이병원,127.0688168,37.45529233
19800502,영업중,0,0,0,서울특별시 서초구 반포동 505,서울특별시 서초구 반포대로 222,학교법인가톨릭학원가톨릭대학교서울성모병원,127.0051816,37.49923118
20010918,영업중,0,0,0,서울특별시 서초구 방배동 774,서울특별시 서초구 방배로 245,필치과병원,126.98886509999998,37.49476868
20151214,영업중,0,0,0,서울특별시 서초구 서초동 1600-10,서울특별시 서초구 서초중앙로 47,세바른병원,127.0153412,37.48595229
20160311,영업중,0,0,0,서울특별시 서초구 우면동 791,서울특별시 서초구 양재대로 54,의료법인 참예원의료재단 서초참요양병원,127.025361,37.45976449
20100429,영업중,0,0,0,서울특별시 서초구 서초동 1656-4,서울특별시 서초구 서초중앙로 110,의료법인 명경의료재단 꽃마을한방병원,127.0145228,37.49159037
20050601,영업중,0,0,0,서울특별시 강남구 논현동 206-10,서울특별시 강남구 봉은사로 171,김정수여러분병원,127.0325757,37.50721955
20050303,영업중,0,0,0,서울특별시 강남구 청담동 47-4,서울특별시 강남구 학동로 445,우리들병원,127.0496083,37.51909116
20151223,영업중,0,0,0,서울특별시 강남구 논현동 192-5,서울특별시 강남구 논현로 609,한성한방병원,127.0331838,37.50801397
20080411,영업중,0,0,0,서울특별시 강남구 청담동 2-8,서울특별시 강남구 도산대로 410,에스플란트치과병원,127.0404834,37.5229769
20080626,영업중,0,0,0,서울특별시 강남구 논현동 37-21,서울특별시 강남구 논현로 705,메드렉스병원,127.02997820000002,37.51490115
19920715,영업중,0,0,0,서울특별시 강남구 신사동 638-1,서울특별시 강남구 압구정로 304,윤호병원,127.0344143,37.52884466
20170519,영업중,0,0,0,서울특별시 강남구 신사동 587-16,서울특별시 강남구 도산대로 209,느루요양병원,127.02939,37.52050407
20010719,영업중,0,0,0,서울특별시 강남구 삼성동 159-9,서울특별시 강남구 테헤란로87길 36,건강한세상앞선치과병원,127.0585975,37.51023437
20070612,영업중,0,0,0,서울특별시 강남구 도곡동 957-14,서울특별시 강남구 남부순환로 2609,유나이티드병원,127.0350968,37.48496357
20020419,영업중,0,0,0,서울특별시 강남구 대치동 939-24,서울특별시 강남구 도곡로 429,재단법인베스티안재단베스티안서울병원,127.0571965,37.49803149
19971220,영업중,0,0,0,서울특별시 송파구 신천동 7-19,서울특별시 송파구 올림픽로 289,시그마치과병원,127.1025223,37.51461439
19980605,영업중,0,0,0,서울특별시 송파구 가락동 2,서울특별시 송파구 오금로 290,서울병원,127.1247092,37.5039067
19991030,영업중,0,0,0,서울특별시 송파구 문정동 150-26,서울특별시 송파구 중대로 68,수치과병원,127.1164382,37.49156636
20130903,영업중,0,0,0,서울특별시 송파구 잠실동 175-7,서울특별시 송파구 올림픽로 76,선수촌병원,127.0791825,37.51156239
20101117,영업중,0,0,0,서울특별시 강동구 암사동 501-10,서울특별시 강동구 올림픽로98길 8,동부센트럴요양병원,127.1284399,37.55113494
20050228,영업중,0,0,0,서울특별시 강동구 길동 424,서울특별시 강동구 천호대로 1159,서울양병원,127.1401247,37.53406791
20060227,영업중,0,0,0,서울특별시 강동구 상일동 149,서울특별시 강동구 동남로 892,강동경희대학교한방병원,127.1576155,37.55355882
20120102,영업중,0,0,0,서울특별시 강동구 성내동 24-1,서울특별시 강동구 풍성로37길 45,공안과병원,127.1260282,37.53391594
20031205,영업중,0,0,0,서울특별시 강동구 천호동 452-1,서울특별시 강동구 천호대로 1043,강동미즈여성병원,127.1281065,37.53762375
20130222,영업중,0,0,0,서울특별시 강동구 길동 318,서울특별시 강동구 천호대로 1165,달려라병원,127.1409297,37.534082700000006
20140912,영업중,0,0,0,서울특별시 강동구 성내동 13-9,서울특별시 강동구 천호대로 1044,리더스병원,127.12772859999998,37.53694762
20110426,영업중,0,0,0,서울특별시 성북구 정릉동 508-171,서울특별시 성북구 북악산로1길 71,의료법인참예원의료재단 성북참노인전문병원,127.0051939,37.59765763
19940622,영업중,0,0,0,서울특별시 서대문구 홍은동 430,서울특별시 서대문구 연희로 272,의료법인동신의료재단 동신병원,126.936591,37.58118785
19861017,영업중,0,0,0,서울특별시 강동구 길동 445,서울특별시 강동구 성안로 150,성심의료재단강동성심병원,127.135336,37.53615563
20060101,영업중,0,0,0,서울특별시 관악구 봉천동 1664-1,서울특별시 관악구 남부순환로 1860,사랑의병원,126.9562864,37.4796258
20170320,영업중,0,0,0,서울특별시 강동구 천호동 357,서울특별시 강동구 올림픽로 684,서울현대요양병원,127.1252988,37.54227704
20141017,영업중,0,0,0,서울특별시 영등포구 양평동4가 68-1,서울특별시 영등포구 양평동4가 양평로 99,대명요양병원,126.8960729,37.53648028
19860820,영업중,0,0,0,서울특별시 영등포구 여의도동 62,서울특별시 영등포구 63로 10,가톨릭대학교 여의도성모병원,126.9360028,37.51790475
20060227,영업중,0,0,0,서울특별시 강동구 상일동 149,서울특별시 강동구 동남로 892,강동경희대학교의대병원,127.1576155,37.55355882
19831116,영업중,0,0,0,서울특별시 강동구 둔촌동 6-2,서울특별시 강동구 진황도로61길 53,한국보훈복지의료공단 중앙보훈병원,127.147206,37.52818872
19851129,영업중,0,0,0,서울특별시 노원구 공릉동 215-4,서울특별시 노원구 노원로 75,한국원자력의학원원자력병원,127.0818105,37.62826722
20101122,영업중,0,0,0,서울특별시 영등포구 대림동 782-3,서울특별시 영등포구 대림로 223,의료법인 춘혜의료재단 명지춘혜재활병원,126.897027,37.50064627
20141127,영업중,0,0,0,서울특별시 중랑구 망우동 489-9,서울특별시 중랑구 망우로 403,마인드웰병원,127.0968916,37.59942823
20131224,영업중,0,0,0,서울특별시 중랑구 면목동 180-1,서울특별시 중랑구 동일로 679,팔팔병원,127.0796981,37.59093959
19840904,영업중,0,0,0,서울특별시 서대문구 홍제동 234-2,서울특별시 서대문구 세무서길 20,재단법인대성병원,126.9457916,37.58893789
19740325,영업중,0,0,0,서울특별시 서대문구 신촌동 134,서울특별시 서대문구 연세로 50-1,학교법인연세대학교의과대학세브란스병원,126.9417213,37.56301291
19710220,영업중,0,0,0,서울특별시 송파구 가락동 58,서울특별시 송파구 송이로 123,경찰병원,127.1234875,37.49641466
20170106,휴업,0,20200801,20201231,서울특별시 성동구 하왕십리동 1070-3,서울특별시 성동구 왕십리로 382,서울동인병원,127.0280203,37.56511103
20020902,폐업,20170729,0,0,서울특별시 중구 태평로1가 62-4,서울특별시 중구 태평로1가 세종대로21길 52,산치과병원,126.9761248,37.56872522
20100902,폐업,20170807,0,0,서울특별시 중랑구 면목동 179-21,서울특별시 중랑구 동일로 649,해솔요양병원,127.0797092,37.58845867
20071231,폐업,20180501,0,0,서울특별시 강남구 논현동 122-5,서울특별시 강남구 학동로4길 7,연세에스병원,127.0231759,37.51104087
20120912,폐업,20180516,0,0,서울특별시 송파구 마천동 32,서울특별시 송파구 마천로 238,송파마음요양병원,127.1437717,37.49963919
20160923,폐업,20170701,0,0,서울특별시 강동구 둔촌동 439-5,서울특별시 강동구 양재대로 1412,강동제일병원,127.138323,37.53201064
20070309,폐업,20200712,0,0,서울특별시 강동구 명일동 335-3,서울특별시 강동구 양재대로 1596,러스크강동병원,127.1437896,37.54808383
