년,설립일자,학교명,소재지지번주소,소재지도로명주소,위도,경도
2020,19591010,서울휘경초등학교,서울특별시 동대문구 휘경동 302-2,서울특별시 동대문구 망우로6길 48,37.5857358,127.0582128
2020,19840523,서울동답초등학교,서울특별시 동대문구 답십리동 2-24,서울특별시 동대문구 답십리로60길 12,37.571503,127.0640336
2020,19621129,서울답십리초등학교,서울특별시 동대문구 답십리동 274,서울특별시 동대문구 전농로3길 23,37.5688043,127.05542859999998
2020,19720509,서울신답초등학교,서울특별시 동대문구 답십리동 463-13,서울특별시 동대문구 천호대로 177,37.5727054,127.0429615
2020,19481101,서울용두초등학교,서울특별시 동대문구 용두동 237-1,서울특별시 동대문구 천호대로13길 43,37.57641470000001,127.0283873
2020,19670906,서울이문초등학교,서울특별시 동대문구 이문동 358-34,서울특별시 동대문구 신이문로 16,37.6018948,127.0648841
2020,19731122,서울군자초등학교,서울특별시 동대문구 장안동 239-2,서울특별시 동대문구 한천로6길 21,37.5641238,127.0605231
2020,19800404,서울장평초등학교,서울특별시 동대문구 장안동 323,서울특별시 동대문구 답십리로69길 27,37.5739948,127.07389340000002
2020,19901010,서울안평초등학교,서울특별시 동대문구 장안동 353-1,서울특별시 동대문구 장한로14길 61,37.5659698,127.0720337
2020,19711008,서울배봉초등학교,서울특별시 동대문구 전농동 3-111,서울특별시 동대문구 사가정로 193,37.5800825,127.0668713
2020,19690520,서울전동초등학교,서울특별시 동대문구 전농동 45-41,서울특별시 동대문구 전농로16길 61,37.5790838,127.06080690000002
2020,19610406,서울전곡초등학교,서울특별시 동대문구 전농동 188,서울특별시 동대문구 전농로 172,37.5807044,127.0560126
2020,19420408,서울전농초등학교,서울특별시 동대문구 전농동 298,서울특별시 동대문구 사가정로 66,37.57472979999999,127.0543327
2020,19600705,서울홍파초등학교,서울특별시 동대문구 제기동 678,서울특별시 동대문구 고산자로 518,37.5862225,127.0395183
2020,19220708,서울종암초등학교,서울특별시 동대문구 제기동 1157,서울특별시 동대문구 무학로44길 25,37.5823063,127.0318584
2020,19671130,서울홍릉초등학교,서울특별시 동대문구 청량리동 206-44,서울특별시 동대문구 회기로 90,37.5906874,127.0477047
2020,19370405,서울청량초등학교,서울특별시 동대문구 회기동 1-1,서울특별시 동대문구 회기로25길 31,37.5923092,127.055908
2020,20060301,서울휘봉초등학교,서울특별시 동대문구 휘경동 49-27,서울특별시 동대문구 장안벚꽃로 309,37.5856776,127.0700419
2020,19610518,경희초등학교,서울특별시 동대문구 회기동 산4-50,서울특별시 동대문구 경희대로 26,37.5939495,127.0548902
2020,19131001,서울삼육초등학교,서울특별시 동대문구 회기동 102-48,서울특별시 동대문구 회기로10길 63,37.5887703,127.0471736
2020,19630416,은석초등학교,서울특별시 동대문구 장안동 328,서울특별시 동대문구 장안벚꽃로 205,37.5785598,127.0757635
2020,19441112,서울면목초등학교,서울특별시 중랑구 면목동 221,서울특별시 중랑구 면목로 434,37.5906972,127.08728870000002
2020,19831019,서울면남초등학교,서울특별시 중랑구 면목동 583-15,서울특별시 중랑구 면목로30나길 38,37.5772613,127.087667
2020,19910504,서울동원초등학교,서울특별시 중랑구 망우동 216,서울특별시 중랑구 송림길 114,37.6045765,127.1044914
2020,19830905,서울면북초등학교,서울특별시 중랑구 망우동 119,서울특별시 중랑구 용마공원로5길 32,37.5944178,127.1035487
2020,19770301,서울망우초등학교,서울특별시 중랑구 망우동 153-1,서울특별시 중랑구 망우로72길 49,37.59873870000001,127.1038401
2020,19830421,서울면일초등학교,서울특별시 중랑구 망우동 438-2,서울특별시 중랑구 용마산로100길 13,37.5920424,127.0997953
2020,19760605,서울면중초등학교,서울특별시 중랑구 면목동 491-1,서울특별시 중랑구 용마산로70길 43,37.5824405,127.0965491
2020,19670905,서울중곡초등학교,서울특별시 중랑구 면목동 380,서울특별시 중랑구 면목로23길 20,37.574893,127.0834395
2020,19780901,서울면동초등학교,서울특별시 중랑구 면목동 551,서울특별시 중랑구 면목로57길 32,37.5853531,127.0865941
2020,19971104,서울중목초등학교,서울특별시 중랑구 면목동 180-5,서울특별시 중랑구 동일로 665,37.5900865,127.0793361
2020,19720508,서울중랑초등학교,서울특별시 중랑구 면목동 192-1,서울특별시 중랑구 봉우재로6길 26,37.5896638,127.0755031
2020,19951110,서울원묵초등학교,서울특별시 중랑구 묵동 11,서울특별시 중랑구 숙선옹주로 109,37.6177489,127.0868129
2020,20041029,서울묵현초등학교,서울특별시 중랑구 묵동 242-55,서울특별시 중랑구 동일로157길 75,37.6090795,127.0736243
2020,19841205,서울신묵초등학교,서울특별시 중랑구 묵동 246-12,서울특별시 중랑구 동일로149길 46,37.6065229,127.0758372
2020,19831025,서울상봉초등학교,서울특별시 중랑구 상봉동 312-1,서울특별시 중랑구 동일로126가길 11,37.5979802,127.0831709
2020,19960301,서울신현초등학교,서울특별시 중랑구 신내동 663,서울특별시 중랑구 봉화산로 188,37.6058147,127.0935852
2020,19940105,서울신내초등학교,서울특별시 중랑구 신내동 444,서울특별시 중랑구 용마산로125나길 22,37.6049335,127.1001296
2020,19461107,서울중화초등학교,서울특별시 중랑구 신내동 531,서울특별시 중랑구 신내로7가길 22,37.6029203,127.094066
2020,19960919,서울봉화초등학교,서울특별시 중랑구 신내동 655,서울특별시 중랑구 신내로15길 110,37.6135749,127.0924077
2020,19721223,서울묵동초등학교,서울특별시 중랑구 중화동 277-1,서울특별시 중랑구 동일로138길 27,37.60335900000001,127.0808259
2020,19991002,서울중흥초등학교,서울특별시 중랑구 중화동 119,서울특별시 중랑구 봉화산로 82,37.60167360000001,127.0841443
2020,19650626,금성초등학교,서울특별시 중랑구 신내동 651,서울특별시 중랑구 신내로21길 55,37.615314,127.0898591
2020,20110509,서울은빛초등학교,서울특별시 은평구 진관동 41-25,서울특별시 은평구 진관3로 73-17,37.6426599,126.9190817
2020,19281201,서울신도초등학교,서울특별시 은평구 진관동 108,서울특별시 은평구 진관1로 77-23,37.6329639,126.92919779999998
2020,20090430,서울은진초등학교,서울특별시 은평구 진관동 104,서울특별시 은평구 진관1로 21-20,37.633030100000006,126.9209954
2020,20080901,서울진관초등학교,서울특별시 은평구 진관동 8,서울특별시 은평구 진관4로 78-16,37.6454343,126.9292124
2020,19670325,서울북한산초등학교,서울특별시 은평구 진관동 산3,서울특별시 은평구 대서문길 42-3,37.6536333,126.9504646
2020,19670313,서울갈현초등학교,서울특별시 은평구 갈현동 451-15,서울특별시 은평구 연서로29길 31,37.6197804,126.9166825
2020,20090427,서울구현초등학교,서울특별시 은평구 구산동 164,서울특별시 은평구 갈현로15길 51,37.6091514,126.9058084
2020,19771129,서울구산초등학교,서울특별시 은평구 구산동 152-3,서울특별시 은평구 서오릉로15길 16,37.612751,126.9093783
2020,19310401,서울은평초등학교,서울특별시 은평구 녹번동 40-3,서울특별시 은평구 은평로 239,37.602305,126.93403290000002
2020,19820924,서울녹번초등학교,서울특별시 은평구 녹번동 174,서울특별시 은평구 녹번로1길 1,37.604585,126.9257457
2020,20110301,서울수리초등학교,서울특별시 은평구 불광동 639,서울특별시 은평구 불광로14길 10-10,37.6203068,126.9341783
2020,19671124,서울대조초등학교,서울특별시 은평구 대조동 212-1,서울특별시 은평구 연서로18길 17,37.6135799,126.9193035
2020,19760318,서울연신초등학교,서울특별시 은평구 불광동 73-1,서울특별시 은평구 연서로 347,37.6260586,126.9277498
2020,19620418,서울불광초등학교,서울특별시 은평구 불광동 272-2,서울특별시 은평구 불광로 51,37.6134285,126.9307204
2020,19850506,서울연천초등학교,서울특별시 은평구 불광동 346-153,서울특별시 은평구 연서로34길 22,37.6213496,126.9299202
2020,20040301,서울연광초등학교,서울특별시 은평구 불광동 400-6,서울특별시 은평구 연서로35길 37,37.6236488,126.9239098
2020,19350401,서울수색초등학교,서울특별시 은평구 수색동 129,서울특별시 은평구 수색로16길 21,37.5851732,126.8960112
2020,19801024,서울신사초등학교,서울특별시 은평구 신사동 98-32,서울특별시 은평구 가좌로 275-2,37.5928019,126.9119841
2020,20050301,서울서신초등학교,서울특별시 은평구 신사동 194,서울특별시 은평구 은평터널로 150,37.5922933,126.9073831
2020,19821111,서울상신초등학교,서울특별시 은평구 신사동 238-2,서울특별시 은평구 가좌로 361,37.5975529,126.9046045
2020,19720316,서울역촌초등학교,서울특별시 은평구 역촌동 82-1,서울특별시 은평구 은평로3길 25,37.6015857,126.9139261
2020,20081026,서울은명초등학교,서울특별시 은평구 응암동 114-12,서울특별시 은평구 은평로4길 21-9,37.5976968,126.9182744
2020,19830926,서울연은초등학교,서울특별시 은평구 응암동 759-3,서울특별시 은평구 백련산로2길 35,37.5905111,126.9251778
2020,19621112,서울응암초등학교,서울특별시 은평구 응암동 340,서울특별시 은평구 가좌로6길 20,37.5887537,126.9216175
2020,19761126,서울증산초등학교,서울특별시 은평구 증산동 212,서울특별시 은평구 증산서길 61,37.5825637,126.904275
2020,19821008,서울대은초등학교,서울특별시 은평구 대조동 82-5,서울특별시 은평구 통일로69길 12-15,37.612366,126.9258694
2020,19661109,충암초등학교,서울특별시 은평구 응암동 746-17,서울특별시 은평구 가좌로5길 5,37.5846417,126.9218074
2020,19650927,선일초등학교,서울특별시 은평구 갈현동 240-1,서울특별시 은평구 갈현로29길 27,37.6197164,126.9127997
2020,19650926,예일초등학교,서울특별시 은평구 구산동 8-3,서울특별시 은평구 연서로 117,37.6096421,126.9160959
2020,19660310,은혜초등학교,서울특별시 은평구 불광동 331-27,서울특별시 은평구 통일로78가길 20,37.6177328,126.9273999
2020,18960501,서울미동초등학교,서울특별시 서대문구 미근동 36-1,서울특별시 서대문구 충정로 52,37.56334879999999,126.9658506
2020,19240401,서울금화초등학교,서울특별시 서대문구 천연동 13-1,서울특별시 서대문구 통일로 165,37.56882589999999,126.9629404
2020,19740306,서울홍은초등학교,서울특별시 서대문구 홍제동 286-5,서울특별시 서대문구 세검정로 105,37.597541,126.9494600266
2020,19470110,서울홍제초등학교,서울특별시 서대문구 홍은동 48-112,서울특별시 서대문구 홍은중앙로 13,37.5935064,126.9454227
2020,19411101,서울북성초등학교,서울특별시 서대문구 북아현동 215,서울특별시 서대문구 북아현로1나길 22,37.5596318,126.95183529999998
2020,19730907,서울연가초등학교,서울특별시 서대문구 남가좌동 364-6,서울특별시 서대문구 증가로12가길 49-50,37.5795643,126.9173296
2020,19650310,서울대신초등학교,서울특별시 서대문구 대현동 67-1,서울특별시 서대문구 이화여대2길 27,37.557702,126.9480383
2020,19690324,서울북가좌초등학교,서울특별시 서대문구 북가좌동 376-17,서울특별시 서대문구 거북골로19길 20,37.5772218,126.9077776
2020,19681207,서울연희초등학교,서울특별시 서대문구 연희동 88-1,서울특별시 서대문구 연희로 136,37.56904760000001,126.93414380000002
2020,19611101,서울창서초등학교,서울특별시 서대문구 창천동 53-38,서울특별시 서대문구 연세로5나길 30-3,37.558141600000006,126.9334788
2020,19750703,서울홍연초등학교,서울특별시 서대문구 홍은동 305,서울특별시 서대문구 백련사길 55,37.5819985,126.9309307
2020,19371130,서울안산초등학교,서울특별시 서대문구 홍제동 44,서울특별시 서대문구 통일로 321,37.5791691,126.9522121
2020,19621112,서울인왕초등학교,서울특별시 서대문구 홍제동 241-113,서울특별시 서대문구 세무서길 33-9,37.59023010000001,126.94480459999998
2020,19711203,서울고은초등학교,서울특별시 서대문구 홍제동 320-12,서울특별시 서대문구 모래내로 441,37.5850003,126.9439752
2020,19641203,경기초등학교,서울특별시 서대문구 충정로2가 70-2,서울특별시 서대문구 경기대로9길 10,37.5651102,126.9628608
2020,19550408,이화여자대학교사범대학부속초등학교,서울특별시 서대문구 대신동 20,서울특별시 서대문구 성산로 512-39,37.5611486,126.9427504
2020,19640720,추계초등학교,서울특별시 서대문구 북아현동 190-1,서울특별시 서대문구 북아현로11가길 7,37.5631498,126.95320929999998
2020,19670315,명지초등학교,서울특별시 서대문구 홍은동 산26-127,서울특별시 서대문구 명지2길 32-20,37.5836295,126.9282301
2020,19440411,서울공덕초등학교,서울특별시 마포구 공덕동 256-4,서울특별시 마포구 만리재옛길 13,37.5458044,126.9548225
2020,19400401,서울창천초등학교,서울특별시 마포구 노고산동 33-1,서울특별시 마포구 백범로1길 56,37.5549192,126.9392942
2020,19160426,서울용강초등학교,서울특별시 마포구 대흥동 51,서울특별시 마포구 백범로17길 9,37.5491011,126.9440428
2020,19110612,서울마포초등학교,서울특별시 마포구 도화동 347-5,서울특별시 마포구 도화2길 64,37.5386016,126.9498166
2020,19750418,서울동교초등학교,서울특별시 마포구 망원동 426-5,서울특별시 마포구 월드컵로25길 86,37.5586246,126.9023997
2020,19841026,서울망원초등학교,서울특별시 마포구 망원동 467-1,서울특별시 마포구 방울내로5길 28,37.5608901,126.9007624
2020,19370401,서울서강초등학교,서울특별시 마포구 상수동 1-1,서울특별시 마포구 독막로 113,37.5486953,126.92685120000002
2020,20110301,서울하늘초등학교,서울특별시 마포구 상암동 1737,서울특별시 마포구 월드컵북로 502-14,37.5858076,126.8808616
2020,19620712,서울서교초등학교,서울특별시 마포구 서교동 341,서울특별시 마포구 와우산로23길 20-27,37.5548889,126.9243781
2020,19861021,서울성원초등학교,서울특별시 마포구 성산동 175-1,서울특별시 마포구 월드컵로36길 34,37.5669825,126.9050873
2020,19840523,서울성서초등학교,서울특별시 마포구 성산동 31-1,서울특별시 마포구 성미산로7길 24,37.56059550000001,126.9109264
2020,19771202,서울중동초등학교,서울특별시 마포구 성산동 94-1,서울특별시 마포구 월드컵북로 152,37.5664093,126.9117752
2020,19640310,서울신석초등학교,서울특별시 마포구 신수동 429-2,서울특별시 마포구 대흥로 33,37.54453529999999,126.9377818
2020,19320402,서울아현초등학교,서울특별시 마포구 아현동 267-2,서울특별시 마포구 굴레방로 6,37.5558313,126.9562424
2020,19451101,서울소의초등학교,서울특별시 마포구 아현동 386-1,서울특별시 마포구 마포대로24길 42,37.5527802,126.9606578
2020,19451101,서울한서초등학교,서울특별시 마포구 염리동 24-140,서울특별시 마포구 대흥로24바길 27,37.55364829999999,126.9497794
2020,19831122,서울염리초등학교,서울특별시 마포구 염리동 173-4,서울특별시 마포구 토정로37길 37,37.5427085,126.9459983
2020,19821101,서울신북초등학교,서울특별시 마포구 중동 42,서울특별시 마포구 월드컵북로38길 26,37.571104,126.9053628
2020,19690324,서울성산초등학교,서울특별시 마포구 합정동 427-2,서울특별시 마포구 양화로3길 94,37.55342720000001,126.9109486
2020,20070605,서울상지초등학교,서울특별시 마포구 상암동 1676,서울특별시 마포구 월드컵로42길 30,37.5797506,126.8820758
2020,19720710,서울상암초등학교,서울특별시 마포구 상암동 1635,서울특별시 마포구 월드컵북로 353,37.57633660000001,126.8923219
2020,19660312,홍익대학교사범대학부속초등학교,서울특별시 마포구 성산동 산11-31,서울특별시 마포구 성미산로 51,37.5596457,126.9132093
2020,20110901,서울천왕초등학교,서울특별시 구로구 천왕동 273-2,서울특별시 구로구 천왕로1길 11,37.4816096,126.8367161
2020,19671129,서울영일초등학교,서울특별시 구로구 가리봉동 17,서울특별시 구로구 남부순환로105길 218,37.4856446,126.8838114
2020,20020301,서울미래초등학교,서울특별시 구로구 구로동 3-13,서울특별시 구로구 새말로 73,37.5051068,126.88801370000002
2020,20040301,서울고원초등학교,서울특별시 구로구 고척동 66-26,서울특별시 구로구 경인로46길 13,37.4976125,126.8657986
2020,19911029,서울고산초등학교,서울특별시 구로구 고척동 76-10,서울특별시 구로구 중앙로 6,37.49897360000001,126.8647738
2020,19981025,서울개웅초등학교,서울특별시 구로구 개봉동 273-18,서울특별시 구로구 개봉로11길 98,37.48857260000001,126.8499801
2020,19840504,서울개명초등학교,서울특별시 구로구 개봉동 314-165,서울특별시 구로구 개봉로1다길 16-9,37.4830381,126.85098159999998
2020,19840919,서울온수초등학교,서울특별시 구로구 온수동 9-34,서울특별시 구로구 부일로 893,37.4940033,126.82596909999998
2020,19851028,서울매봉초등학교,서울특별시 구로구 개봉동 3,서울특별시 구로구 고척로21길 55,37.5049168,126.844365
2020,19710901,서울개봉초등학교,서울특별시 구로구 개봉동 266,서울특별시 구로구 개봉로16길 30-11,37.4895231,126.8579748
2020,19670407,서울고척초등학교,서울특별시 구로구 고척동 129-3,서울특별시 구로구 경서로 31,37.5009467,126.8569791
2020,19831201,서울덕의초등학교,서울특별시 구로구 고척동 217,서울특별시 구로구 고척로 213,37.5060568,126.8573464
2020,19720901,서울세곡초등학교,서울특별시 구로구 고척동 253-129,서울특별시 구로구 고척로33길 34,37.5050563,126.8491193
2020,19720301,서울동구로초등학교,서울특별시 구로구 구로동 93,서울특별시 구로구 구로중앙로14길 43,37.4940721,126.8927814
2020,19821026,서울신구로초등학교,서울특별시 구로구 구로동 105,서울특별시 구로구 가마산로27길 69,37.4996591,126.8897653
2020,19790928,서울영서초등학교,서울특별시 구로구 구로동 165-1,서울특별시 구로구 도림로20길 57,37.4889605,126.89558390000002
2020,19640311,서울구로남초등학교,서울특별시 구로구 구로동 253,서울특별시 구로구 디지털로27길 76,37.4842055,126.8902176
2020,19500620,서울구로초등학교,서울특별시 구로구 구로동 443,서울특별시 구로구 구로중앙로27나길 9,37.4974612,126.8865524
2020,19871022,서울구일초등학교,서울특별시 구로구 구로동 685-221,서울특별시 구로구 구일로 68,37.4931916,126.8734733
2020,20020302,서울신미림초등학교,서울특별시 구로구 신도림동 398-28,서울특별시 구로구 신도림로 26,37.5071419,126.87955259999998
2020,19821022,서울신도림초등학교,서울특별시 구로구 신도림동 300-6,서울특별시 구로구 신도림로19길 44,37.5119858,126.8832548
2020,19430523,서울오류초등학교,서울특별시 구로구 오류동 20-1,서울특별시 구로구 경인로19길 39,37.497529,126.8420281
2020,19860429,서울오정초등학교,서울특별시 구로구 오류동 108-28,서울특별시 구로구 경인로2길 10,37.4901658,126.8264393
2020,19820601,서울오류남초등학교,서울특별시 구로구 오류동 191-1,서울특별시 구로구 서해안로24길 22,37.4896863,126.8391137
2020,19851030,서울두산초등학교,서울특별시 금천구 독산동 1002-5,서울특별시 금천구 범안로11길 3,37.4675483,126.89094740000002
2020,19930506,서울문교초등학교,서울특별시 금천구 독산동 산202-1,서울특별시 금천구 독산로54길 102,37.4667201,126.9088179
2020,19560517,서울영남초등학교,서울특별시 금천구 독산동 59-27,서울특별시 금천구 문성로 62-15,37.4761233,126.9092089
2020,20030301,서울금동초등학교,서울특별시 금천구 시흥동 1013-1,서울특별시 금천구 금하로30길 53,37.4477396,126.9163991
2020,19810918,서울문백초등학교,서울특별시 금천구 시흥동 564-5,서울특별시 금천구 시흥대로47길 43-1,37.4470903,126.8986979
2020,19911030,서울신흥초등학교,서울특별시 금천구 시흥동 704-56,서울특별시 금천구 독산로36 나 길 21,37.4593466,126.9093513
2020,19840614,서울가산초등학교,서울특별시 금천구 독산동 143-23,서울특별시 금천구 남부순환로 1304-11,37.4782643,126.8962274
2020,19830301,서울정심초등학교,서울특별시 금천구 독산동 182-44,서울특별시 금천구 독산로78다길 89,37.4719923,126.9082146
2020,19560406,서울문성초등학교,서울특별시 금천구 독산동 982,서울특별시 금천구 시흥대로 460,37.4749117,126.8994472
2020,19780411,서울독산초등학교,서울특별시 금천구 독산동 1034,서울특별시 금천구 시흥대로104길 31,37.4656567,126.8997128
2020,19911004,서울안천초등학교,서울특별시 금천구 독산동 1090,서울특별시 금천구 한내로 69-16,37.4587448,126.8883922
2020,19840417,서울금천초등학교,서울특별시 금천구 시흥동 218-1,서울특별시 금천구 탑골로5길 60,37.4546475,126.9127746
2020,19671204,서울탑동초등학교,서울특별시 금천구 시흥동 230,서울특별시 금천구 탑골로 47-3,37.4525178,126.9153675
2020,19740326,서울백산초등학교,서울특별시 금천구 시흥동 438-5,서울특별시 금천구 시흥대로38길 78,37.4467398,126.9051444
2020,19981016,서울금산초등학교,서울특별시 금천구 시흥동 653-27,서울특별시 금천구 시흥대로24길 57,37.4414443,126.9080892
2020,19110701,서울시흥초등학교,서울특별시 금천구 시흥동 841-19,서울특별시 금천구 독산로23길 26,37.4553388,126.9046408
2020,20010305,동광초등학교,서울특별시 금천구 시흥동 산100-6,서울특별시 금천구 탑골로10길 45,37.4516719,126.9168874
2020,19711101,서울여의도초등학교,서울특별시 영등포구 여의도동 40-3,서울특별시 영등포구 여의대방로 439,37.5232063,126.936795
2020,20020901,서울영원초등학교,서울특별시 영등포구 영등포동 647-2,서울특별시 영등포구 도영로22길 31,37.510719992,126.9021816
2020,19490401,서울영중초등학교,서울특별시 영등포구 영등포동7가 53,서울특별시 영등포구 양산로 185,37.52414260000001,126.9036935
2020,19560517,서울영동초등학교,서울특별시 영등포구 당산동 121-22,서울특별시 영등포구 국회대로53길 20,37.5270074,126.9077037
2020,19841101,서울당서초등학교,서울특별시 영등포구 당산동5가 5-3,서울특별시 영등포구 당산로 187,37.5320285,126.8998141
2020,19600201,서울도림초등학교,서울특별시 영등포구 신길동 285-1,서울특별시 영등포구 가마산로65길 22,37.5086805,126.9071795
2020,19801002,서울대동초등학교,서울특별시 영등포구 대림동 702,서울특별시 영등포구 대림로21길 6,37.49370370000001,126.9001186
2020,19451101,서울영등포초등학교,서울특별시 영등포구 문래동1가 35-2,서울특별시 영등포구 경인로 756,37.5129476,126.898215
2020,20050301,서울영문초등학교,서울특별시 영등포구 문래동6가 13,서울특별시 영등포구 문래로 56,37.5198071,126.8875909
2020,20070302,서울선유초등학교,서울특별시 영등포구 양평동3가 91,서울특별시 영등포구 선유로43가길 14,37.53288010000001,126.8927757
2020,19491028,서울당중초등학교,서울특별시 영등포구 양평동3가 42,서울특별시 영등포구 선유로 131,37.5262889,126.8894139
2020,19730910,서울도신초등학교,서울특별시 영등포구 대림동 741-3,서울특별시 영등포구 도림로53길 32-9,37.4992688,126.9007128
2020,19820707,서울신영초등학교,서울특별시 영등포구 대림동 781,서울특별시 영등포구 도신로4길 32,37.501005600000006,126.89609640000002
2020,19950301,서울신대림초등학교,서울특별시 영등포구 대림동 970-1,서울특별시 영등포구 대림로8길 25,37.492155,126.9058543
2020,19821004,서울영림초등학교,서울특별시 영등포구 대림동 993-16,서울특별시 영등포구 시흥대로173길 14,37.4873446,126.9025393
2020,19850710,서울문래초등학교,서울특별시 영등포구 문래동3가 77-7,서울특별시 영등포구 문래로 104,37.5191388,126.8936053
2020,19671127,서울영신초등학교,서울특별시 영등포구 신길동 121,서울특별시 영등포구 도신로60길 23,37.5101735,126.9181917
2020,19880422,서울대영초등학교,서울특별시 영등포구 신길동 341-1,서울특별시 영등포구 신길로23길 43,37.5026792,126.9063358
2020,19150305,서울우신초등학교,서울특별시 영등포구 신길동 210,서울특별시 영등포구 신길로 190,37.50986629999999,126.9118645
2020,19550427,서울대방초등학교,서울특별시 영등포구 신길동 1444,서울특별시 영등포구 여의대방로35길 14,37.5030997,126.9194861
2020,19830914,서울대길초등학교,서울특별시 영등포구 신길동 4482,서울특별시 영등포구 대방천로 206,37.4981124,126.9131719
2020,19450815,서울당산초등학교,서울특별시 영등포구 양평동4가 323,서울특별시 영등포구 선유로55길 32,37.5401200198,126.8962413
2020,19800404,서울윤중초등학교,서울특별시 영등포구 여의도동 38,서울특별시 영등포구 여의나루로2길 14,37.5196406,126.9225902
2020,19931028,서울초당초등학교,서울특별시 도봉구 방학동 514-2,서울특별시 도봉구 해등로32길 11,37.6586295,127.0219542
2020,19880504,서울신학초등학교,서울특별시 도봉구 방학동 460-5,서울특별시 도봉구 방학로 247-21,37.6612199,127.0257222
2020,19451101,서울창경초등학교,서울특별시 도봉구 쌍문동 72,서울특별시 도봉구 도봉로129길 54,37.656601,127.0346009
2020,20001101,서울창림초등학교,서울특별시 도봉구 창동 411-8,서울특별시 도봉구 덕릉로63길 46,37.6432354,127.0416061
2020,19931111,서울누원초등학교,서울특별시 도봉구 도봉동 22-19,서울특별시 도봉구 마들로 859-44,37.6872327,127.0492675
2020,20000301,서울오봉초등학교,서울특별시 도봉구 도봉동 608-22,서울특별시 도봉구 시루봉로 285,37.671758,127.04025729999998
2020,19660905,서울도봉초등학교,서울특별시 도봉구 도봉동 429-1,서울특별시 도봉구 도봉로173길 96,37.6799605,127.0382892
2020,19821007,서울방학초등학교,서울특별시 도봉구 방학동 302,서울특별시 도봉구 도당로9길 34,37.6639319,127.0327501
2020,19860424,서울신방학초등학교,서울특별시 도봉구 방학동 310,서울특별시 도봉구 시루봉로 173,37.6666827,127.02892040000002
2020,19821007,서울창도초등학교,서울특별시 도봉구 방학동 722-9,서울특별시 도봉구 방학로 32-28,37.6641354,127.0487853
2020,19831103,서울숭미초등학교,서울특별시 도봉구 쌍문동 309-3,서울특별시 도봉구 노해로 179,37.6510239,127.0279443
2020,19720812,서울쌍문초등학교,서울특별시 도봉구 쌍문동 360-4,서울특별시 도봉구 우이천로 360,37.64836500000001,127.0242900321
2020,19800827,서울백운초등학교,서울특별시 도봉구 쌍문동 422-2,서울특별시 도봉구 삼양로146길 17,37.652641,127.013671
2020,19890511,서울월천초등학교,서울특별시 도봉구 창동 29,서울특별시 도봉구 노해로70길 96,37.6480462,127.0517526
2020,19970611,서울자운초등학교,서울특별시 도봉구 창동 181-19,서울특별시 도봉구 마들로13길 166,37.6580096,127.0466824
2020,20040514,서울가인초등학교,서울특별시 도봉구 창동 224-20,서울특별시 도봉구 도봉로136다길 4,37.659467,127.04295249999998
2020,19300401,서울창동초등학교,서울특별시 도봉구 창동 266,서울특별시 도봉구 해등로16길 81,37.6553614,127.0448313
2020,19901130,서울창원초등학교,서울특별시 도봉구 창동 308,서울특별시 도봉구 해등로 103,37.6526458,127.0399795
2020,19900716,서울창일초등학교,서울특별시 도봉구 창동 371,서울특별시 도봉구 노해로66길 84,37.64765870000001,127.0476085
2020,19750512,서울신창초등학교,서울특별시 도봉구 창동 468-1,서울특별시 도봉구 덕릉로60길 93,37.6365919,127.0420828
2020,19841030,서울신화초등학교,서울특별시 도봉구 창동 504-33,서울특별시 도봉구 우이천로 120,37.633195,127.0408845
2020,19640915,동북초등학교,서울특별시 도봉구 쌍문동 263,서울특별시 도봉구 시루봉로 53,37.65634710000001,127.0268765
2020,19690506,한신초등학교,서울특별시 도봉구 쌍문동 150-1,서울특별시 도봉구 노해로49길 69,37.6533545,127.0324282
2020,19821021,서울신계초등학교,서울특별시 노원구 월계동 602,서울특별시 노원구 초안산로 29,37.62979179999999,127.0527686
2020,19951004,서울녹천초등학교,서울특별시 노원구 월계동 322-2,서울특별시 노원구 마들로3길 34,37.6285073,127.0631173
2020,20030303,서울덕암초등학교,서울특별시 노원구 상계동 1274,서울특별시 노원구 덕릉로112길 68,37.66662210000001,127.0814611
2020,19881010,서울온곡초등학교,서울특별시 노원구 상계동 638,서울특별시 노원구 한글비석로52길 59,37.6675399994,127.0659829
2020,19890930,서울상원초등학교,서울특별시 노원구 상계동 645,서울특별시 노원구 한글비석로54길 119,37.6676303,127.0597184
2020,19930901,서울불암초등학교,서울특별시 노원구 중계동 366-2,서울특별시 노원구 중계로 178,37.6507834,127.0806007
2020,20000607,서울수암초등학교,서울특별시 노원구 중계동 67,서울특별시 노원구 중계로12길 9,37.6476943,127.0814631
2020,19751002,서울중계초등학교,서울특별시 노원구 중계동 449-2,서울특별시 노원구 한글비석로19길 39,37.6578411,127.07331000110001
2020,19451110,서울연촌초등학교,서울특별시 노원구 하계동 154-12,서울특별시 노원구 공릉로58길 36,37.634416,127.0725121
2020,20010611,서울태랑초등학교,서울특별시 노원구 공릉동 116,서울특별시 노원구 화랑로51나길 31,37.6262514,127.0906018
2020,19860501,서울태릉초등학교,서울특별시 노원구 공릉동 250-5,서울특별시 노원구 노원로1길 36,37.623102,127.0850611
2020,19821021,서울공연초등학교,서울특별시 노원구 공릉동 371-10,서울특별시 노원구 동일로192가길 16,37.6275492,127.0745082
2020,19960506,서울용원초등학교,서울특별시 노원구 공릉동 709,서울특별시 노원구 섬밭로 144,37.629924,127.0689414
2020,19790404,서울공릉초등학교,서울특별시 노원구 공릉동 610-1,서울특별시 노원구 동일로173길 12,37.61861500000001,127.0746307
2020,19700522,서울신상계초등학교,서울특별시 노원구 상계동 86-1,서울특별시 노원구 상계로 267,37.66742960000001,127.0757359
2020,19460911,서울상계초등학교,서울특별시 노원구 상계동 402-1,서울특별시 노원구 상계로9길 39,37.6596255,127.0664937
2020,19831116,서울계상초등학교,서울특별시 노원구 상계동 447-1,서울특별시 노원구 한글비석로41가길 24,37.6621974,127.0686766
2020,19890503,서울상곡초등학교,서울특별시 노원구 상계동 678,서울특별시 노원구 노원로38길 34,37.6629038,127.06207659999998
2020,19900529,서울상월초등학교,서울특별시 노원구 상계동 697,서울특별시 노원구 동일로221길 27,37.6586538,127.0569822
2020,19880209,서울당현초등학교,서울특별시 노원구 상계동 742,서울특별시 노원구 동일로213길 52,37.6482594,127.05821170000002
2020,19890930,서울상천초등학교,서울특별시 노원구 상계동 768,서울특별시 노원구 덕릉로 443,37.6462847,127.0578888
2020,19890425,서울동일초등학교,서울특별시 노원구 상계동 655,서울특별시 노원구 한글비석로 566,37.6648142,127.0541716
2020,19730904,서울노원초등학교,서울특별시 노원구 상계동 1014,서울특별시 노원구 동일로230나길 32,37.6735949,127.05845359999998
2020,19941110,서울노일초등학교,서울특별시 노원구 상계동 1044-2,서울특별시 노원구 동일로 1625,37.6737552,127.054967
2020,19830406,서울수락초등학교,서울특별시 노원구 상계동 1171-2,서울특별시 노원구 동일로 1745,37.6845019,127.0551836
2020,19840507,서울한천초등학교,서울특별시 노원구 월계동 3-7,서울특별시 노원구 마들로 45,37.6207085,127.0692456
2020,19980612,서울연지초등학교,서울특별시 노원구 월계동 320-8,서울특별시 노원구 월계로55길 48,37.6331907,127.0595368
2020,19750313,서울선곡초등학교,서울특별시 노원구 월계동 446,서울특별시 노원구 광운로2길 1,37.6186929,127.0578035
2020,19930506,서울월계초등학교,서울특별시 노원구 월계동 561,서울특별시 노원구 월계로45가길 10,37.6276242,127.0501888
2020,19920430,서울원광초등학교,서울특별시 노원구 중계동 359,서울특별시 노원구 덕릉로76길 18,37.6543118,127.0749157
2020,19940422,서울을지초등학교,서울특별시 노원구 중계동 360,서울특별시 노원구 중계로 239,37.6505901,127.0730898
2020,19901114,서울중원초등학교,서울특별시 노원구 중계동 502,서울특별시 노원구 섬밭로 316,37.6439828,127.0627832
2020,18950901,서울청계초등학교,서울특별시 노원구 중계동 513-1,서울특별시 노원구 공릉로 431,37.6450333,127.0661408
2020,19910423,서울용동초등학교,서울특별시 노원구 중계동 510-1,서울특별시 노원구 한글비석로1길 81-11,37.64108529999999,127.0690832
2020,19900427,서울중현초등학교,서울특별시 노원구 하계동 272-2,서울특별시 노원구 섬밭로 181,37.63251339999999,127.065953
2020,19880425,서울중평초등학교,서울특별시 노원구 하계동 271,서울특별시 노원구 섬밭로 241,37.6375347,127.0639634
2020,19890504,서울상경초등학교,서울특별시 노원구 상계동 621,서울특별시 노원구 수락산로 237,37.67050510000001,127.0516731
2020,19881008,서울상수초등학교,서울특별시 노원구 상계동 755,서울특별시 노원구 동일로216길 66,37.65110670000001,127.0647592
2020,19651205,청원초등학교,서울특별시 노원구 상계동 641,서울특별시 노원구 한글비석로 506,37.6652533,127.0625319
2020,19491119,태강삼육초등학교,서울특별시 노원구 공릉동 26-84,서울특별시 노원구 화랑로 815,37.6433583,127.1088514
2020,19671224,화랑초등학교,서울특별시 노원구 공릉동 27-22,서울특별시 노원구 화랑로 621,37.6287826,127.0889917
2020,19640206,상명초등학교,서울특별시 노원구 중계동 515-1,서울특별시 노원구 덕릉로 541,37.64872329999999,127.066969
2020,19460822,서울대학교사범대학부설초등학교,서울특별시 종로구 동숭동 199-51,서울특별시 종로구 대학로 64,37.577600200000006,127.0042973
2020,19230401,서울청운초등학교,서울특별시 종로구 청운동 123,서울특별시 종로구 자하문로 105,37.5859214,126.9692423
2020,18951115,서울매동초등학교,서울특별시 종로구 필운동 32,서울특별시 종로구 사직로9길 19,37.5774983,126.9669436
2020,18950930,서울재동초등학교,서울특별시 종로구 가회동 210,서울특별시 종로구 북촌로4길 7,37.5800284,126.9851785
2020,18940918,서울교동초등학교,서울특별시 종로구 경운동 2,서울특별시 종로구 삼일대로 446,37.5750048,126.9881499
2020,19100125,서울혜화초등학교,서울특별시 종로구 혜화동 13-1,서울특별시 종로구 혜화로 32,37.5886356,127.00025359999998
2020,19711006,서울명신초등학교,서울특별시 종로구 창신동 7-40,서울특별시 종로구 낙산길 250,37.5814687,127.0146226
2020,19570928,서울독립문초등학교,서울특별시 종로구 무악동 46-82,서울특별시 종로구 통일로12길 23,37.5742165,126.9599719
2020,19481124,서울세검정초등학교,서울특별시 종로구 신영동 219-4,서울특별시 종로구 세검정로9길 1,37.6034703,126.9609387
2020,19160520,서울창신초등학교,서울특별시 종로구 창신동 128-32,서울특별시 종로구 지봉로 73,37.5762118,127.0142837
2020,18951115,서울효제초등학교,서울특별시 종로구 효제동 255-4,서울특별시 종로구 대학로 12,37.5726828,127.0034911
2020,19860304,운현초등학교,서울특별시 종로구 운니동 114-7,서울특별시 종로구 삼일대로 460,37.5753399,126.9873756
2020,19660517,상명대학교사범대학부속초등학교,서울특별시 종로구 홍지동 56,서울특별시 종로구 홍지문2길 1,37.6004415,126.9567146
2020,19451101,서울남산초등학교,서울특별시 중구 남산동2가 2,서울특별시 중구 퇴계로22길 17,37.559785,126.98675559999998
2020,19120401,서울덕수초등학교,서울특별시 중구 정동 1-76,서울특별시 중구 덕수궁길 140,37.5690885,126.9746581
2020,18950918,서울봉래초등학교,서울특별시 중구 만리동2가 2,서울특별시 중구 손기정로 73,37.5564109,126.9652508
2020,18950716,서울광희초등학교,서울특별시 중구 신당동 254-16,서울특별시 중구 다산로 269,37.567299,127.0156883
2020,19531021,서울장충초등학교,서울특별시 중구 신당동 386-86,서울특별시 중구 청구로17길 40,37.559911,127.0117028
2020,20070301,서울신당초등학교,서울특별시 중구 신당동 161-2,서울특별시 중구 난계로 141,37.5636252,127.0236739
2020,19461114,서울흥인초등학교,서울특별시 중구 신당동 292-66,서울특별시 중구 청구로6길 11,37.5608696,127.0145551
2020,19451101,서울청구초등학교,서울특별시 중구 신당동 330-2,서울특별시 중구 다산로 170,37.5591182,127.0137263
2020,19560324,서울충무초등학교,서울특별시 중구 장충동2가 173-7,서울특별시 중구 퇴계로50길 13,37.5619481,127.001236
2020,19650520,리라초등학교,서울특별시 중구 예장동 8-148,서울특별시 중구 소파로2길 7,37.557821,126.9879121
2020,19660225,숭의초등학교,서울특별시 중구 예장동 8-3,서울특별시 중구 소파로2길 10,37.5578533,126.9874826
2020,19660310,동산초등학교,서울특별시 중구 신당동 333-579,서울특별시 중구 매봉18길 109,37.5562058,127.0167272
2020,19451101,서울용산초등학교,서울특별시 용산구 한강로2가 1,서울특별시 용산구 한강대로57길 33,37.53561420000001,126.9725514
2020,19821207,서울원효초등학교,서울특별시 용산구 산천동 6-73,서울특별시 용산구 효창원로13길 38,37.5361624,126.95154709999998
2020,19430924,서울청파초등학교,서울특별시 용산구 청파동2가 1-42,서울특별시 용산구 효창원로 228,37.5473031,126.963544
2020,19491008,서울후암초등학교,서울특별시 용산구 후암동 30-138,서울특별시 용산구 두텁바위로 140,37.5513654,126.9817258
2020,19430501,서울이태원초등학교,서울특별시 용산구 이태원동 406,서울특별시 용산구 녹사평대로40길 19,37.5364781,126.9876718
2020,19451101,서울서빙고초등학교,서울특별시 용산구 서빙고동 235-1,서울특별시 용산구 서빙고로51길 14,37.5220696,126.9922315
2020,19650926,서울용암초등학교,서울특별시 용산구 용산동2가 5-2147,서울특별시 용산구 녹사평대로60길 39,37.5453044,126.9894356
2020,19620622,서울보광초등학교,서울특별시 용산구 이태원동 15-13,서울특별시 용산구 우사단로 20,37.5325395,126.9963946
2020,19600714,서울한강초등학교,서울특별시 용산구 한강로3가 65-5,서울특별시 용산구 한강대로14길 9,37.5252266,126.965079
2020,19060923,서울한남초등학교,서울특별시 용산구 한남동 726-1,서울특별시 용산구 한남대로 112,37.5392032,127.0055986
2020,19150915,서울금양초등학교,서울특별시 용산구 효창동 126-4,서울특별시 용산구 효창원로 137,37.5409415,126.9618318
2020,19451101,서울삼광초등학교,서울특별시 용산구 후암동 190-2,서울특별시 용산구 두텁바위로1나길 19,37.5477533,126.9765936
2020,19451101,서울남정초등학교,서울특별시 용산구 원효로2가 54-1,서울특별시 용산구 원효로64길 17-10,37.5356734,126.9648033
2020,19680925,서울신용산초등학교,서울특별시 용산구 이촌동 301-75,서울특별시 용산구 이촌로 255,37.5206293,126.9753668
2020,19641126,신광초등학교,서울특별시 용산구 청파동3가 100,서울특별시 용산구 청파로 263,37.5429007,126.9694483
2020,19840404,서울방이초등학교,서울특별시 송파구 방이동 167,서울특별시 송파구 위례성대로10길 4,37.51343920000001,127.1204982
2020,19810909,서울가락초등학교,서울특별시 송파구 가락동 477,서울특별시 송파구 송파대로37길 45,37.500022,127.1076425
2020,19921021,서울평화초등학교,서울특별시 송파구 가락동 106,서울특별시 송파구 송파대로26길 22,37.4915665,127.1228241
2020,19241113,서울중대초등학교,서울특별시 송파구 송파동 191,서울특별시 송파구 송파대로36길 8,37.4998109,127.113605
2020,19931026,서울문덕초등학교,서울특별시 송파구 문정동 90-3,서울특별시 송파구 송이로34길 60,37.48517860000001,127.1277298
2020,19850417,서울문정초등학교,서울특별시 송파구 문정동 12,서울특별시 송파구 문정로5길 20,37.48907310000001,127.1290119
2020,19890420,서울가원초등학교,서울특별시 송파구 문정동 150-10,서울특별시 송파구 중대로4길 8,37.489441,127.1110293
2020,20071206,서울문현초등학교,서울특별시 송파구 장지동 836,서울특별시 송파구 충민로 137,37.4827899,127.1302223
2020,19760312,서울잠일초등학교,서울특별시 송파구 잠실동 19-1,서울특별시 송파구 올림픽로 95,37.5147399506,127.0816351
2020,19811030,서울잠신초등학교,서울특별시 송파구 잠실동 22-4,서울특별시 송파구 잠실로 32,37.5141141,127.0879415
2020,19781031,서울송전초등학교,서울특별시 송파구 잠실동 44-2,서울특별시 송파구 석촌호수로 159,37.5088133,127.09512859999998
2020,19800929,서울잠동초등학교,서울특별시 송파구 신천동 7-2,서울특별시 송파구 올림픽로35길 122,37.5183371,127.0999323
2020,19751101,서울잠실초등학교,서울특별시 송파구 신천동 20-2,서울특별시 송파구 올림픽로35길 20,37.5201075,127.1113101
2020,20081027,서울잠현초등학교,서울특별시 송파구 신천동 17-2,서울특별시 송파구 올림픽로37길 109,37.5225857,127.1047786
2020,19881020,서울신가초등학교,서울특별시 송파구 가락동 43-1,서울특별시 송파구 송이로 75,37.5003633,127.1198756
2020,19961108,서울가주초등학교,서울특별시 송파구 가락동 140-6,서울특별시 송파구 오금로40길 37,37.4965656,127.1292617
2020,19900425,서울가동초등학교,서울특별시 송파구 가락동 163,서울특별시 송파구 중대로20길 47,37.4974117,127.1300169
2020,19821010,서울영풍초등학교,서울특별시 송파구 거여동 12,서울특별시 송파구 오금로57길 15,37.4962182,127.1430149
2020,19971107,서울거원초등학교,서울특별시 송파구 거여동 296-1,서울특별시 송파구 양산로2길 26,37.4876239,127.144909
2020,19840503,서울남천초등학교,서울특별시 송파구 마천동 53,서울특별시 송파구 성내천로 207,37.501445200000006,127.15079509999998
2020,19780504,서울마천초등학교,서울특별시 송파구 마천동 183-4,서울특별시 송파구 마천로61다길 24,37.495507,127.1526301
2020,19890419,서울오륜초등학교,서울특별시 송파구 방이동 89-16,서울특별시 송파구 양재대로 1196,37.5124246,127.1345763
2020,19890419,서울세륜초등학교,서울특별시 송파구 방이동 89-23,서울특별시 송파구 양재대로 1264,37.5185591,127.13416200000002
2020,19921022,서울방산초등학교,서울특별시 송파구 방이동 220-4,서울특별시 송파구 오금로27길 42,37.509556,127.1210892
2020,19830510,서울삼전초등학교,서울특별시 송파구 삼전동 63,서울특별시 송파구 백제고분로28길 19,37.5016992,127.0932694
2020,19900510,서울석촌초등학교,서울특별시 송파구 석촌동 267,서울특별시 송파구 가락로11길 26,37.5026298,127.1052132
2020,19851021,서울송파초등학교,서울특별시 송파구 송파동 114,서울특별시 송파구 백제고분로 400,37.5071366,127.1111188
2020,19931028,서울오금초등학교,서울특별시 송파구 오금동 7,서울특별시 송파구 위례성대로22길 11,37.5088663,127.1323305
2020,19671123,서울거여초등학교,서울특별시 송파구 오금동 108,서울특별시 송파구 마천로25길 18,37.50516939999999,127.1409011
2020,20080303,서울개롱초등학교,서울특별시 송파구 오금동 159,서울특별시 송파구 문정로 211,37.4973608,127.1398869
2020,19811126,서울잠전초등학교,서울특별시 송파구 잠실동 229,서울특별시 송파구 올림픽로12길 51,37.5073394,127.0838483
2020,19800801,서울풍납초등학교,서울특별시 송파구 풍납동 165,서울특별시 송파구 풍성로 43,37.5344059,127.1172056
2020,19840421,서울토성초등학교,서울특별시 송파구 풍납동 251,서울특별시 송파구 풍성로20길 44,37.5318847,127.1156313
2020,19910424,서울풍성초등학교,서울특별시 송파구 풍납동 388-8,서울특별시 송파구 강동대로2길 13,37.5262933,127.1134868
2020,19870424,서울아주초등학교,서울특별시 송파구 잠실동 115,서울특별시 송파구 올림픽로4길 59,37.5058275,127.075764
2020,20070901,서울버들초등학교,서울특별시 송파구 잠실동 35-6,서울특별시 송파구 석촌호수로 81,37.5102814,127.08906770000002
2020,19590526,서울신천초등학교,서울특별시 송파구 잠실동 27-5,서울특별시 송파구 올림픽로 215,37.5140127,127.0950476
2020,19851024,서울선린초등학교,서울특별시 강동구 둔촌동 91-17,서울특별시 강동구 진황도로61길 29,37.5297612,127.1455951
2020,19801129,서울고명초등학교,서울특별시 강동구 명일동 296-1,서울특별시 강동구 고덕로46길 53,37.5529723,127.1474373
2020,19851023,서울묘곡초등학교,서울특별시 강동구 고덕동 498,서울특별시 강동구 동남로79길 46,37.5587134,127.153094
2020,19930720,서울강일초등학교,서울특별시 강동구 강일동 685,서울특별시 강동구 아리수로98길 24,37.5652569,127.1772858
2020,19840511,서울고덕초등학교,서울특별시 강동구 고덕동 158,서울특별시 강동구 아리수로82길 42,37.5612943,127.166079
2020,19870406,서울강덕초등학교,서울특별시 강동구 고덕동 222,서울특별시 강동구 동남로82길 94-54,37.5595469,127.160484
2020,19850503,서울명덕초등학교,서울특별시 강동구 고덕동 487-15,서울특별시 강동구 양재대로156길 11,37.556763,127.1450817
2020,19820504,서울신명초등학교,서울특별시 강동구 길동 42,서울특별시 강동구 명일로24길 33,37.5409425,127.149989
2020,19740607,서울길동초등학교,서울특별시 강동구 길동 362,서울특별시 강동구 양재대로116길 69,37.5385062,127.1449741
2020,19830607,서울천동초등학교,서울특별시 강동구 길동 371-1,서울특별시 강동구 성안로 200,37.541015,127.13782759999998
2020,19900501,서울한산초등학교,서울특별시 강동구 둔촌동 149,서울특별시 강동구 풍성로 261,37.5286963,127.1410767
2020,19870422,서울명원초등학교,서울특별시 강동구 명일동 39,서울특별시 강동구 명일로 364,37.5512889,127.1504189
2020,19860506,서울대명초등학교,서울특별시 강동구 명일동 234,서울특별시 강동구 상암로 271,37.547667,127.15328970000002
2020,19840506,서울고일초등학교,서울특별시 강동구 상일동 125,서울특별시 강동구 구천면로93길 20,37.5515408,127.1694116
2020,19211002,서울상일초등학교,서울특별시 강동구 상일동 325-1,서울특별시 강동구 천호대로 1477,37.5475717,127.1726617
2020,20110301,서울강명초등학교,서울특별시 강동구 상일동 480,서울특별시 강동구 상일로 74-1,37.5547066,127.1733624
2020,19831006,서울성일초등학교,서울특별시 강동구 성내동 531,서울특별시 강동구 성내로15길 33,37.5297091,127.1284076
2020,19690327,서울성내초등학교,서울특별시 강동구 성내동 300-3,서울특별시 강동구 성내로3길 19,37.5313588,127.1225001
2020,19801006,서울명일초등학교,서울특별시 강동구 암사동 418-18,서울특별시 강동구 고덕로38길 8,37.5545424,127.1425695
2020,19851017,서울천일초등학교,서울특별시 강동구 천호동 217-70,서울특별시 강동구 구천면로 266,37.5443609,127.1334388
2020,19440920,서울천호초등학교,서울특별시 강동구 천호동 230-9,서울특별시 강동구 구천면로 310-11,37.5477199,127.1365906
2020,19770504,서울강동초등학교,서울특별시 강동구 천호동 306,서울특별시 강동구 상암로14길 77,37.5463648,127.1301879
2020,20010901,서울선사초등학교,서울특별시 강동구 암사동 186-1,서울특별시 강동구 올림픽로 837,37.5558491,127.1282034
2020,19801103,서울신암초등학교,서울특별시 강동구 암사동 517,서울특별시 강동구 올림픽로93길 33-16,37.5500219,127.1244047
2020,20110901,서울신은초등학교,서울특별시 양천구 신정동 1319,서울특별시 양천구 신정이펜2로 30,37.5139137,126.83217109999998
2020,19950605,서울목원초등학교,서울특별시 양천구 목동 191-1,서울특별시 양천구 목동중앙로 204,37.5429195,126.8824461
2020,19861127,서울경인초등학교,서울특별시 양천구 목동 911-4,서울특별시 양천구 안양천로 1009,37.5328698,126.8856977
2020,19871017,서울서정초등학교,서울특별시 양천구 목동 927-5,서울특별시 양천구 목동로8길 19,37.5234513,126.8672365
2020,20090506,서울목운초등학교,서울특별시 양천구 목동 922,서울특별시 양천구 목동동로 235,37.5270112,126.87304509999998
2020,19790506,서울계남초등학교,서울특별시 양천구 신정동 325-7,서울특별시 양천구 목동동로2길 54,37.5101694,126.8600168
2020,19960710,서울은정초등학교,서울특별시 양천구 신정동 276-2,서울특별시 양천구 목동남로 85,37.511129,126.8670412
2020,19871022,서울신서초등학교,서울특별시 양천구 신정동 312-1,서울특별시 양천구 목동서로10길 35,37.5205589,126.8623322
2020,19830302,서울양명초등학교,서울특별시 양천구 신정동 310-6,서울특별시 양천구 중앙로 204,37.516375,126.8566344
2020,20101002,서울신기초등학교,서울특별시 양천구 신정동 1274,서울특별시 양천구 신정로 292,37.5113683,126.8542146
2020,19921029,서울남명초등학교,서울특별시 양천구 신정동 653-5,서울특별시 양천구 중앙로23길 3,37.5156836,126.85408390000002
2020,19800417,서울양목초등학교,서울특별시 양천구 신정동 1001,서울특별시 양천구 목동로11길 30,37.5239168,126.8614708
2020,19871126,서울갈산초등학교,서울특별시 양천구 신정동 330-10,서울특별시 양천구 목동로 31,37.5123723,126.8702286
2020,19850304,서울강신초등학교,서울특별시 양천구 신월동 6-7,서울특별시 양천구 월정로 280,37.5421005,126.82958229999998
2020,19790404,서울양화초등학교,서울특별시 양천구 목동 542,서울특별시 양천구 목동중앙북로16길 57,37.5436699,126.8739855
2020,19810921,서울정목초등학교,서울특별시 양천구 목동 757-2,서울특별시 양천구 목동중앙로3길 30-10,37.5365297,126.870051
2020,19910506,서울양원초등학교,서울특별시 양천구 신월동 260-1,서울특별시 양천구 화곡로 16,37.5382167,126.8231056
2020,19810719,서울신원초등학교,서울특별시 양천구 신월동 202-1,서울특별시 양천구 남부순환로58길 32,37.5295028,126.829855
2020,19801018,서울강서초등학교,서울특별시 양천구 신월동 441,서울특별시 양천구 오목로 31,37.5224134,126.8409892
2020,19840601,서울신강초등학교,서울특별시 양천구 신월동 864,서울특별시 양천구 중앙로55길 72,37.5258425,126.8422626
2020,19870423,서울양강초등학교,서울특별시 양천구 신월동 496,서울특별시 양천구 오목로 101,37.523604,126.8474801
2020,19831024,서울신남초등학교,서울특별시 양천구 신월동 587,서울특별시 양천구 절골8길 33,37.5165295,126.8447978
2020,19880506,서울강월초등학교,서울특별시 양천구 신월동 987-3,서울특별시 양천구 신월로 97,37.516341,126.8334325
2020,19740701,서울목동초등학교,서울특별시 양천구 신정동 86-2,서울특별시 양천구 목동동로12길 12,37.52280800000001,126.8721201
2020,19820408,서울신목초등학교,서울특별시 양천구 신정동 281-2,서울특별시 양천구 신목로5길 11-6,37.5166096,126.8726419
2020,20020901,서울지향초등학교,서울특별시 양천구 신정동 1284,서울특별시 양천구 신정로11길 74,37.5128393,126.8370236
2020,20060301,서울장수초등학교,서울특별시 양천구 신정동 1288-2,서울특별시 양천구 신정로13가길 30,37.512998,126.845158
2020,19720811,서울양동초등학교,서울특별시 양천구 신정동 941,서울특별시 양천구 오목로23길 24,37.5258469,126.8512404
2020,19860417,서울월촌초등학교,서울특별시 양천구 목동 901-1,서울특별시 양천구 목동중앙로 132,37.5406954,126.876258
2020,19861127,서울영도초등학교,서울특별시 양천구 목동 903-1,서울특별시 양천구 목동중앙로 70,37.5359626,126.871927
2020,20050506,서울화일초등학교,서울특별시 강서구 화곡동 61-184,서울특별시 강서구 까치산로10길 70,37.540726,126.84740759999998
2020,19830610,서울우장초등학교,서울특별시 강서구 화곡동 18-5,서울특별시 강서구 화곡로 263,37.5496374,126.8459831
2020,19491001,서울신정초등학교,서울특별시 강서구 화곡동 869-42,서울특별시 강서구 곰달래로31가길 27,37.5320724,126.8523594
2020,19841022,서울신곡초등학교,서울특별시 강서구 화곡동 476-42,서울특별시 강서구 등촌로13자길 42-14,37.53909390000001,126.8560116
2020,20090302,서울등마초등학교,서울특별시 강서구 등촌동 718,서울특별시 강서구 등촌로35길 12,37.5420452,126.8616681
2020,19941130,서울등양초등학교,서울특별시 강서구 등촌동 691,서울특별시 강서구 강서로56나길 140,37.5649455,126.8447608
2020,20051026,서울염경초등학교,서울특별시 강서구 염창동 79,서울특별시 강서구 양천로69길 49,37.5550015,126.871205
2020,19630701,서울염창초등학교,서울특별시 강서구 염창동 269,서울특별시 강서구 양천로 646-28,37.5532243,126.8676002
2020,19940901,서울치현초등학교,서울특별시 강서구 방화동 833,서울특별시 강서구 방화대로47길 43,37.5759194,126.8146438
2020,19940506,서울삼정초등학교,서울특별시 강서구 방화동 798,서울특별시 강서구 금낭화로 222,37.58050789999999,126.8104935
2020,19930923,서울정곡초등학교,서울특별시 강서구 방화동 836,서울특별시 강서구 방화대로50길 22,37.5769549,126.818934
2020,19930413,서울가곡초등학교,서울특별시 강서구 마곡동 728-28,서울특별시 강서구 공항대로36길 74,37.5557076,126.8361018
2020,19791018,서울발산초등학교,서울특별시 강서구 내발산동 408,서울특별시 강서구 강서로45길 113,37.550262,126.8309942
2020,19000401,서울양천초등학교,서울특별시 강서구 가양동 272-11,서울특별시 강서구 양천로 329,37.57018950000001,126.8395384
2020,19940601,서울탑산초등학교,서울특별시 강서구 가양동 1473,서울특별시 강서구 허준로 109,37.5670167,126.8523675
2020,19920715,서울가양초등학교,서울특별시 강서구 가양동 1484,서울특별시 강서구 허준로 186,37.5622166,126.8585205
2020,19360906,서울송정초등학교,서울특별시 강서구 공항동 22-16,서울특별시 강서구 공항대로3길 18,37.5622318,126.8102817
2020,19840621,서울내발산초등학교,서울특별시 강서구 내발산동 707,서울특별시 강서구 강서로46길 23,37.5508811,126.838163
2020,19820707,서울등촌초등학교,서울특별시 강서구 등촌동 520-4,서울특별시 강서구 등촌로39길 71,37.5476125,126.8579416
2020,19840522,서울백석초등학교,서울특별시 강서구 등촌동 650-14,서울특별시 강서구 공항대로 491,37.5536473,126.8624253
2020,19901004,서울송화초등학교,서울특별시 강서구 마곡동 731-229,서울특별시 강서구 방화대로34길 2,37.5681509,126.8180317
2020,19560710,서울개화초등학교,서울특별시 강서구 방화동 502,서울특별시 강서구 양천로 11,37.5739427,126.8046463
2020,19860506,서울방화초등학교,서울특별시 강서구 방화동 542-2,서울특별시 강서구 양천로6길 92,37.5687036,126.8074988
2020,19970516,서울염동초등학교,서울특별시 강서구 염창동 45-4,서울특별시 강서구 양천로73길 17,37.5520943,126.8723507
2020,19670301,서울화곡초등학교,서울특별시 강서구 화곡동 24-266,서울특별시 강서구 초록마을로 28,37.5436698,126.8464706
2020,19820423,서울월정초등학교,서울특별시 강서구 화곡동 374-1,서울특별시 강서구 월정로 176,37.5349957,126.836292
2020,19750311,서울신월초등학교,서울특별시 강서구 화곡동 1080,서울특별시 강서구 강서로31길 48,37.5403664,126.8394575
2020,19841102,서울등서초등학교,서울특별시 강서구 화곡동 산212,서울특별시 강서구 화곡로58길 86,37.5518833,126.8550364
2020,19951206,서울등명초등학교,서울특별시 강서구 등촌동 690-2,서울특별시 강서구 강서로56나길 34,37.5608951,126.8423834
2020,19951021,서울등현초등학교,서울특별시 강서구 등촌동 702-5,서울특별시 강서구 화곡로65길 124,37.5614497,126.8475976
2020,19931026,서울등원초등학교,서울특별시 강서구 등촌동 704-1,서울특별시 강서구 화곡로65길 90,37.5598131,126.8500683
2020,20080301,서울수명초등학교,서울특별시 강서구 내발산동 752,서울특별시 강서구 수명로1길 84,37.5527744,126.8238445
2020,19650308,유석초등학교,서울특별시 강서구 등촌동 82-1,서울특별시 강서구 화곡로69길 9,37.5608059,126.8537249
2020,20120301,서울우면초등학교,서울특별시 서초구 우면동 690,서울특별시 서초구 태봉로 59,37.4647094,127.0237894
2020,19530415,서울교육대학교부설초등학교,서울특별시 서초구 서초동 1650,서울특별시 서초구 서초중앙로 96,37.4908795,127.0176896
2020,19360601,서울신중초등학교,서울특별시 서초구 서초동 1466-5,서울특별시 서초구 남부순환로317길 15,37.4799282,127.0102613
2020,19850422,서울서원초등학교,서울특별시 서초구 반포동 30-8,서울특별시 서초구 고무래로 63,37.5024379,127.0146207
2020,19790918,서울원촌초등학교,서울특별시 서초구 반포동 21,서울특별시 서초구 사평대로45길 26,37.5061899,127.0125676
2020,19781121,서울잠원초등학교,서울특별시 서초구 반포동 17,서울특별시 서초구 신반포로16길 15-25,37.5018585,126.9980966
2020,19820406,서울반원초등학교,서울특별시 서초구 잠원동 72,서울특별시 서초구 잠원로3길 28,37.5103135,127.0040536
2020,20080301,서울매헌초등학교,서울특별시 서초구 양재동 311-1,서울특별시 서초구 언남길 8,37.4712637,127.04206979999998
2020,19740320,서울반포초등학교,서울특별시 서초구 반포동 937,서울특별시 서초구 신반포로 55-4,37.5024854,126.9917397
2020,19841025,서울방일초등학교,서울특별시 서초구 방배동 167-4,서울특별시 서초구 방배로18길 52,37.48520429999999,126.9988512
2020,19780413,서울이수초등학교,서울특별시 서초구 방배동 468-6,서울특별시 서초구 방배천로4길 23,37.4783701,126.9844162
2020,19830404,서울서래초등학교,서울특별시 서초구 방배동 771,서울특별시 서초구 방배로 260,37.49640529999999,126.9901572
2020,19750912,서울방배초등학교,서울특별시 서초구 방배동 861-1,서울특별시 서초구 방배중앙로13길 26,37.4867642,126.9871924
2020,19901102,서울방현초등학교,서울특별시 서초구 방배동 산81-1,서울특별시 서초구 효령로4길 58,37.4765038,126.9900738
2020,19820506,서울서초초등학교,서울특별시 서초구 서초동 1310-6,서울특별시 서초구 서운로 178,37.4990484,127.024893
2020,19840301,서울서이초등학교,서울특별시 서초구 서초동 1334-2,서울특별시 서초구 서운로 35,37.4915663,127.0256187
2020,19861016,서울서일초등학교,서울특별시 서초구 서초동 1436-8,서울특별시 서초구 남부순환로339길 38,37.48529600000001,127.0221612
2020,19900504,서울원명초등학교,서울특별시 서초구 서초동 1685-1,서울특별시 서초구 고무래로 90-6,37.5007959,127.0167058
2020,19841024,서울양재초등학교,서울특별시 서초구 양재동 101,서울특별시 서초구 바우뫼로18길 14,37.4741645,127.0318861
2020,19941101,서울우암초등학교,서울특별시 서초구 우면동 58,서울특별시 서초구 바우뫼로7길 38,37.4722959,127.023722
2020,19460402,서울신동초등학교,서울특별시 서초구 잠원동 54-5,서울특별시 서초구 나루터로 15,37.5171282,127.0113885
2020,18820908,계성초등학교,서울특별시 서초구 반포동 6-1,서울특별시 서초구 신반포로19길 23,37.50491470000001,126.9968242
2020,19820407,서울봉은초등학교,서울특별시 강남구 삼성동 79-2,서울특별시 강남구 학동로 610,37.5200828,127.06093090000002
2020,19330501,서울대왕초등학교,서울특별시 강남구 세곡동 517,서울특별시 강남구 헌릉로618길 8,37.4646214,127.1055895
2020,19920715,서울수서초등학교,서울특별시 강남구 수서동 709,서울특별시 강남구 광평로51길 46,37.4911506,127.1015496
2020,19941014,서울대모초등학교,서울특별시 강남구 일원동 736,서울특별시 강남구 광평로20길 27,37.4805995,127.0859937
2020,19921026,서울대진초등학교,서울특별시 강남구 개포동 13,서울특별시 강남구 개포로109길 74,37.4970106,127.0780425
2020,19890506,서울양전초등학교,서울특별시 강남구 개포동 183,서울특별시 강남구 개포로 513,37.490283700000006,127.0694235
2020,19850506,서울구룡초등학교,서울특별시 강남구 개포동 655,서울특별시 강남구 개포로 263,37.4811961,127.051773
2020,19271008,서울언주초등학교,서울특별시 강남구 도곡동 922,서울특별시 강남구 남부순환로363길 19,37.4863231,127.03679270000002
2020,19840509,서울대치초등학교,서울특별시 강남구 대치동 505,서울특별시 강남구 양재천로 363,37.4912788,127.0621966
2020,19750312,서울도곡초등학교,서울특별시 강남구 대치동 924-10,서울특별시 강남구 선릉로64길 33,37.4995106,127.0544636
2020,19800327,서울대도초등학교,서울특별시 강남구 도곡동 106-1,서울특별시 강남구 선릉로 209,37.4926008,127.0533776
2020,19870901,서울개일초등학교,서울특별시 강남구 개포동 174,서울특별시 강남구 개포로 401,37.4862138,127.057742
2020,19721123,서울논현초등학교,서울특별시 강남구 논현동 168,서울특별시 강남구 강남대로120길 33,37.5084232,127.0262217
2020,19790411,서울학동초등학교,서울특별시 강남구 논현동 264-7,서울특별시 강남구 선릉로115길 42,37.5122603,127.0395969
2020,19820402,서울대곡초등학교,서울특별시 강남구 대치동 510,서울특별시 강남구 남부순환로 3022,37.4947119,127.0650265
2020,19850508,서울대현초등학교,서울특별시 강남구 대치동 969,서울특별시 강남구 역삼로98길 16,37.50372279999999,127.063564
2020,19850301,서울삼릉초등학교,서울특별시 강남구 삼성동 42,서울특별시 강남구 봉은사로63길 22,37.51325960000001,127.0469495
2020,19631031,서울왕북초등학교,서울특별시 강남구 수서동 745,서울특별시 강남구 광평로31길 74,37.4863299,127.08605459999998
2020,19811103,서울신구초등학교,서울특별시 강남구 신사동 550-11,서울특별시 강남구 압구정로18길 28,37.5233613,127.0239915
2020,19770504,서울압구정초등학교,서울특별시 강남구 압구정동 461,서울특별시 강남구 압구정로39길 29,37.531739,127.03084409999998
2020,19810930,서울도성초등학교,서울특별시 강남구 역삼동 714,서울특별시 강남구 역삼로 313,37.5014628,127.0488738
2020,19790927,서울역삼초등학교,서울특별시 강남구 역삼동 833-7,서울특별시 강남구 강남대로66길 21,37.4931653,127.0326527
2020,19930227,서울대청초등학교,서울특별시 강남구 일원동 712,서울특별시 강남구 양재대로55길 28,37.4931475,127.0877676
2020,19461001,서울영희초등학교,서울특별시 강남구 일원동 617,서울특별시 강남구 일원로 21,37.49230170000001,127.0811312
2020,19841010,서울일원초등학교,서울특별시 강남구 일원동 691,서울특별시 강남구 영동대로4길 20,37.4897893,127.0763669
2020,19450401,서울언북초등학교,서울특별시 강남구 청담동 27,서울특별시 강남구 삼성로135길 42,37.5201261,127.04471409999998
2020,19800404,서울청담초등학교,서울특별시 강남구 청담동 142,서울특별시 강남구 압구정로71길 9,37.5282818,127.0451534
2020,19901024,서울포이초등학교,서울특별시 강남구 개포동 1273,서울특별시 강남구 개포로22길 87,37.4752929,127.0514162
2020,19820412,서울신상도초등학교,서울특별시 동작구 상도동 204-333,서울특별시 동작구 장승배기로 14,37.5003463,126.9446175
2020,19451102,서울강남초등학교,서울특별시 동작구 상도1동 501-1,서울특별시 동작구 강남초등길 15,37.5061928,126.953358
2020,19480320,서울노량진초등학교,서울특별시 동작구 노량진동 237,서울특별시 동작구 장승배기로 160,37.511751200000006,126.9408222
2020,19481030,서울본동초등학교,서울특별시 동작구 본동 133,서울특별시 동작구 노량진로26길 16-40,37.5099262,126.9538533
2020,19081101,서울은로초등학교,서울특별시 동작구 흑석동 245-1,서울특별시 동작구 서달로 115,37.5031492,126.9600008
2020,19830406,서울동작초등학교,서울특별시 동작구 사당동 산9-1,서울특별시 동작구 동작대로29길 214,37.4941016,126.97651090000002
2020,20070901,서울삼일초등학교,서울특별시 동작구 사당동 산18-38,서울특별시 동작구 사당로23나길 27,37.4882355,126.9751016
2020,19920506,서울행림초등학교,서울특별시 동작구 사당동 산32-114,서울특별시 동작구 솔밭로 47,37.4828061,126.9649638
2020,19750311,서울신남성초등학교,서울특별시 동작구 사당동 199-1,서울특별시 동작구 사당로 146,37.4881508,126.9648709
2020,19620903,서울영화초등학교,서울특별시 동작구 대방동 13-2,서울특별시 동작구 등용로8길 3,37.508907,126.9329751
2020,19640312,서울신길초등학교,서울특별시 동작구 대방동 351-6,서울특별시 동작구 알마타길 16,37.510078,126.9262919
2020,19740402,서울대림초등학교,서울특별시 동작구 대방동 391-62,서울특별시 동작구 대방동1길 22,37.5006148,126.9248853
2020,19671127,서울영본초등학교,서울특별시 동작구 본동 441-11,서울특별시 동작구 만양로12가길 69,37.5112972,126.9486722
2020,19671205,서울남성초등학교,서울특별시 동작구 사당동 324-22,서울특별시 동작구 사당로23길 57-14,37.4845963,126.9754872
2020,19790927,서울남사초등학교,서울특별시 동작구 사당동 1011-1,서울특별시 동작구 동작대로13길 22,37.4819443,126.9782332
2020,19670311,서울상도초등학교,서울특별시 동작구 상도동 238-2,서울특별시 동작구 성대로21길 62,37.5003462,126.9372288
2020,20050506,서울보라매초등학교,서울특별시 동작구 신대방동 488-1,서울특별시 동작구 여의대방로16길 30,37.4958533,126.91614640000002
2020,19460406,서울문창초등학교,서울특별시 동작구 신대방동 640,서울특별시 동작구 신대방2길 14,37.4889831,126.9148425
2020,19680923,서울흑석초등학교,서울특별시 동작구 흑석동 7-1,서울특별시 동작구 현충로 87,37.5082938,126.9651701
2020,19650308,중앙대학교사범대학부속초등학교,서울특별시 동작구 흑석동 233-2,서울특별시 동작구 서달로 135,37.5054521,126.9596784
2020,20021022,서울원신초등학교,서울특별시 관악구 신림동 336,서울특별시 관악구 광신길 177,37.4671978,126.9272428
2020,19851008,서울남부초등학교,서울특별시 관악구 신림동 467,서울특별시 관악구 남부순환로163길 14,37.4851211,126.9221826
2020,19780406,서울신우초등학교,서울특별시 관악구 신림동 315,서울특별시 관악구 호암로 498,37.4632653,126.9325366
2020,19691209,서울신림초등학교,서울특별시 관악구 신림동 418-20,서울특별시 관악구 문성로28길 31,37.4771195,126.9268759
2020,20050301,서울조원초등학교,서울특별시 관악구 신림동 548-2,서울특별시 관악구 조원로 67,37.4841778,126.909581
2020,19710422,서울난곡초등학교,서울특별시 관악구 신림동 711-136,서울특별시 관악구 난곡로35길 102,37.4691296,126.9163436
2020,19721023,서울삼성초등학교,서울특별시 관악구 신림동 233-1,서울특별시 관악구 대학7길 52,37.468520700000006,126.9404946
2020,19800417,서울미성초등학교,서울특별시 관악구 신림동 768-23,서울특별시 관악구 문성로 79,37.4783386,126.9123944
2020,20030527,서울봉현초등학교,서울특별시 관악구 봉천동 1704,서울특별시 관악구 성현로 117,37.4912399617,126.9555881
2020,19851018,서울청룡초등학교,서울특별시 관악구 봉천동 390-3,서울특별시 관악구 관악로5길 61,37.4767248,126.9512057
2020,19670915,서울봉천초등학교,서울특별시 관악구 봉천동 28-6,서울특별시 관악구 행운1라길 17,37.4832688,126.9581888
2020,19730627,서울원당초등학교,서울특별시 관악구 봉천동 1669-1,서울특별시 관악구 봉천로 505,37.4812787,126.9562498
2020,19720713,서울사당초등학교,서울특별시 관악구 남현동 1080-1,서울특별시 관악구 남현4길 51,37.4738378,126.9733518
2020,19800402,서울인헌초등학교,서울특별시 관악구 봉천동 212-3,서울특별시 관악구 낙성대로 23,37.4767533,126.9598656
2020,19740910,서울당곡초등학교,서울특별시 관악구 봉천동 692-8,서울특별시 관악구 보라매로2길 23,37.49016820000001,126.9303685
2020,19810713,서울신봉초등학교,서울특별시 관악구 봉천동 458,서울특별시 관악구 양녕로6나길 1,37.4855755,126.9493908
2020,19770211,서울구암초등학교,서울특별시 관악구 봉천동 482-1,서울특별시 관악구 구암길 1,37.48966160000001,126.947398
2020,19580401,서울은천초등학교,서울특별시 관악구 봉천동 622-1,서울특별시 관악구 은천로 69,37.4865852,126.9426783
2020,19711204,서울관악초등학교,서울특별시 관악구 봉천동 920,서울특별시 관악구 청룡4길 49,37.481024100000006,126.942556
2020,19761203,서울난우초등학교,서울특별시 관악구 신림동 589-1,서울특별시 관악구 난우길 40,37.477117,126.9176507
2020,19810406,서울난향초등학교,서울특별시 관악구 신림동 672,서울특별시 관악구 난향길 9,37.4628203,126.9183355
2020,19821011,서울신성초등학교,서울특별시 관악구 신림동 118-1,서울특별시 관악구 신림로 114,37.4720039,126.93675220000002
2020,19621026,서울행당초등학교,서울특별시 성동구 행당동 320-60,서울특별시 성동구 고산자로8길 6,37.55701989999999,127.0348717
2020,20100301,서울동호초등학교,서울특별시 성동구 옥수동 556-1,서울특별시 성동구 동호로5길 133,37.5464614,127.0100328
2020,19131001,서울경동초등학교,서울특별시 성동구 성수동1가 19-1,서울특별시 성동구 성수일로 34,37.5438239,127.0500737
2020,19810429,서울경수초등학교,서울특별시 성동구 성수동2가 268,서울특별시 성동구 뚝섬로13길 22,37.540436,127.0580689
2020,19681126,서울금북초등학교,서울특별시 성동구 금호동1가 48-2,서울특별시 성동구 행당로1길 13,37.5574949,127.0235067
2020,19580401,서울금호초등학교,서울특별시 성동구 금호동2가 511,서울특별시 성동구 무수막길 69,37.5518984,127.020755
2020,19670306,서울옥수초등학교,서울특별시 성동구 금호동4가 440-12,서울특별시 성동구 금호로1길 25,37.5455299,127.0218712
2020,19620412,서울금옥초등학교,서울특별시 성동구 금호동4가 999-4,서울특별시 성동구 독서당로 251,37.54632150000001,127.01760120000002
2020,19441010,서울동명초등학교,서울특별시 성동구 마장동 556,서울특별시 성동구 마장로29길 29,37.5681238,127.0351078
2020,20050301,서울마장초등학교,서울특별시 성동구 마장동 766-49,서울특별시 성동구 마장로35나길 31,37.5683089,127.0421258
2020,19671113,서울사근초등학교,서울특별시 성동구 사근동 291-5,서울특별시 성동구 사근동11길 16,37.562685,127.047545
2020,19841031,서울경일초등학교,서울특별시 성동구 성수동1가 656-32,서울특별시 성동구 뚝섬로 332,37.5409421,127.0466048
2020,19721201,서울성수초등학교,서울특별시 성동구 성수동2가 277-32,서울특별시 성동구 아차산로17길 21,37.5443361,127.0631685
2020,20090301,서울송원초등학교,서울특별시 성동구 송정동 72-8,서울특별시 성동구 동일로43길 9,37.5541575,127.069528
2020,19710522,서울옥정초등학교,서울특별시 성동구 옥수동 233-16,서울특별시 성동구 한림말길 43,37.5423089,127.0157872
2020,19830420,서울용답초등학교,서울특별시 성동구 용답동 29,서울특별시 성동구 용답25길 1,37.5607301,127.0537611
2020,20021024,서울응봉초등학교,서울특별시 성동구 응봉동 193,서울특별시 성동구 독서당로62길 28,37.5502519,127.0338274
2020,19150901,서울무학초등학교,서울특별시 성동구 하왕십리동 950-1,서울특별시 성동구 무학봉15길 21,37.5632743,127.0296135
2020,20050901,서울행현초등학교,서울특별시 성동구 행당동 317-18,서울특별시 성동구 행당로 95,37.5577098,127.0293671
2020,19660515,한양초등학교,서울특별시 성동구 사근동 110,서울특별시 성동구 살곶이길 208,37.5576199,127.05026399999998
2020,20050301,서울양진초등학교,서울특별시 광진구 광장동 414-1,서울특별시 광진구 워커힐로 32,37.5445756,127.0983249
2020,19900607,서울광남초등학교,서울특별시 광진구 광장동 554,서울특별시 광진구 아차산로70길 35,37.5407894,127.1006638
2020,19461110,서울광장초등학교,서울특별시 광진구 광장동 389-1,서울특별시 광진구 광장로1길 27,37.5485479,127.1018014
2020,19870709,서울동의초등학교,서울특별시 광진구 구의동 4-5,서울특별시 광진구 영화사로 111,37.55342279999999,127.0990466
2020,20030901,서울광진초등학교,서울특별시 광진구 구의동 60-44,서울특별시 광진구 자양로40길 41,37.5476122,127.09133490000002
2020,19980301,서울구남초등학교,서울특별시 광진구 구의동 587-95,서울특별시 광진구 구의강변로 69,37.537095,127.0922906
2020,19550319,서울장안초등학교,서울특별시 광진구 군자동 365,서울특별시 광진구 군자로 74,37.5498778,127.0724029
2020,19451210,서울자양초등학교,서울특별시 광진구 자양동 222-6,서울특별시 광진구 아차산로44길 26,37.5369888,127.0797404
2020,19841205,서울동자초등학교,서울특별시 광진구 자양동 518-1,서울특별시 광진구 뚝섬로 561,37.5350583,127.0721804
2020,19790411,서울신양초등학교,서울특별시 광진구 자양동 504,서울특별시 광진구 능동로 42,37.534624,127.0699941
2020,19821207,서울신자초등학교,서울특별시 광진구 자양동 591,서울특별시 광진구 뚝섬로46길 64,37.53027879999999,127.0755879
2020,19831201,서울성자초등학교,서울특별시 광진구 자양동 662,서울특별시 광진구 뚝섬로56길 7,37.5314938,127.0834092
2020,19831203,서울양남초등학교,서울특별시 광진구 자양동 692,서울특별시 광진구 뚝섬로64길 71,37.5311219,127.0892331
2020,19721123,서울용마초등학교,서울특별시 광진구 중곡동 135-1,서울특별시 광진구 천호대로113길 10,37.5578281,127.0835291
2020,19980901,서울중광초등학교,서울특별시 광진구 중곡동 220-22,서울특별시 광진구 긴고랑로13길 59,37.565242100000006,127.0826953
2020,19821110,서울중마초등학교,서울특별시 광진구 중곡동 191-69,서울특별시 광진구 동일로72길 43,37.5657924,127.079024
2020,19780504,서울용곡초등학교,서울특별시 광진구 중곡동 176-1,서울특별시 광진구 용마산로22길 82,37.5671083,127.088452
2020,19831021,서울화양초등학교,서울특별시 광진구 화양동 12-2,서울특별시 광진구 군자로 9,37.54422720000001,127.0715827
2020,19820422,서울구의초등학교,서울특별시 광진구 화양동 303-9,서울특별시 광진구 광나루로30길 49,37.54300900000001,127.0803126
2020,19621004,세종초등학교,서울특별시 광진구 군자동 98,서울특별시 광진구 군자로 114,37.55302020000001,127.0728767
2020,19641126,경복초등학교,서울특별시 광진구 능동 25,서울특별시 광진구 천호대로130길 58,37.5498296,127.0867929
2020,19670301,성동초등학교,서울특별시 광진구 자양동 694-1,서울특별시 광진구 자양로4길 63,37.53328060000001,127.0892809
2020,19440930,서울돈암초등학교,서울특별시 성북구 동소문동6가 27-1,서울특별시 성북구 동소문로13길 38,37.5937144,127.0131031
2020,19461101,서울정덕초등학교,서울특별시 성북구 동소문동7가 118-1,서울특별시 성북구 아리랑로 63,37.5982394,127.013421
2020,19490901,서울삼선초등학교,서울특별시 성북구 삼선동3가 30-4,서울특별시 성북구 보문로29길 106,37.5871429,127.0126717
2020,19600607,서울안암초등학교,서울특별시 성북구 안암동2가 93,서울특별시 성북구 고려대로7가길 39,37.5871595,127.0221008
2020,19481101,서울동신초등학교,서울특별시 성북구 보문동3가 228,서울특별시 성북구 보문사길 50,37.5832861,127.0170593
2020,19450514,서울숭덕초등학교,서울특별시 성북구 정릉동 173-1,서울특별시 성북구 정릉로 279,37.6038184,127.0132906
2020,20060301,서울길원초등학교,서울특별시 성북구 길음동 1280-4,서울특별시 성북구 길음로15길 55,37.6090653,127.0167979
2020,19720301,서울숭곡초등학교,서울특별시 성북구 하월곡동 84-86,서울특별시 성북구 종암로40길 30,37.60843120000001,127.03281640000002
2020,20060901,서울장월초등학교,서울특별시 성북구 장위동 316,서울특별시 성북구 한천로101길 66,37.6219412,127.0471628
2020,19720714,서울월곡초등학교,서울특별시 성북구 장위동 246-194,서울특별시 성북구 장월로3길 42,37.6100233,127.0460816
2020,19850506,서울길음초등학교,서울특별시 성북구 길음동 635-7,서울특별시 성북구 길음로 142,37.6136315,127.0166585
2020,19620328,서울미아초등학교,서울특별시 성북구 길음동 1168,서울특별시 성북구 삼양로 77,37.610589,127.0216457
2020,20020710,서울개운초등학교,서울특별시 성북구 돈암동 2-8,서울특별시 성북구 정릉로48길 52,37.6018373,127.0275952
2020,20050302,서울석계초등학교,서울특별시 성북구 석관동 27-3,서울특별시 성북구 한천로58길 273,37.6088152,127.06973290000002
2020,19711203,서울석관초등학교,서울특별시 성북구 석관동 205,서울특별시 성북구 돌곶이로22길 21,37.6110234,127.0583548
2020,19420303,서울성북초등학교,서울특별시 성북구 성북동 66-1,서울특별시 성북구 성북로 102-10,37.5940524,126.9987771
2020,19461101,서울장위초등학교,서울특별시 성북구 장위동 68-8,서울특별시 성북구 장월로8가길 41,37.6114417,127.0500057
2020,19780321,서울장곡초등학교,서울특별시 성북구 장위동 235,서울특별시 성북구 장월로23길 16,37.6168304,127.0481563
2020,19860406,서울정수초등학교,서울특별시 성북구 정릉동 431-62,서울특별시 성북구 정릉로24길 58,37.6037756,127.0077189
2020,19850710,서울정릉초등학교,서울특별시 성북구 정릉동 798-1,서울특별시 성북구 솔샘로25가길 8,37.6197953,127.0052558
2020,19670916,서울청덕초등학교,서울특별시 성북구 정릉동 847,서울특별시 성북구 정릉로9라길 11,37.6120317,127.0003352
2020,20000901,서울일신초등학교,서울특별시 성북구 종암동 1-79,서울특별시 성북구 월곡로 74,37.5988136,127.0401072
2020,19451101,서울숭례초등학교,서울특별시 성북구 종암동 22-1,서울특별시 성북구 종암로5길 14,37.59452279999999,127.03529679999998
2020,19370401,서울숭인초등학교,서울특별시 성북구 하월곡동 222-4,서울특별시 성북구 오패산로16길 37,37.6091612,127.0382348
2020,19650308,성신초등학교,서울특별시 성북구 돈암동 산11-269,서울특별시 성북구 북악산로 918,37.5938951,127.0232532
2020,19650415,우촌초등학교,서울특별시 성북구 돈암동 609,서울특별시 성북구 성북로4길 52-1,37.5955942,127.0121206
2020,19660525,대광초등학교,서울특별시 성북구 보문동7가 111,서울특별시 성북구 안암로 5,37.57915120000001,127.0234479
2020,19651025,광운초등학교,서울특별시 성북구 장위동 130,서울특별시 성북구 한천로 693,37.61905820000001,127.0550899
2020,19640309,매원초등학교,서울특별시 성북구 돈암동 45-88,서울특별시 성북구 북악산로 870,37.5974096,127.019984
2020,19910325,서울번동초등학교,서울특별시 강북구 번동 236,서울특별시 강북구 오현로 204,37.6290001,127.0400394
2020,19911002,서울오현초등학교,서울특별시 강북구 번동 248,서울특별시 강북구 월계로 221,37.623419,127.0465747
2020,19591110,서울삼양초등학교,서울특별시 강북구 미아동 791-1932,서울특별시 강북구 삼양로49길 17,37.6232938,127.0161486
2020,20020301,서울삼각산초등학교,서울특별시 강북구 미아동 1353-10,서울특별시 강북구 삼양로19길 141,37.6160824,127.0154539
2020,19661216,서울송천초등학교,서울특별시 강북구 미아동 438,서울특별시 강북구 삼양로20길 29,37.6149061,127.0237355
2020,19831118,서울송중초등학교,서울특별시 강북구 미아동 94-1,서울특별시 강북구 오현로 9,37.6170018,127.0314655
2020,19671021,서울화계초등학교,서울특별시 강북구 미아동 127-2,서울특별시 강북구 솔매로50가길 25,37.6238858,127.0297148
2020,19710722,서울미양초등학교,서울특별시 강북구 미아동 837-687,서울특별시 강북구 솔샘로 195,37.62153170000001,127.014132
2020,20010901,서울수송초등학교,서울특별시 강북구 번동 456,서울특별시 강북구 한천로124길 14,37.637324,127.0332052
2020,19670309,서울수유초등학교,서울특별시 강북구 수유동 55-5,서울특별시 강북구 삼양로74길 39,37.6312506,127.0202922
2020,19821025,서울인수초등학교,서울특별시 강북구 수유동 551-19,서울특별시 강북구 인수봉로 269,37.6430513,127.009137
2020,19491002,서울우이초등학교,서울특별시 강북구 수유동 409-6,서울특별시 강북구 삼양로99길 36,37.6387116,127.0150054
2020,19740605,서울유현초등학교,서울특별시 강북구 수유동 466-52,서울특별시 강북구 인수봉로37길 24,37.6323474,127.0114196
2020,19650925,영훈초등학교,서울특별시 강북구 미아동 471-2,서울특별시 강북구 도봉로13가길 19,37.61468170000001,127.0280938
2020,19750301,숭인중학교,서울특별시 동대문구 답십리동 463-1,서울특별시 동대문구 천호대로47길 34,37.5739196,127.0440889
2020,19671020,장평중학교,서울특별시 동대문구 장안동 352,서울특별시 동대문구 답십리로72길 158,37.566861,127.070477
2020,19740304,전일중학교,서울특별시 동대문구 전농동 60-1,서울특별시 동대문구 사가정로13길 67,37.5825016,127.0583778
2020,19680309,전농중학교,서울특별시 동대문구 전농동 58-1,서울특별시 동대문구 사가정로13길 71,37.5820435,127.05927859999998
2020,19630318,동대문중학교,서울특별시 동대문구 전농동 322-17,서울특별시 동대문구 사가정로 59,37.5745218,127.051996
2020,19691004,성일중학교,서울특별시 동대문구 제기동 271-41,서울특별시 동대문구 왕산로23길 55,37.58185170000001,127.0338291
2020,19510830,청량중학교,서울특별시 동대문구 청량리동 14,서울특별시 동대문구 왕산로 301,37.5882175,127.05062420000002
2020,19850305,전동중학교,서울특별시 동대문구 휘경동 49-295,서울특별시 동대문구 장안벚꽃로 291,37.5861924,127.070929992
2020,19691111,휘경중학교,서울특별시 동대문구 휘경동 286-66,서울특별시 동대문구 망우로18나길 20,37.5870914,127.0617463
2020,19600415,경희중학교,서울특별시 동대문구 이문동 1-3,서울특별시 동대문구 경희대로 26,37.5939495,127.0548902
2020,19470624,동국대학교사범대학부속중학교,서울특별시 동대문구 장안동 328,서울특별시 동대문구 장안벚꽃로 201,37.5780484,127.0751705
2020,19080901,정화여자중학교,서울특별시 동대문구 제기동 293,서울특별시 동대문구 홍릉로15길 50,37.5857064,127.0410078
2020,19700519,휘경여자중학교,서울특별시 동대문구 휘경동 43-7,서울특별시 동대문구 한천로 247,37.5839456,127.0674046
2020,19630105,경희여자중학교,서울특별시 동대문구 회기동 1-5,서울특별시 동대문구 경희대로 26,37.5939495,127.0548902
2020,19471025,대광중학교,서울특별시 동대문구 신설동 53-3,서울특별시 동대문구 안암로 6,37.5784086,127.0243533
2020,19860129,동원중학교,서울특별시 중랑구 망우동 85-3,서울특별시 중랑구 양원역로 32,37.6038073,127.1095004
2020,19850501,봉화중학교,서울특별시 중랑구 망우동 122-1,서울특별시 중랑구 망우로70길 89,37.5958263,127.1043161
2020,19700303,중화중학교,서울특별시 중랑구 면목동 83,서울특별시 중랑구 용마산로 364,37.58450360000001,127.0945591
2020,19810305,면목중학교,서울특별시 중랑구 면목동 490,서울특별시 중랑구 용마산로70길 37,37.5832156,127.0963055
2020,20000605,용마중학교,서울특별시 중랑구 면목동 378-2,서울특별시 중랑구 면목로28길 18,37.5745089,127.08626909999998
2020,19961022,원묵중학교,서울특별시 중랑구 묵동 12,서울특별시 중랑구 신내로23길 57,37.6177721,127.0843709
2020,19730303,태릉중학교,서울특별시 중랑구 묵동 121-278,서울특별시 중랑구 공릉로2길 60-25,37.6117581,127.0831998
2020,20010506,상봉중학교,서울특별시 중랑구 상봉동 282,서울특별시 중랑구 상봉중앙로8나길 28,37.6015286,127.0901234
2020,19960115,신현중학교,서울특별시 중랑구 상봉동 483,서울특별시 중랑구 봉화산로 162,37.6044135,127.0915312
2020,19730302,중랑중학교,서울특별시 중랑구 중화동 276-1,서울특별시 중랑구 동일로140길 33,37.605352,127.0807918
2020,19700302,장안중학교,서울특별시 중랑구 중화동 288-26,서울특별시 중랑구 동일로 780,37.6007748,127.0809952
2020,19700524,송곡여자중학교,서울특별시 중랑구 망우동 252-1,서울특별시 중랑구 양원역로 67,37.6066879,127.1051467
2020,19690303,영란여자중학교,서울특별시 중랑구 망우동 220,서울특별시 중랑구 망우로73길 56,37.6040433,127.1043412
2020,19700305,혜원여자중학교,서울특별시 중랑구 망우동 519,서울특별시 중랑구 봉우재로58길 39,37.5932809,127.0970432
2020,19830301,구산중학교,서울특별시 은평구 구산동 182-45,서울특별시 은평구 갈현로15길 20-23,37.6098715,126.9094905
2020,19860417,증산중학교,서울특별시 은평구 증산동 산24-4,서울특별시 은평구 증산로5길 27-30,37.5838149,126.90493909999998
2020,20100301,신도중학교,서울특별시 은평구 진관동 208,서울특별시 은평구 진관1로 77-30,37.6329837,126.930879
2020,20080901,진관중학교,서울특별시 은평구 진관동 16,서울특별시 은평구 진관4로 36,37.6442573,126.9257289
2020,19840301,은평중학교,서울특별시 은평구 구산동 182-44,서울특별시 은평구 갈현로17나길 12-1,37.6106187,126.908348
2020,19740920,불광중학교,서울특별시 은평구 불광동 173,서울특별시 은평구 불광로 180,37.6232033,126.93212959999998
2020,19820107,연신중학교,서울특별시 은평구 불광동 400-4,서울특별시 은평구 연서로33길 16-32,37.6235409,126.924286
2020,19840301,연천중학교,서울특별시 은평구 불광동 441-1,서울특별시 은평구 연서로41길 30,37.6275458,126.925818
2020,19850506,상신중학교,서울특별시 은평구 신사동 141,서울특별시 은평구 증산로15길 61,37.5897842,126.9064261
2020,19880419,덕산중학교,서울특별시 은평구 신사동 265-4,서울특별시 은평구 가좌로 400,37.6022561,126.90467549999998
2020,19711028,연서중학교,서울특별시 은평구 증산동 193-21,서울특별시 은평구 증산서길 125-6,37.5870445,126.90927820000002
2020,19690301,대성중학교,서울특별시 은평구 갈현동 267-17,서울특별시 은평구 갈현로29길 51-24,37.6231699693,126.9093902
2020,18971010,숭실중학교,서울특별시 은평구 신사동 300-88,서울특별시 은평구 은평터널로7길 6,37.5928732,126.9024048
2020,19680301,선일여자중학교,서울특별시 은평구 갈현동 240-1,서울특별시 은평구 갈현로29길 27,37.6197088,126.9127997
2020,19650926,예일여자중학교,서울특별시 은평구 구산동 8-3,서울특별시 은평구 연서로 117,37.6096421,126.9160079
2020,19500522,선정중학교,서울특별시 은평구 갈현동 227-5,서울특별시 은평구 서오릉로20길 19,37.6187044,126.9090313
2020,19520610,영락중학교,서울특별시 은평구 응암동 226-13,서울특별시 은평구 백련산로 134-6,37.59695870000001,126.9251334
2020,19660301,충암중학교,서울특별시 은평구 응암동 272-113,서울특별시 은평구 가좌로5길 5,37.5846417,126.9218074
2020,19720103,연희중학교,서울특별시 서대문구 남가좌동 368-1,서울특별시 서대문구 증가로 170,37.5795869,126.9187923
2020,19870420,신연중학교,서울특별시 서대문구 연희동 1-107,서울특별시 서대문구 모래내로 408,37.582717,126.9398378
2020,19850514,연북중학교,서울특별시 서대문구 연희동 141,서울특별시 서대문구 연희로36길 32,37.577581,126.9384789
2020,19850506,서연중학교,서울특별시 서대문구 연희동 267-1,서울특별시 서대문구 연희로11마길 9-6,37.5682255,126.9273348
2020,19840518,홍은중학교,서울특별시 서대문구 홍은동 183,서울특별시 서대문구 연희로41길 94,37.59189050000001,126.9357541
2020,20100301,인왕중학교,서울특별시 서대문구 홍제동 9-27,서울특별시 서대문구 세검정로4길 69,37.5927352,126.9517777
2020,19531010,인창중학교,서울특별시 서대문구 충정로2가 70,서울특별시 서대문구 경기대로 65,37.5648835,126.9640244
2020,19280925,한성중학교,서울특별시 서대문구 북아현동 170-1,서울특별시 서대문구 북아현로1길 24,37.5590958,126.9544568
2020,19210603,동명여자중학교,서울특별시 서대문구 천연동 31-1,서울특별시 서대문구 독립문로 49,37.5686167,126.9622523
2020,19401010,중앙여자중학교,서울특별시 서대문구 북아현동 190-1,서울특별시 서대문구 북아현로11가길 7,37.5631498,126.95320929999998
2020,19690302,정원여자중학교,서울특별시 서대문구 홍은동 산11-141,서울특별시 서대문구 연희로37안길 51,37.5853804,126.93334140000002
2020,19550408,이화여자대학교사범대학부속이화금란중학교,서울특별시 서대문구 대신동 47,서울특별시 서대문구 성산로 520,37.5631244,126.9443854
2020,19480412,명지중학교,서울특별시 서대문구 홍은동 323-9,서울특별시 서대문구 명지2길 56,37.58491179999999,126.9270922
2020,19550302,서울여자중학교,서울특별시 마포구 염리동 128-2,서울특별시 마포구 백범로25길 34,37.5477807,126.9490682
2020,19810527,성사중학교,서울특별시 마포구 성산동 124,서울특별시 마포구 모래내로9길 16,37.5680895,126.91268329999998
2020,20090301,창천중학교,서울특별시 마포구 노고산동 33-1,서울특별시 마포구 백범로1길 56,37.5549896,126.9392942
2020,19840419,성서중학교,서울특별시 마포구 성산동 588-9,서울특별시 마포구 성산로4길 42,37.562788,126.9079539
2020,19870301,신수중학교,서울특별시 마포구 신수동 371-1,서울특별시 마포구 신수로 49,37.5459244,126.9341324
2020,19800202,아현중학교,서울특별시 마포구 아현동 267-1,서울특별시 마포구 마포대로 247,37.5564008,126.9565001
2020,19850513,중암중학교,서울특별시 마포구 중동 63,서울특별시 마포구 월드컵북로38길 25,37.5724324,126.9035861
2020,19671027,성산중학교,서울특별시 마포구 합정동 365-1,서울특별시 마포구 성지1길 32-13,37.5473153,126.9165641
2020,20070605,상암중학교,서울특별시 마포구 상암동 1657,서울특별시 마포구 상암산로1길 26,37.5790567,126.8875517
2020,19060401,숭문중학교,서울특별시 마포구 대흥동 28-16,서울특별시 마포구 숭문길 99,37.5508895,126.9457706
2020,18940406,광성중학교,서울특별시 마포구 신수동 91-20,서울특별시 마포구 신수로8길 20,37.5486969,126.9359678
2020,19671023,경성중학교,서울특별시 마포구 연남동 369-1,서울특별시 마포구 성미산로 111,37.5635098,126.9191674
2020,19680312,홍익대학교사범대학부속여자중학교,서울특별시 마포구 성산동 산11-31,서울특별시 마포구 성미산로 51,37.5596457,126.9132093
2020,19550409,동도중학교,서울특별시 마포구 염리동 150,서울특별시 마포구 백범로 139,37.5467021,126.9469053
2020,19900119,구일중학교,서울특별시 구로구 구로동 685-161,서울특별시 구로구 구일로 90-133,37.4953003,126.8737683
2020,19840506,신도림중학교,서울특별시 구로구 신도림동 311-1,서울특별시 구로구 경인로63길 74,37.5107404,126.8848085
2020,19691110,경인중학교,서울특별시 구로구 개봉동 143-4,서울특별시 구로구 경인로 301,37.4984667,126.8536741
2020,19880202,오남중학교,서울특별시 구로구 오류동 산39-40,서울특별시 구로구 오리로9길 25,37.487060049899995,126.8372469
2020,19840504,개봉중학교,서울특별시 구로구 개봉동 24-2,서울특별시 구로구 고척로21나길 68,37.5035302,126.8423999828
2020,19870212,개웅중학교,서울특별시 구로구 개봉동 273-15,서울특별시 구로구 개봉로11길 81,37.4875252,126.8510722
2020,19850305,고척중학교,서울특별시 구로구 고척동 76-2,서울특별시 구로구 중앙로3길 20,37.4997409,126.8613436
2020,19760406,오류중학교,서울특별시 구로구 고척동 243,서울특별시 구로구 고척로27바길 19,37.5078637,126.8462092
2020,19780105,구로중학교,서울특별시 구로구 구로동 90,서울특별시 구로구 구로중앙로 48,37.4948598,126.8911022
2020,19791019,영림중학교,서울특별시 구로구 구로동 105-2,서울특별시 구로구 가마산로27길 17,37.4972201,126.8906916
2020,19800303,영서중학교,서울특별시 구로구 구로동 145-20,서울특별시 구로구 도림로20길 35,37.4891155,126.8956154
2020,19740523,우신중학교,서울특별시 구로구 궁동 230,서울특별시 구로구 부일로 917,37.4949013,126.8263515
2020,19930504,시흥중학교,서울특별시 금천구 시흥동 산24-15,서울특별시 금천구 시흥대로38길 60,37.4462966,126.9050817
2020,19900504,문성중학교,서울특별시 금천구 독산동 61,서울특별시 금천구 독산로102길 78,37.4754669,126.9084952
2020,19680806,세일중학교,서울특별시 금천구 독산동 147-2,서울특별시 금천구 시흥대로147길 34,37.4745946,126.8953687
2020,19710303,가산중학교,서울특별시 금천구 독산동 300-21,서울특별시 금천구 시흥대로115길 48,37.467818,126.8942659
2020,19800506,난곡중학교,서울특별시 금천구 독산동 906-41,서울특별시 금천구 문성로 67,37.4780455,126.9107939
2020,19910301,안천중학교,서울특별시 금천구 독산동 1089,서울특별시 금천구 한내로 69-44,37.4595225,126.8875004
2020,19671214,문일중학교,서울특별시 금천구 시흥동 559-1,서울특별시 금천구 시흥대로47길 45,37.4503313,126.8985127
2020,19690306,동일중학교,서울특별시 금천구 시흥동 산100-4,서울특별시 금천구 탑골로10길 45,37.4516719,126.9168874
2020,19500607,영원중학교,서울특별시 영등포구 영등포동 576-6,서울특별시 영등포구 영등포로62길 31,37.5149745,126.9136456
2020,19690303,당산중학교,서울특별시 영등포구 당산동 121,서울특별시 영등포구 버드나루로 160,37.5320313,126.90761609999998
2020,19821209,당산서중학교,서울특별시 영등포구 당산동5가 5,서울특별시 영등포구 당산로41길 12,37.5324854,126.8988269
2020,19860504,문래중학교,서울특별시 영등포구 문래동6가 44,서울특별시 영등포구 선유서로13길 6,37.5204165,126.8841421
2020,19850305,선유중학교,서울특별시 영등포구 양평동3가 82,서울특별시 영등포구 선유로 213,37.5332851,126.8943293
2020,19801002,영남중학교,서울특별시 영등포구 대림동 735,서울특별시 영등포구 대림로31나길 17,37.4978734,126.8958384
2020,19840419,대림중학교,서울특별시 영등포구 대림동 959,서울특별시 영등포구 시흥대로185길 6,37.4923185,126.907466
2020,19801227,양화중학교,서울특별시 영등포구 문래동3가 48,서울특별시 영등포구 당산로 56,37.5196599,126.8959936
2020,19880502,대영중학교,서울특별시 영등포구 신길동 342-49,서울특별시 영등포구 도림로80가길 14,37.5034387,126.9052085
2020,19810902,윤중중학교,서울특별시 영등포구 여의도동 38-2,서울특별시 영등포구 여의동로3길 3,37.5189785,126.9241249
2020,19730603,여의도중학교,서울특별시 영등포구 여의도동 40-1,서울특별시 영등포구 국제금융로7길 46,37.5239806,126.93575359999998
2020,19851208,북서울중학교,서울특별시 도봉구 도봉동 585,서울특별시 도봉구 도봉로169가길 33,37.681541,127.0428337
2020,19711025,도봉중학교,서울특별시 도봉구 도봉동 622-40,서울특별시 도봉구 마들로 671,37.6708831,127.0458698
2020,19940504,신방학중학교,서울특별시 도봉구 방학동 307-1,서울특별시 도봉구 시루봉로 156,37.664142,127.0289012
2020,19820301,방학중학교,서울특별시 도봉구 방학동 313,서울특별시 도봉구 시루봉로 188,37.6654696,127.0308603
2020,19830301,창동중학교,서울특별시 도봉구 방학동 722-27,서울특별시 도봉구 방학로 32,37.6632307,127.0489978
2020,19920506,백운중학교,서울특별시 도봉구 쌍문동 68-2,서울특별시 도봉구 도봉로129길 50,37.656406,127.0359041
2020,19681001,신도봉중학교,서울특별시 도봉구 쌍문동 94-1,서울특별시 도봉구 도봉로115길 16,37.6495954,127.0332017
2020,20060301,효문중학교,서울특별시 도봉구 쌍문동 468,서울특별시 도봉구 우이천로 432,37.652698,127.0183774
2020,19890301,노곡중학교,서울특별시 도봉구 창동 32,서울특별시 도봉구 노해로70길 95,37.6488021,127.053743
2020,19910301,창일중학교,서울특별시 도봉구 창동 369,서울특별시 도봉구 노해로66길 60,37.6489889,127.0469125
2020,19870507,창북중학교,서울특별시 도봉구 창동 683-15,서울특별시 도봉구 노해로62길 33,37.6491143,127.0388354
2020,19710130,정의여자중학교,서울특별시 도봉구 쌍문동 150-1,서울특별시 도봉구 노해로49길 69,37.6533545,127.0324282
2020,19790915,선덕중학교,서울특별시 도봉구 쌍문동 263,서울특별시 도봉구 시루봉로 53,37.65634710000001,127.0268765
2020,19930607,상원중학교,서울특별시 노원구 상계동 632,서울특별시 노원구 수락산로 182,37.67176720000001,127.0595044
2020,19890427,상경중학교,서울특별시 노원구 상계동 653,서울특별시 노원구 동일로227길 61,37.6671498,127.0537063
2020,19830304,하계중학교,서울특별시 노원구 하계동 231-4,서울특별시 노원구 노원로 261-8,37.6413681,127.072333
2020,19930301,불암중학교,서울특별시 노원구 하계동 288-3,서울특별시 노원구 한글비석로5길 45,37.6457354,127.0734567
2020,19850304,공릉중학교,서울특별시 노원구 공릉동 250,서울특별시 노원구 노원로1길 42,37.6222273,127.0836011
2020,20020507,태랑중학교,서울특별시 노원구 공릉동 117,서울특별시 노원구 화랑로51나길 51,37.6269824,127.091373
2020,19911030,한천중학교,서울특별시 노원구 공릉동 481,서울특별시 노원구 공릉로 265,37.631313,127.0724683
2020,19860501,상계중학교,서울특별시 노원구 상계동 195-5,서울특별시 노원구 노원로 398,37.6526000062,127.0689216
2020,19910305,온곡중학교,서울특별시 노원구 상계동 687,서울특별시 노원구 노원로 492,37.6605817,127.0643322
2020,19890306,노원중학교,서울특별시 노원구 상계동 743,서울특별시 노원구 동일로213길 26,37.6493615,127.0596902
2020,19950504,노일중학교,서울특별시 노원구 상계동 1044,서울특별시 노원구 동일로231길 24,37.6722889,127.0538233
2020,20020504,수락중학교,서울특별시 노원구 상계동 1254,서울특별시 노원구 동일로 1729,37.6831434,127.0548107
2020,19950506,녹천중학교,서울특별시 노원구 월계동 321-7,서울특별시 노원구 월계로 376,37.6310849,127.0617374
2020,19800409,월계중학교,서울특별시 노원구 월계동 602-1,서울특별시 노원구 월계로45가길 54,37.6311327,127.0523209
2020,19840506,신창중학교,서울특별시 노원구 월계동 805-5,서울특별시 노원구 월계로45길 92,37.6285579,127.0474796
2020,19710116,상계제일중학교,서울특별시 노원구 중계동 132,서울특별시 노원구 덕릉로86길 29-15,37.6610743,127.0780777
2020,19940205,중계중학교,서울특별시 노원구 중계동 358-3,서울특별시 노원구 덕릉로76길 23,37.6556379,127.07524340000002
2020,20040301,을지중학교,서울특별시 노원구 중계동 360-19,서울특별시 노원구 덕릉로 580,37.6497873,127.07170659999998
2020,19910506,중원중학교,서울특별시 노원구 중계동 511-3,서울특별시 노원구 공릉로 420,37.6442394,127.0680301
2020,19900506,중평중학교,서울특별시 노원구 하계동 271-2,서울특별시 노원구 동일로203길 87,37.636977,127.0623933
2020,19880301,신상중학교,서울특별시 노원구 상계동 754-4,서울특별시 노원구 동일로216길 42,37.6519036,127.0639893
2020,19650301,광운중학교,서울특별시 노원구 월계동 500,서울특별시 노원구 광운로1길 24,37.61924129999999,127.0565444
2020,19661002,염광중학교,서울특별시 노원구 월계동 820,서울특별시 노원구 월계로45가길 9,37.6302165,127.0492435
2020,19371201,상명중학교,서울특별시 노원구 중계동 515,서울특별시 노원구 덕릉로 553,37.649548,127.068044
2020,19550427,청원중학교,서울특별시 노원구 상계동 641,서울특별시 노원구 한글비석로 506,37.6652533,127.0625319
2020,19710303,재현중학교,서울특별시 노원구 중계동 129-2,서울특별시 노원구 덕릉로82길 64,37.6612645,127.080798
2020,19460901,서울대학교사범대학부설여자중학교,서울특별시 종로구 동숭동 199-51,서울특별시 종로구 대학로 64,37.577600200000006,127.0042973
2020,19520201,청운중학교,서울특별시 종로구 청운동 89-142,서울특별시 종로구 창의문로 51,37.5891699,126.9710959
2020,19380405,대신중학교,서울특별시 종로구 행촌동 171-1,서울특별시 종로구 사직로 9,37.5731095,126.96125390000002
2020,19381208,동성중학교,서울특별시 종로구 혜화동 90-7,서울특별시 종로구 대학로 156,37.5849703,127.0030976
2020,18850509,경신중학교,서울특별시 종로구 혜화동 5-119,서울특별시 종로구 혜화로 74,37.5922035,126.999529
2020,19461001,덕성여자중학교,서울특별시 종로구 송현동 34,서울특별시 종로구 율곡로3길 49,37.57778629999999,126.9819235
2020,18981002,배화여자중학교,서울특별시 종로구 누상동 150,서울특별시 종로구 필운대로1길 34,37.5784966,126.9668889
2020,19661101,상명대학교사범대학부속여자중학교,서울특별시 종로구 홍지동 7-1,서울특별시 종로구 홍지문2길 20,37.6041097,126.9551587
2020,19080620,중앙중학교,서울특별시 종로구 계동 1-23,서울특별시 종로구 창덕궁길 164,37.5837876,126.9874738
2020,19451130,창덕여자중학교,서울특별시 중구 정동 27-3,서울특별시 중구 정동길 22,37.5664311,126.9692123
2020,19680806,금호여자중학교,서울특별시 중구 신당동 36-235,서울특별시 중구 청구로 6,37.5580396,127.0204625
2020,19100413,덕수중학교,서울특별시 중구 인현동2가 3,서울특별시 중구 마른내로9길 10,37.5655809,126.9969982
2020,19681002,장원중학교,서울특별시 중구 신당동 432-35,서울특별시 중구 동호로15길 93-34,37.5539651,127.0060433
2020,19480701,한양중학교,서울특별시 중구 신당동 224-2,서울특별시 중구 을지로 299,37.5658723,127.0114457
2020,19560416,대경중학교,서울특별시 중구 신당동 333-579,서울특별시 중구 매봉18길 111,37.5566958,127.0175331
2020,19330414,장충중학교,서울특별시 중구 신당동 432-460,서울특별시 중구 동호로15길 93,37.5535146,127.0064145
2020,19450909,용산중학교,서울특별시 용산구 용산동2가 1-1623,서울특별시 용산구 두텁바위로 74,37.5460028,126.9809763
2020,19510901,선린중학교,서울특별시 용산구 청파동3가 131-2,서울특별시 용산구 원효로97길 33-4,37.5429756,126.9664882
2020,19730303,한강중학교,서울특별시 용산구 서빙고동 4-1,서울특별시 용산구 녹사평대로 73,37.5236122,126.9927917
2020,19681017,용강중학교,서울특별시 용산구 이촌동 301-78,서울특별시 용산구 이촌로65가길 91,37.5215772,126.9754842
2020,19070515,오산중학교,서울특별시 용산구 보광동 168-4,서울특별시 용산구 보광로7길 17,37.5237818,127.0008688
2020,19550307,배문중학교,서울특별시 용산구 서계동 259-3,서울특별시 용산구 효창원로 258,37.5499197,126.96390490000002
2020,19460807,신광여자중학교,서울특별시 용산구 청파동3가 100,서울특별시 용산구 청파로 263,37.542946,126.9694483
2020,19071010,보성여자중학교,서울특별시 용산구 용산동2가 1-1123,서울특별시 용산구 신흥로3가길 66,37.54308020000001,126.9842851
2020,19570525,성심여자중학교,서울특별시 용산구 원효로4가 1-1,서울특별시 용산구 원효로19길 49,37.53421029999999,126.9545942
2020,19910301,방산중학교,서울특별시 송파구 방이동 220,서울특별시 송파구 오금로29길 31,37.5093713,127.1218761
2020,19710320,서울체육중학교,서울특별시 송파구 방이동 88-14,서울특별시 송파구 강동대로 232,37.52233010000001,127.1298248
2020,19890418,오륜중학교,서울특별시 송파구 방이동 89-7,서울특별시 송파구 양재대로 1242,37.5163227,127.1389224
2020,19881224,가원중학교,서울특별시 송파구 가락동 106-3,서울특별시 송파구 중대로10길 40-18,37.4910003,127.1231715
2020,19900120,문정중학교,서울특별시 송파구 문정동 12-1,서울특별시 송파구 문정로 73,37.488481,127.1300195
2020,19751114,신천중학교,서울특별시 송파구 잠실동 19-4,서울특별시 송파구 백제고분로 11,37.5162516,127.07928400000002
2020,19840425,잠신중학교,서울특별시 송파구 잠실동 22-1,서울특별시 송파구 잠실로 12,37.5161411,127.087802
2020,19800506,잠실중학교,서울특별시 송파구 신천동 7-1,서울특별시 송파구 올림픽로35길 130,37.51781920000001,127.0986647
2020,19820107,석촌중학교,서울특별시 송파구 가락동 43,서울특별시 송파구 송이로15길 13,37.5014541,127.1211168
2020,19781010,송파중학교,서울특별시 송파구 가락동 139,서울특별시 송파구 동남로 203,37.4959234,127.1299138
2020,19980301,거원중학교,서울특별시 송파구 거여동 296,서울특별시 송파구 양산로2길 30,37.48772279999999,127.1465492
2020,19850412,방이중학교,서울특별시 송파구 방이동 53,서울특별시 송파구 오금로11길 64,37.5150094,127.1132435
2020,19860506,가락중학교,서울특별시 송파구 송파동 168,서울특별시 송파구 송이로 45,37.5024872,127.1187525
2020,19920301,세륜중학교,서울특별시 송파구 오금동 7-3,서울특별시 송파구 양재대로72길 41,37.5089324,127.1312448
2020,19870301,오금중학교,서울특별시 송파구 오금동 34,서울특별시 송파구 오금로35길 20,37.5052698,127.1288000083
2020,19840901,오주중학교,서울특별시 송파구 오금동 59,서울특별시 송파구 동남로 281,37.5015061,127.1362666
2020,19830411,풍납중학교,서울특별시 송파구 풍납동 390,서울특별시 송파구 올림픽로43길 20,37.5253654,127.1156302
2020,19910430,풍성중학교,서울특별시 송파구 풍납동 388-16,서울특별시 송파구 강동대로2길 27,37.5254398,127.1128836
2020,19870301,아주중학교,서울특별시 송파구 잠실동 115,서울특별시 송파구 올림픽로4길 69,37.5052288,127.0765489
2020,20090301,문현중학교,서울특별시 송파구 장지동 838-3,서울특별시 송파구 충민로 99,37.48058320000001,127.1279481
2020,19060905,보성중학교,서울특별시 송파구 방이동 89-22,서울특별시 송파구 양재대로 1278,37.520089,127.1357303
2020,19341007,배명중학교,서울특별시 송파구 삼전동 172-1,서울특별시 송파구 삼학사로 11,37.4976895,127.0958111
2020,19080608,보인중학교,서울특별시 송파구 오금동 162,서울특별시 송파구 오금로49길 18,37.4975703,127.1395164
2020,19671028,영파여자중학교,서울특별시 송파구 풍납동 501,서울특별시 송파구 올림픽로 565,37.5327347,127.1197418
2020,19740301,일신여자중학교,서울특별시 송파구 송파동 99-2,서울특별시 송파구 송파대로38길 8,37.5019724,127.11452659999998
2020,18871020,정신여자중학교,서울특별시 송파구 잠실동 50-4,서울특별시 송파구 올림픽로4길 16,37.5094544,127.07384779999998
2020,20120301,강명중학교,서울특별시 강동구 강일동 737,서울특별시 강동구 상일로12길 56,37.5555945,127.17489840000002
2020,19940506,천일중학교,서울특별시 강동구 천호동 313-5,서울특별시 강동구 천중로 57,37.5459099,127.1276387
2020,19860129,둔촌중학교,서울특별시 강동구 둔촌동 19-1,서울특별시 강동구 진황도로61길 25-30,37.5308343,127.1463303
2020,20100301,강동중학교,서울특별시 강동구 강일동 347-3,서울특별시 강동구 풍산로 237,37.5696493,127.1778381
2020,19850304,고덕중학교,서울특별시 강동구 고덕동 223,서울특별시 강동구 동남로82길 94,37.5603671,127.1616448
2020,19840514,명일중학교,서울특별시 강동구 고덕동 489,서울특별시 강동구 양재대로156길 57,37.5575964,127.1472925
2020,19931009,신명중학교,서울특별시 강동구 길동 42,서울특별시 강동구 명일로24길 25,37.5418264,127.1492982
2020,19900301,한산중학교,서울특별시 강동구 둔촌동 161-1,서울특별시 강동구 풍성로 251,37.5289026,127.1403033
2020,19850406,성내중학교,서울특별시 강동구 성내동 530,서울특별시 강동구 성안로7길 36,37.5290632,127.129117
2020,19810504,신암중학교,서울특별시 강동구 암사동 444,서울특별시 강동구 고덕로 65,37.556369200000006,127.1336141
2020,19830415,강일중학교,서울특별시 강동구 암사동 414-17,서울특별시 강동구 고덕로27길 12,37.5553511,127.1382586
2020,19691107,천호중학교,서울특별시 강동구 천호동 38-1,서울특별시 강동구 상암로 153,37.54651970000001,127.1396981
2020,19500516,동신중학교,서울특별시 강동구 천호동 447-9,서울특별시 강동구 진황도로 72,37.5367699,127.1343666
2020,18850608,배재중학교,서울특별시 강동구 고덕동 313,서울특별시 강동구 고덕로 227,37.555059,127.15024809999998
2020,19530604,동북중학교,서울특별시 강동구 둔촌동 180-2,서울특별시 강동구 강동대로 305,37.5197185,127.1412227
2020,19790305,상일여자중학교,서울특별시 강동구 상일동 189,서울특별시 강동구 천호대로219길 61,37.5479537,127.1702183
2020,19770905,성덕여자중학교,서울특별시 강동구 천호동 23-3,서울특별시 강동구 구천면로 396,37.5499625,127.1419044
2020,19330418,한영중학교,서울특별시 강동구 상일동 166,서울특별시 강동구 동남로 832,37.54914229999999,127.157773
2020,20090506,목운중학교,서울특별시 양천구 목동 922,서울특별시 양천구 목동동로 235,37.5270112,126.87304509999998
2020,19840305,양동중학교,서울특별시 양천구 목동 600-6,서울특별시 양천구 목동중앙북로 49,37.5483674,126.8687178
2020,19860512,신목중학교,서울특별시 양천구 목동 902-1,서울특별시 양천구 목동중앙로 88,37.5370232,126.87307340000002
2020,19830304,신서중학교,서울특별시 양천구 신정동 310-6,서울특별시 양천구 중앙로 206,37.5159658,126.8550154
2020,19861217,목일중학교,서울특별시 양천구 신정동 330-2,서울특별시 양천구 목동동로8길 70,37.51354050000001,126.87403159999998
2020,19840506,신남중학교,서울특별시 양천구 신월동 610-3,서울특별시 양천구 중앙로29길 109,37.5207753,126.8478926
2020,19700303,신화중학교,서울특별시 양천구 신월동 17-7,서울특별시 양천구 남부순환로29길 35,37.5408216,126.82989750000002
2020,19810302,신월중학교,서울특별시 양천구 신월동 17-6,서울특별시 양천구 남부순환로29길 25,37.5404626,126.8283912
2020,19860502,신원중학교,서울특별시 양천구 신월동 43-4,서울특별시 양천구 가로공원로55길 19,37.5370912,126.8248416
2020,19900425,양서중학교,서울특별시 양천구 신월동 169-4,서울특별시 양천구 남부순환로 380,37.5326286,126.8291332
2020,19870507,양강중학교,서울특별시 양천구 신월동 499-2,서울특별시 양천구 중앙로 319,37.5249114,126.849688
2020,19900504,양천중학교,서울특별시 양천구 신월동 948,서울특별시 양천구 지양로7길 32,37.5190003,126.8305489
2020,19881224,강신중학교,서울특별시 양천구 신월동 1010,서울특별시 양천구 남부순환로 604,37.51513660000001,126.8381588
2020,19810520,목동중학교,서울특별시 양천구 신정동 88-1,서울특별시 양천구 목동동로 172,37.5209584,126.8714631
2020,19810502,금옥중학교,서울특별시 양천구 신정동 729,서울특별시 양천구 신정로 213,37.5109638,126.8439724
2020,19910305,월촌중학교,서울특별시 양천구 목동 909,서울특별시 양천구 목동서로 31,37.5370656,126.8827586
2020,19520831,영도중학교,서울특별시 양천구 목동 735,서울특별시 양천구 목동중앙남로 27,37.5363159,126.86576999370001
2020,19050512,양정중학교,서울특별시 양천구 목동 911-2,서울특별시 양천구 안양천로 1039,37.5333429,126.8866926
2020,19511008,봉영여자중학교,서울특별시 양천구 신정동 325-8,서울특별시 양천구 목동동로2길 68,37.5092145,126.8601996
2020,19950506,등명중학교,서울특별시 강서구 등촌동 690-4,서울특별시 강서구 공항대로39길 39,37.5601935,126.8433039
2020,19950110,성재중학교,서울특별시 강서구 가양동 1463,서울특별시 강서구 허준로 36,37.5694512,126.8452948
2020,19940105,삼정중학교,서울특별시 강서구 방화동 856,서울특별시 강서구 금낭화로 210,37.5814883,126.8105997
2020,20080301,수명중학교,서울특별시 강서구 내발산동 757,서울특별시 강서구 수명로2길 16,37.5485652,126.8240588
2020,19930404,경서중학교,서울특별시 강서구 가양동 1483,서울특별시 강서구 양천로59길 31,37.56124260000001,126.8577618
2020,19550428,공항중학교,서울특별시 강서구 공항동 12-3,서울특별시 강서구 방화대로 241,37.562178,126.8149676
2020,19910301,송정중학교,서울특별시 강서구 공항동 768-1,서울특별시 강서구 남부순환로 121,37.5531576,126.8152434
2020,19830301,백석중학교,서울특별시 강서구 등촌동 520-5,서울특별시 강서구 등촌로51나길 35,37.5482913,126.8589542
2020,19860425,방화중학교,서울특별시 강서구 방화동 636-1,서울특별시 강서구 개화동로27길 9,37.564335,126.8071071
2020,19940512,방원중학교,서울특별시 강서구 방화동 808,서울특별시 강서구 금낭화로 268,37.5759747,126.80861670000002
2020,19840116,염창중학교,서울특별시 강서구 염창동 85,서울특별시 강서구 양천로67가길 83,37.5542633,126.8717495
2020,20060523,염경중학교,서울특별시 강서구 염창동 79-8,서울특별시 강서구 양천로69길 35,37.5545394,126.8705313
2020,19960302,화원중학교,서울특별시 강서구 화곡동 351-94,서울특별시 강서구 강서로17나길 86,37.53621500000001,126.8424164
2020,19950504,등원중학교,서울특별시 강서구 등촌동 707-4,서울특별시 강서구 화곡로65길 50,37.5597178,126.85168020000002
2020,19500601,마포중학교,서울특별시 강서구 등촌동 82-1,서울특별시 강서구 화곡로 403,37.5599899,126.8531328
2020,19740105,화곡중학교,서울특별시 강서구 내발산동 715,서울특별시 강서구 강서로45길 70,37.5491579,126.8326534
2020,19771015,명덕여자중학교,서울특별시 강서구 내발산동 169-1,서울특별시 강서구 강서로47길 34-10,37.5532299,126.83481709999998
2020,19781205,신정여자중학교,서울특별시 강서구 화곡동 477-1,서울특별시 강서구 등촌로13아길 20,37.53811560000001,126.8564162
2020,19790306,덕원중학교,서울특별시 강서구 내발산동 산58,서울특별시 강서구 강서로45길 91-44,37.5486229,126.8290243
2020,19810130,등촌중학교,서울특별시 강서구 등촌동 산36-4,서울특별시 강서구 공항대로 484-12,37.552483,126.8592134
2020,19750304,반포중학교,서울특별시 서초구 반포동 936,서울특별시 서초구 신반포로 67,37.5030439,126.99160390000002
2020,19820921,이수중학교,서울특별시 서초구 방배동 974-22,서울특별시 서초구 방배중앙로3길 32,37.4806304,126.9898607
2020,19810301,경원중학교,서울특별시 서초구 잠원동 66-1,서울특별시 서초구 신반포로33길 39,37.5115819,127.0090169
2020,19830301,원촌중학교,서울특별시 서초구 반포동 22,서울특별시 서초구 사평대로45길 10,37.5063266,127.0146984
2020,19840109,신반포중학교,서울특별시 서초구 반포동 3-1,서울특별시 서초구 신반포로19길 26,37.5062662,126.9961146
2020,19810430,방배중학교,서울특별시 서초구 반포동 586-1,서울특별시 서초구 동광로 144,37.4948667,126.9978288
2020,19870430,서일중학교,서울특별시 서초구 서초동 1313,서울특별시 서초구 서운로21길 2,37.49852979999999,127.0232191
2020,19820301,서운중학교,서울특별시 서초구 서초동 1325-1,서울특별시 서초구 서운로 115,37.4939488,127.0245385
2020,19790830,서초중학교,서울특별시 서초구 서초동 1741-13,서울특별시 서초구 반포대로13길 48,37.48553920000001,127.0085208
2020,19890303,언남중학교,서울특별시 서초구 양재동 310,서울특별시 서초구 동산로 55,37.472401700000006,127.0442813
2020,19900522,신동중학교,서울특별시 서초구 잠원동 54-6,서울특별시 서초구 나루터로 27,37.5169154,127.01291770000002
2020,19780301,세화여자중학교,서울특별시 서초구 반포동 13,서울특별시 서초구 신반포로 56-7,37.5019828,126.9942278
2020,19100428,동덕여자중학교,서울특별시 서초구 방배동 산81-5,서울특별시 서초구 효령로2길 123-5,37.4758768,126.99199579999998
2020,19781229,서문여자중학교,서울특별시 서초구 방배동 1514,서울특별시 서초구 동광로12길 84,37.4889191,126.9845622
2020,19820716,언북중학교,서울특별시 강남구 논현동 69,서울특별시 강남구 도산대로38길 27,37.5194271,127.0331257
2020,19840418,신사중학교,서울특별시 강남구 압구정동 410,서울특별시 강남구 압구정로 123,37.5246989,127.0211909
2020,19940506,대왕중학교,서울특별시 강남구 수서동 750,서울특별시 강남구 광평로20길 7,37.4834601,127.0873402
2020,19870506,대청중학교,서울특별시 강남구 대치동 502,서울특별시 강남구 양재천로 321,37.49043020000001,127.0583513
2020,19890418,구룡중학교,서울특별시 강남구 개포동 650,서울특별시 강남구 선릉로 103,37.4861533,127.05612279999998
2020,19900301,대명중학교,서울특별시 강남구 대치동 952,서울특별시 강남구 역삼로87길 26,37.506337,127.0609831
2020,19860129,대치중학교,서울특별시 강남구 도곡동 460,서울특별시 강남구 남부순환로378길 39,37.4845787,127.0470673
2020,19910423,도곡중학교,서울특별시 강남구 도곡동 541-2,서울특별시 강남구 언주로57길 31,37.4923064,127.0452176
2020,19800501,언주중학교,서울특별시 강남구 삼성동 28,서울특별시 강남구 선릉로116길 57,37.5146544,127.0466835
2020,19860301,봉은중학교,서울특별시 강남구 삼성동 82-7,서울특별시 강남구 영동대로128길 59,37.5189756,127.0623915
2020,19930430,수서중학교,서울특별시 강남구 수서동 710,서울특별시 강남구 광평로59길 57,37.4912039,127.1023793
2020,19880425,신구중학교,서울특별시 강남구 신사동 621,서울특별시 강남구 압구정로36길 17,37.5274428,127.0316722
2020,19830301,압구정중학교,서울특별시 강남구 압구정동 471,서울특별시 강남구 압구정로 225,37.5302428,127.0330038
2020,19850305,역삼중학교,서울특별시 강남구 역삼동 767-20,서울특별시 강남구 도곡로43길 10,37.4959342,127.0488444
2020,19840427,청담중학교,서울특별시 강남구 청담동 143,서울특별시 강남구 압구정로61길 36,37.52866029999999,127.0448097
2020,19850301,개원중학교,서울특별시 강남구 개포동 184,서울특별시 강남구 영동대로 101,37.4916412,127.0714149
2020,19060501,휘문중학교,서울특별시 강남구 대치동 952-1,서울특별시 강남구 역삼로 541,37.5052877,127.0619841
2020,19410525,단국대학교사범대학부속중학교,서울특별시 강남구 대치동 1013-2,서울특별시 강남구 도곡로64길 21,37.4955055,127.0567133
2020,19060510,중동중학교,서울특별시 강남구 일원동 692,서울특별시 강남구 일원로8길 37,37.48851550000001,127.0786124
2020,19060522,숙명여자중학교,서울특별시 강남구 도곡동 91,서울특별시 강남구 남부순환로 2807,37.4914745,127.0526124
2020,19760520,진선여자중학교,서울특별시 강남구 역삼동 713,서울특별시 강남구 선릉로85길 27,37.502323,127.0482862
2020,19550215,은성중학교,서울특별시 강남구 도곡동 938-10,서울특별시 강남구 남부순환로359길 36,37.4883779,127.0352333
2020,19590403,강남중학교,서울특별시 동작구 대방동 390-6,서울특별시 동작구 대방동15길 29,37.5027635,126.923345
2020,19681002,상현중학교,서울특별시 동작구 상도동 111-52,서울특별시 동작구 사당로2길 2-19,37.4939896,126.960345
2020,19860423,국사봉중학교,서울특별시 동작구 상도동 214-437,서울특별시 동작구 양녕로20길 20,37.4935308,126.9440571
2020,19841208,동작중학교,서울특별시 동작구 동작동 59-1,서울특별시 동작구 동작대로39가길 83,37.49546289999999,126.9778041
2020,19681023,상도중학교,서울특별시 동작구 사당동 181-20,서울특별시 동작구 사당로2가길 72,37.4909213,126.9614773
2020,19060407,영등포중학교,서울특별시 동작구 대방동 13-2,서울특별시 동작구 등용로8길 5,37.5090558,126.9347349
2020,19840305,사당중학교,서울특별시 동작구 사당동 209-16,서울특별시 동작구 사당로9가길 58,37.4877626,126.9685391
2020,19830429,남성중학교,서울특별시 동작구 사당동 304-45,서울특별시 동작구 남부순환로269길 166,37.4790094,126.972489
2020,19850424,장승중학교,서울특별시 동작구 상도동 175-1,서울특별시 동작구 장승배기로10가길 25,37.5031484,126.9408336
2020,19680501,강현중학교,서울특별시 동작구 상도동 335-5,서울특별시 동작구 상도로13라길 22,37.5031141,126.9307546
2020,19810508,문창중학교,서울특별시 동작구 신대방동 364-58,서울특별시 동작구 여의대방로22나길 40,37.4958029,126.9224067
2020,19720901,대방중학교,서울특별시 동작구 신대방동 492-200,서울특별시 동작구 여의대방로10길 24,37.4955925,126.91433290000002
2020,19510303,동양중학교,서울특별시 동작구 흑석동 198-90,서울특별시 동작구 흑석로9길 94,37.51022310000001,126.957477
2020,19380425,성남중학교,서울특별시 동작구 대방동 375-1,서울특별시 동작구 대방동길 74,37.50528120000001,126.9266132
2020,19031031,숭의여자중학교,서울특별시 동작구 대방동 20-114,서울특별시 동작구 여의대방로36길 79,37.5073623,126.9292442
2020,19340415,중앙대학교사범대학부속중학교,서울특별시 동작구 흑석동 86,서울특별시 동작구 서달로 124,37.50362910000001,126.9617331
2020,19890421,봉림중학교,서울특별시 관악구 봉천동 1531-38,서울특별시 관악구 장군봉길 72,37.4811983,126.93770320000002
2020,19830509,당곡중학교,서울특별시 관악구 봉천동 682,서울특별시 관악구 봉천로13길 101,37.49235720000001,126.9326778
2020,20040302,구암중학교,서울특별시 관악구 봉천동 1712-5,서울특별시 관악구 성현로 53,37.4927753,126.9486035
2020,19691111,봉원중학교,서울특별시 관악구 봉천동 25-19,서울특별시 관악구 관악로24가길 15,37.4839175,126.958231
2020,19820301,관악중학교,서울특별시 관악구 봉천동 100-569,서울특별시 관악구 남부순환로237길 60,37.481259,126.9619119
2020,19710116,인헌중학교,서울특별시 관악구 봉천동 1647,서울특별시 관악구 인헌9길 35,37.47269779999999,126.9688393
2020,19840301,신관중학교,서울특별시 관악구 신림동 산168-10,서울특별시 관악구 신림로48길 17-16,37.4802018,126.9344525
2020,19720513,신림중학교,서울특별시 관악구 신림동 133,서울특별시 관악구 신림로 40,37.470329,126.94600520000002
2020,19710301,삼성중학교,서울특별시 관악구 신림동 220-1,서울특별시 관악구 신림로3가길 39-24,37.4676063,126.942512
2020,19840423,난우중학교,서울특별시 관악구 신림동 652-156,서울특별시 관악구 난곡로16길 32,37.4668058,126.9228301
2020,19840517,미성중학교,서울특별시 관악구 신림동 745-24,서울특별시 관악구 문성로16길 40,37.4757658,126.913026
2020,19641112,남서울중학교,서울특별시 관악구 신림동 1690-3,서울특별시 관악구 남부순환로172길 97,37.4821362,126.921037
2020,19710116,남강중학교,서울특별시 관악구 신림동 627-1,서울특별시 관악구 난곡로34길 80,37.4713732,126.9246992
2020,19260401,서울문영여자중학교,서울특별시 관악구 봉천동 1695,서울특별시 관악구 관악로 85,37.4729044,126.9509187
2020,19511010,광신중학교,서울특별시 관악구 신림동 산87-6,서울특별시 관악구 광신길 141,37.4644759,126.9259388
2020,19820531,성보중학교,서울특별시 관악구 신림동 1690,서울특별시 관악구 남부순환로156길 39,37.4807269,126.9209571
2020,19681001,무학중학교,서울특별시 성동구 행당동 322-1,서울특별시 성동구 행당로 120,37.5576839,127.0319747
2020,19370521,광희중학교,서울특별시 성동구 응봉동 193,서울특별시 성동구 독서당로62길 46,37.5511529,127.0339817
2020,19671027,성수중학교,서울특별시 성동구 성수동1가 685-143,서울특별시 성동구 서울숲길 18,37.5473422,127.038253
2020,19810504,경수중학교,서울특별시 성동구 성수동2가 268,서울특별시 성동구 뚝섬로13길 14,37.5395092,127.0592721
2020,19850426,동마중학교,서울특별시 성동구 마장동 405-45,서울특별시 성동구 마조로11길 18,37.5628026,127.0403525
2020,20050301,마장중학교,서울특별시 성동구 마장동 766-49,서울특별시 성동구 마장로35나길 31,37.5683089,127.0421258
2020,20040302,경일중학교,서울특별시 성동구 성수동1가 22-27,서울특별시 성동구 성수일로 27,37.5438284,127.0478694
2020,19681002,성원중학교,서울특별시 성동구 성수동2가 333-17,서울특별시 성동구 성덕정9가길 13,37.5394516,127.05138329999998
2020,19840301,옥정중학교,서울특별시 성동구 옥수동 227,서울특별시 성동구 한림말길 11,37.5416714,127.0129854
2020,19681002,행당중학교,서울특별시 성동구 행당동 66-3,서울특별시 성동구 왕십리로 189,37.5545525,127.0419642
2020,19600118,한양대학교사범대학부속중학교,서울특별시 성동구 사근동 223,서울특별시 성동구 마조로 42,37.5619189,127.042326
2020,19840301,자양중학교,서울특별시 광진구 자양동 524-10,서울특별시 광진구 뚝섬로41길 33,37.5353993,127.0743848
2020,19830406,광장중학교,서울특별시 광진구 광장동 394-5,서울특별시 광진구 광장로1길 1,37.5471782,127.1019262
2020,20060301,양진중학교,서울특별시 광진구 광장동 414-1,서울특별시 광진구 워커힐로 32,37.5445756,127.0983485
2020,19930504,광남중학교,서울특별시 광진구 광장동 554-15,서울특별시 광진구 아차산로70길 17-62,37.5408318,127.1016205
2020,19840509,신양중학교,서울특별시 광진구 자양동 57-8,서울특별시 광진구 자양강변길 73,37.5336506,127.0634311
2020,19860418,광양중학교,서울특별시 광진구 자양동 674,서울특별시 광진구 자양로3길 7,37.5308899,127.0861691
2020,19791010,광진중학교,서울특별시 광진구 자양동 693,서울특별시 광진구 뚝섬로64길 45,37.5322204,127.0901621
2020,19830504,용곡중학교,서울특별시 광진구 중곡동 176-77,서울특별시 광진구 용마산로22길 76,37.565951,127.089089
2020,19840301,구의중학교,서울특별시 광진구 화양동 303-18,서울특별시 광진구 광나루로30길 80,37.5428495,127.07884140000002
2020,19300620,동국대학교사범대학부속여자중학교,서울특별시 광진구 구의동 238-1,서울특별시 광진구 광나루로36길 47,37.54258400000001,127.0874025
2020,19770520,대원국제중학교,서울특별시 광진구 중곡동 176-124,서울특별시 광진구 용마산로22길 26,37.5624945,127.0894181
2020,19680515,건국대학교사범대학부속중학교,서울특별시 광진구 화양동 528-4,서울특별시 광진구 자양로 145-1,37.5417232,127.0815966
2020,20120605,길음중학교,서울특별시 성북구 길음동 635-7,서울특별시 성북구 길음로 144,37.6140891,127.017456
2020,19460901,서울대학교사범대학부설중학교,서울특별시 성북구 종암동 7-10,서울특별시 성북구 월곡로 36,37.595819,127.0391338
2020,19600503,삼선중학교,서울특별시 성북구 동소문동4가 278-174,서울특별시 성북구 동소문로3길 69,37.5917492,127.0078716
2020,19860514,월곡중학교,서울특별시 성북구 상월곡동 35-1,서울특별시 성북구 장월로 6,37.6069807,127.0482587
2020,20110301,숭곡중학교,서울특별시 성북구 하월곡동 87-1,서울특별시 성북구 종암로 208,37.6084785,127.0312988
2020,19830504,석관중학교,서울특별시 성북구 석관동 88-2,서울특별시 성북구 한천로 526,37.6081394,127.0667152
2020,20060301,개운중학교,서울특별시 성북구 돈암동 83-145,서울특별시 성북구 북악산로 935,37.5946264,127.0248432
2020,19841208,장위중학교,서울특별시 성북구 장위동 231-623,서울특별시 성북구 장위로4길 70,37.6112939,127.0408408
2020,19840427,북악중학교,서울특별시 성북구 정릉동 640-3,서울특별시 성북구 정릉로12길 41,37.6070086,127.0016082
2020,19810309,종암중학교,서울특별시 성북구 종암동 32-3,서울특별시 성북구 종암로5길 80-17,37.593111,127.0319898
2020,19550315,고명중학교,서울특별시 성북구 돈암동 45-88,서울특별시 성북구 북악산로 870,37.5974096,127.019984
2020,19461012,용문중학교,서울특별시 성북구 안암동2가 96-1,서울특별시 성북구 고려대로17가길 46,37.5886907,127.0246601
2020,19540412,홍익대학교사범대학부속중학교,서울특별시 성북구 성북동 151,서울특별시 성북구 성북로14가길 23,37.5936667,127.00280359999998
2020,19340520,남대문중학교,서울특별시 성북구 장위동 126,서울특별시 성북구 한천로95길 28,37.61863620000001,127.0557918
2020,19420617,동구여자중학교,서울특별시 성북구 성북동 168-275,서울특별시 성북구 성북로8길 71,37.5929565,127.0081707
2020,19451005,한성여자중학교,서울특별시 성북구 삼선동2가 395-4,서울특별시 성북구 삼선교로16길 118,37.5820001,127.0113123
2020,19360428,성신여자중학교,서울특별시 성북구 돈암동 산11-269,서울특별시 성북구 북악산로 918,37.5938951,127.0232532
2020,19680311,고려대학교사범대학부속중학교,서울특별시 성북구 정릉동 660,서울특별시 성북구 정릉로 161,37.6098269,127.001572
2020,20010302,수송중학교,서울특별시 강북구 번동 456-1,서울특별시 강북구 한천로122길 21,37.63680120000001,127.0339165
2020,19810309,강북중학교,서울특별시 강북구 수유동 694,서울특별시 강북구 한천로150길 67,37.6449158,127.02537209999998
2020,20030301,삼각산중학교,서울특별시 강북구 미아동 1357-11,서울특별시 강북구 삼양로19길 141,37.6160824,127.0154539
2020,20090610,미양중학교,서울특별시 강북구 미아동 837-734,서울특별시 강북구 인수봉로 39,37.6236655,127.0121795
2020,19920428,번동중학교,서울특별시 강북구 번동 231,서울특별시 강북구 오현로35길 87,37.632447,127.0362075
2020,19860504,인수중학교,서울특별시 강북구 수유동 551,서울특별시 강북구 인수봉로75길 10,37.6438658,127.0099212
2020,19720603,수유중학교,서울특별시 강북구 수유동 491-61,서울특별시 강북구 인수봉로37길 40,37.6315655,127.010486
2020,19701010,화계중학교,서울특별시 강북구 수유동 491-28,서울특별시 강북구 화계사길 63,37.632517,127.0097112
2020,19560305,서라벌중학교,서울특별시 강북구 우이동 103-9,서울특별시 강북구 삼양로155길 37-9,37.6569839,127.0114869
2020,19661013,신일중학교,서울특별시 강북구 미아동 193-1,서울특별시 강북구 솔매로49길 20,37.6279658,127.0284273
2020,19730301,창문여자중학교,서울특별시 강북구 미아동 8-16,서울특별시 강북구 월계로 61,37.6134973,127.0363886
2020,19601001,성암여자중학교,서울특별시 강북구 미아동 320-1,서울특별시 강북구 도봉로29길 52,37.6204129,127.0239049
2020,19690327,영훈국제중학교,서울특별시 강북구 미아동 471-2,서울특별시 강북구 도봉로13가길 19,37.61468170000001,127.0280938
2020,19230514,경기상업고등학교,서울특별시 종로구 청운동 89-3,서울특별시 종로구 자하문로 136,37.5892589,126.9700589
2020,19661208,서일국제경영고등학교,서울특별시 종로구 창신동 13-80,서울특별시 종로구 지봉로17길 49,37.5793799,127.0127598
2020,19250418,대동세무고등학교,서울특별시 종로구 계동 35,서울특별시 종로구 계동길 84-10,37.581582,126.9879496
2020,19610303,성동글로벌경영고등학교,서울특별시 중구 신당동 250-3,서울특별시 중구 퇴계로 375,37.5658541,127.0135238
2020,19440401,성동공업고등학교,서울특별시 중구 흥인동 1-1,서울특별시 중구 다산로 290,37.5693639,127.01729170000002
2020,19450901,한양공업고등학교,서울특별시 중구 신당동 224-2,서울특별시 중구 을지로 299,37.5658723,127.0114457
2020,19921002,경기여자상업고등학교,서울특별시 중구 중림동 324-14,서울특별시 중구 만리재로37길 30,37.5572979,126.9667727
2020,19520520,리라아트고등학교,서울특별시 중구 예장동 8-40,서울특별시 중구 소파로2길 24,37.5571155,126.988252
2020,19560416,대경상업고등학교,서울특별시 중구 신당동 333-579,서울특별시 중구 매봉18길 111,37.5566958,127.0175331
2020,19620305,용산공업고등학교,서울특별시 용산구 한강로3가 65-209,서울특별시 용산구 서빙고로 24,37.5243031,126.9673563
2020,18990624,선린인터넷고등학교,서울특별시 용산구 청파동3가 131-2,서울특별시 용산구 원효로97길 33-4,37.5429756,126.9664882
2020,19750203,서울디지텍고등학교,서울특별시 용산구 이태원동 223-15,서울특별시 용산구 회나무로12길 27,37.53896870000001,126.9906121
2020,19100413,덕수고등학교,서울특별시 성동구 행당동 70-28,서울특별시 성동구 왕십리로 199,37.5552628,127.0411407
2020,19980607,성수공업고등학교,서울특별시 성동구 성수동2가 333-128,서울특별시 성동구 뚝섬로 365,37.5405401,127.0512981
2020,19911030,서울방송고등학교,서울특별시 성동구 옥수동 556-1,서울특별시 성동구 동호로5길 131,37.5477731,127.0110355
2020,19980702,휘경공업고등학교,서울특별시 동대문구 휘경동 49-327,서울특별시 동대문구 겸재로 21,37.58521560000001,127.069729
2020,19610303,해성국제컨벤션고등학교,서울특별시 동대문구 전농동 90-3,서울특별시 동대문구 전농로20길 31,37.5818716,127.056978
2020,19080901,정화여자상업고등학교,서울특별시 동대문구 제기동 293,서울특별시 동대문구 홍릉로15길 50,37.5857885,127.0410307
2020,19970524,송곡관광고등학교,서울특별시 중랑구 망우동 252-1,서울특별시 중랑구 양원역로 67,37.6066879,127.1051467
2020,19690303,이화여자대학교병설미디어고등학교,서울특별시 중랑구 망우동 220,서울특별시 중랑구 망우로73길 56,37.6040433,127.1043412
2020,19640108,서울도시과학기술고등학교,서울특별시 성북구 하월곡동 90-1,서울특별시 성북구 종암로 196,37.6078113,127.0330426
2020,19420617,동구마케팅고등학교,서울특별시 성북구 성북동 168-275,서울특별시 성북구 성북로8길 71,37.5929565,127.0081707
2020,19560221,고명경영고등학교,서울특별시 성북구 동선동4가 325-1,서울특별시 성북구 북악산로 870,37.5974616,127.0199462
2020,19601001,성암국제무역고등학교,서울특별시 강북구 미아동 320-1,서울특별시 강북구 도봉로29길 52,37.6204129,127.0239049
2020,19840507,서울문화고등학교,서울특별시 도봉구 방학동 723-17,서울특별시 도봉구 마들로 598,37.6641324,127.0472847
2020,19740915,세그루패션디자인고등학교,서울특별시 도봉구 쌍문동 263,서울특별시 도봉구 시루봉로 53,37.65634710000001,127.0268765
2020,19570215,경기기계공업고등학교,서울특별시 노원구 하계동 78,서울특별시 노원구 공릉로 264,37.6322413,127.0749298
2020,19340520,광운전자공업고등학교,서울특별시 노원구 월계동 500,서울특별시 노원구 광운로1길 24,37.61924129999999,127.0565444
2020,19930508,영신간호비즈니스고등학교,서울특별시 노원구 중계동 118,서울특별시 노원구 중계로16나길 13,37.6524538,127.083205
2020,19680302,염광여자메디텍고등학교,서울특별시 노원구 월계동 820-9,서울특별시 노원구 월계로45가길 9,37.63025820000001,127.0492435
2020,19631214,인덕공업고등학교,서울특별시 노원구 월계동 648-7,서울특별시 노원구 초안산로 12,37.6319492,127.0557655
2020,19680429,동산정보산업고등학교,서울특별시 노원구 공릉동 481-3,서울특별시 노원구 공릉로 257,37.6307787,127.0739994
2020,19940301,미래산업과학고등학교,서울특별시 노원구 중계동 369-3,서울특별시 노원구 덕릉로82길 54,37.6587784,127.0784425
2020,19921030,서울아이티고등학교,서울특별시 노원구 중계동 504,서울특별시 노원구 섬밭로 299,37.6424189,127.0624493
2020,19950301,선정국제관광고등학교,서울특별시 은평구 갈현동 227-5,서울특별시 은평구 서오릉로20길 19,37.6187044,126.9090313
2020,19850311,선일이비즈니스고등학교,서울특별시 은평구 갈현동 240-1,서울특별시 은평구 갈현로29길 27,37.6197164,126.9127997
2020,19930926,예일디자인고등학교,서울특별시 은평구 구산동 8-3,서울특별시 은평구 연서로 117,37.6096421,126.9160959
2020,19210603,동명여자정보산업고등학교,서울특별시 은평구 대조동 91-20,서울특별시 은평구 통일로 793,37.6144774,126.9250155
2020,19700316,신진과학기술고등학교,서울특별시 은평구 응암동 114-1,서울특별시 은평구 은평로6길 16,37.59871320000001,126.91883490000002
2020,19700510,은평메디텍고등학교,서울특별시 은평구 진관동 86,서울특별시 은평구 진관2로 57-57,37.63541170000001,126.9292136
2020,19740712,세명컴퓨터고등학교,서울특별시 은평구 불광동 445-35,서울특별시 은평구 통일로92가길 33,37.62777120000001,126.9232486
2020,19680301,홍익디자인고등학교,서울특별시 마포구 연남동 369-1,서울특별시 마포구 성미산로 111,37.5635098,126.9191674
2020,19941005,한세사이버보안고등학교,서울특별시 마포구 아현동 771,서울특별시 마포구 마포대로11길 44-80,37.5517898,126.9520321
2020,19550112,서울디자인고등학교,서울특별시 마포구 염리동 150,서울특별시 마포구 백범로 139,37.5467021,126.9469053
2020,19841217,서울금융고등학교,서울특별시 양천구 신월동 43-8,서울특별시 양천구 가로공원로61길 19,37.537615,126.82561880000002
2020,19520301,서울영상고등학교,서울특별시 양천구 신정동 984,서울특별시 양천구 목동로11길 46,37.5233027,126.8602955
2020,19940105,강서공업고등학교,서울특별시 강서구 방화동 834,서울특별시 강서구 방화대로47길 9,37.5760335,126.8161831
2020,19870108,화곡보건경영고등학교,서울특별시 강서구 내발산동 715,서울특별시 강서구 강서로45길 70,37.5491388,126.8326534
2020,19780130,신정여자상업고등학교,서울특별시 강서구 화곡동 477-1,서울특별시 강서구 등촌로13아길 20,37.53814660000001,126.8564162
2020,19870605,서울항공비즈니스고등학교,서울특별시 강서구 마곡동 731-263,서울특별시 강서구 방화대로34길 13,37.5692162,126.817042
2020,19531101,영등포공업고등학교,서울특별시 강서구 가양동 1468,서울특별시 강서구 허준로5길 15,37.5698357,126.8500301
2020,19910227,예림디자인고등학교,서울특별시 구로구 궁동 110-1,서울특별시 구로구 오리로21길 2,37.5000184,126.8273934
2020,19941005,덕일전자공업고등학교,서울특별시 구로구 오류동 199-1,서울특별시 구로구 서해안로21길 5-12,37.4905378,126.8371091
2020,19640505,유한공업고등학교,서울특별시 구로구 항동 1-7,서울특별시 구로구 경인로 8,37.48791420000001,126.8232919
2020,19720331,서서울생활과학고등학교,서울특별시 구로구 궁동 35,서울특별시 구로구 오리로 1355-10,37.5038277,126.8282007
2020,19870303,동일여자상업고등학교,서울특별시 금천구 시흥동 산100-4,서울특별시 금천구 탑골로10길 45,37.4516719,126.9168874
2020,19950110,한강미디어고등학교,서울특별시 영등포구 양평동4가 315-1,서울특별시 영등포구 선유로55길 22,37.539292,126.8972608
2020,18990505,서울공업고등학교,서울특별시 동작구 대방동 390-5,서울특별시 동작구 대방동1길 46,37.5019015,126.9223834
2020,19260401,서울여자상업고등학교,서울특별시 관악구 봉천동 1695,서울특별시 관악구 관악로 85,37.4729044,126.9509187
2020,19051010,광신정보산업고등학교,서울특별시 관악구 신림동 329,서울특별시 관악구 광신길 141,37.4644759,126.9259388
2020,19780315,서울관광고등학교,서울특별시 관악구 봉천동 1694,서울특별시 관악구 은천로15길 25,37.48781470000001,126.9437629
2020,19590409,영락의료과학고등학교,서울특별시 관악구 봉천동 1558-1,서울특별시 관악구 청룡16길 25,37.4764515,126.9444633
2020,19940506,서울전자고등학교,서울특별시 서초구 방배동 2727,서울특별시 서초구 과천대로 852-23,37.4697208,126.9883284
2020,19940104,서울로봇고등학교,서울특별시 강남구 일원동 738,서울특별시 강남구 광평로20길 63,37.4807303,127.0845783
2020,19411103,단국공업고등학교,서울특별시 강남구 대치동 1013-3,서울특별시 강남구 도곡로64길 21,37.4955055,127.0567133
2020,19950302,대진디자인고등학교,서울특별시 강남구 수서동 733,서울특별시 강남구 광평로39길 93,37.490427200000006,127.09597820000002
2020,19901110,송파공업고등학교,서울특별시 송파구 거여동 354,서울특별시 송파구 양산로 21,37.4917933,127.1423326
2020,19580406,일신여자상업고등학교,서울특별시 송파구 송파동 5-14,서울특별시 송파구 송파대로38길 8,37.5019724,127.11452659999998
2020,19770304,성덕고등학교,서울특별시 강동구 천호동 23-3,서울특별시 강동구 구천면로 396,37.5499625,127.1419044
2020,19611215,서울컨벤션고등학교,서울특별시 강동구 고덕동 295-1,서울특별시 강동구 동남로 964,37.5592845,127.1580303
2020,19831006,상일미디어고등학교,서울특별시 강동구 상일동 189,서울특별시 강동구 천호대로219길 61,37.5479537,127.1702183
2020,19880914,서울과학고등학교,서울특별시 종로구 혜화동 1-1,서울특별시 종로구 혜화로 63,37.59154760000001,126.9984375
2020,20080507,서울국제고등학교,서울특별시 종로구 명륜1가 1-27,서울특별시 종로구 성균관로13길 40,37.59179260000001,126.995489
2020,19530321,서울예술고등학교,서울특별시 종로구 평창동 217,서울특별시 종로구 평창문화로 70,37.6057573,126.9678915
2020,19910911,이화여자외국어고등학교,서울특별시 중구 순화동 1-1,서울특별시 중구 통일로4길 30,37.5655771,126.9696428
2020,19840520,대원외국어고등학교,서울특별시 광진구 중곡동 176-124,서울특별시 광진구 용마산로22길 26,37.5624945,127.089438
2020,19760705,선화예술고등학교,서울특별시 광진구 능동 25,서울특별시 광진구 천호대로 664,37.5509815,127.087093
2020,19840924,대일외국어고등학교,서울특별시 성북구 정릉동 산16-36,서울특별시 성북구 서경로 116,37.6133039,127.0141757
2020,19931005,서울외국어고등학교,서울특별시 도봉구 창동 35,서울특별시 도봉구 덕릉로66길 22,37.6457794,127.0515108
2020,19920925,한성과학고등학교,서울특별시 서대문구 현저동 산5-47,서울특별시 서대문구 통일로 279-79,37.5754354,126.952373
2020,19910911,명덕외국어고등학교,서울특별시 강서구 내발산동 169-1,서울특별시 강서구 강서로47길 34-10,37.5532299,126.83481709999998
2020,19920303,덕원예술고등학교,서울특별시 강서구 내발산동 산59-2,서울특별시 강서구 강서로45길 91-44,37.5486229,126.8290243
2020,20080301,세종과학고등학교,서울특별시 구로구 궁동 232,서울특별시 구로구 오리로21길 79,37.4975698,126.827354
2020,19661002,서울공연예술고등학교,서울특별시 구로구 궁동 147-1,서울특별시 구로구 오리로22나길 16-26,37.5000848,126.8321523
2020,19600513,국립전통예술고등학교,서울특별시 금천구 시흥동 산24-17,서울특별시 금천구 시흥대로38길 62,37.4467124,126.9067221
2020,19910301,미림여자정보과학고등학교,서울특별시 관악구 신림동 1557-1,서울특별시 관악구 호암로 546,37.4672482,126.9333198
2020,19720909,국립국악고등학교,서울특별시 강남구 개포동 1272,서울특별시 강남구 개포로22길 65,37.4762299,127.0514757
2020,19240302,수도전기공업고등학교,서울특별시 강남구 개포동 155,서울특별시 강남구 개포로 410,37.4849381,127.0644798
2020,19710320,서울체육고등학교,서울특별시 송파구 방이동 88-14,서울특별시 송파구 강동대로 232,37.52233010000001,127.1298248
2020,19900301,한영외국어고등학교,서울특별시 강동구 상일동 166,서울특별시 강동구 동남로 832,37.54914229999999,127.157773
2020,19210502,경복고등학교,서울특별시 종로구 청운동 89-9,서울특별시 종로구 자하문로28가길 9,37.5859472,126.9715094
2020,19380405,대신고등학교,서울특별시 종로구 행촌동 171-1,서울특별시 종로구 사직로 9,37.5731249,126.96125390000002
2020,18850509,경신고등학교,서울특별시 종로구 혜화동 5-119,서울특별시 종로구 혜화로 74,37.5922258,126.999529
2020,18981002,배화여자고등학교,서울특별시 종로구 누하동 149,서울특별시 종로구 필운대로1길 34,37.5784966,126.9668658
2020,19451010,덕성여자고등학교,서울특별시 종로구 안국동 37-1,서울특별시 종로구 율곡로3길 50,37.5777613,126.9835578
2020,19670307,상명대학교사범대학부속여자고등학교,서울특별시 종로구 홍지동 7-1,서울특별시 종로구 홍지문2길 20,37.6041097,126.9551587
2020,19470901,장충고등학교,서울특별시 중구 신당동 432-460,서울특별시 중구 동호로15길 93,37.5535146,127.0064145
2020,19460909,용산고등학교,서울특별시 용산구 용산동2가 1,서울특별시 용산구 두텁바위로 60,37.54586550000001,126.98032849999998
2020,19070515,오산고등학교,서울특별시 용산구 보광동 168-73,서울특별시 용산구 보광로7길 17,37.5237818,127.0008688
2020,19551231,배문고등학교,서울특별시 용산구 서계동 259-3,서울특별시 용산구 효창원로 258,37.54999779999999,126.96390490000002
2020,19071010,보성여자고등학교,서울특별시 용산구 용산동2가 1-1123,서울특별시 용산구 신흥로3가길 66,37.54308020000001,126.9842996
2020,19530608,신광여자고등학교,서울특별시 용산구 청파동3가 100,서울특별시 용산구 청파로 263,37.5429007,126.9694483
2020,19600401,성심여자고등학교,서울특별시 용산구 원효로4가 1-1,서울특별시 용산구 원효로19길 49,37.53421029999999,126.9545942
2020,19400420,무학여자고등학교,서울특별시 성동구 행당동 322-1,서울특별시 성동구 고산자로 197,37.556768,127.0335995
2020,20090301,성수고등학교,서울특별시 성동구 성수동1가 685-143,서울특별시 성동구 서울숲길 18,37.5473422,127.038253
2020,19860513,광남고등학교,서울특별시 광진구 광장동 554-11,서울특별시 광진구 아차산로70길 17-16,37.5415134,127.1012125
2020,19840514,자양고등학교,서울특별시 광진구 자양동 524-11,서울특별시 광진구 뚝섬로37길 28,37.53607750000001,127.0733399875
2020,19770520,대원고등학교,서울특별시 광진구 중곡동 176-124,서울특별시 광진구 용마산로22길 26,37.5624945,127.089438
2020,19300620,동국대학교사범대학부속여자고등학교,서울특별시 광진구 구의동 238-1,서울특별시 광진구 광나루로36길 47,37.54258400000001,127.0874001
2020,19830520,대원여자고등학교,서울특별시 광진구 중곡동 176-124,서울특별시 광진구 용마산로22길 26,37.56249620000001,127.08940520000002
2020,19800305,건국대학교사범대학부속고등학교,서울특별시 광진구 화양동 528,서울특별시 광진구 능동로 120,37.5391833,127.07470990000002
2020,20120501,휘봉고등학교,서울특별시 동대문구 휘경동 43-138,서울특별시 동대문구 한천로 290,37.5864773,127.0688515
2020,19470624,동국대학교사범대학부속고등학교,서울특별시 동대문구 장안동 328,서울특별시 동대문구 장안벚꽃로 201,37.5780484,127.0751336
2020,20080301,해성여자고등학교,서울특별시 동대문구 전농동 90-3,서울특별시 동대문구 전농로20길 31,37.5818716,127.056978
2020,19630301,경희여자고등학교,서울특별시 동대문구 회기동 1-5,서울특별시 동대문구 경희대로 26,37.5939495,127.0548902
2020,19750303,휘경여자고등학교,서울특별시 동대문구 휘경동 43-7,서울특별시 동대문구 한천로 247,37.5839456,127.0674046
2020,19850507,태릉고등학교,서울특별시 중랑구 묵동 6,서울특별시 중랑구 신내로23길 36,37.6191626,127.0855595
2020,20040302,신현고등학교,서울특별시 중랑구 상봉동 482,서울특별시 중랑구 봉화산로 174,37.6052493,127.0929500477
2020,19880302,중화고등학교,서울특별시 중랑구 중화동 21-4,서울특별시 중랑구 봉화산로27길 62,37.604813,127.0836541
2020,19651230,송곡고등학교,서울특별시 중랑구 망우동 239-1,서울특별시 중랑구 양원역로 50,37.605847,127.1064637
2020,19730524,송곡여자고등학교,서울특별시 중랑구 망우동 252-1,서울특별시 중랑구 양원역로 67,37.6066879,127.1051467
2020,19730305,혜원여자고등학교,서울특별시 중랑구 망우동 519,서울특별시 중랑구 봉우재로58길 39,37.5932809,127.0970432
2020,19460902,서울대학교사범대학부설고등학교,서울특별시 성북구 종암동 7-10,서울특별시 성북구 월곡로 6,37.5947238,127.0381187
2020,19821230,석관고등학교,서울특별시 성북구 석관동 77-1,서울특별시 성북구 한천로70길 30,37.60958820000001,127.0667165
2020,19540615,홍익대학교사범대학부속고등학교,서울특별시 성북구 성북동 151,서울특별시 성북구 성북로14가길 23,37.5936667,127.00280359999998
2020,19680311,고려대학교사범대학부속고등학교,서울특별시 성북구 정릉동 660,서울특별시 성북구 정릉로 161,37.6098005,127.001572
2020,19451005,한성여자고등학교,서울특별시 성북구 삼선동2가 392-2,서울특별시 성북구 삼선교로16길 117,37.5830633,127.0117841
2020,19360428,성신여자고등학교,서울특별시 성북구 돈암동 산11-269,서울특별시 성북구 동소문로26가길 80,37.5942881,127.0224064
2020,19660305,혜화여자고등학교,서울특별시 강북구 수유동 468-43,서울특별시 강북구 인수봉로 127,37.6313093,127.0132139
2020,20110301,삼각산고등학교,서울특별시 강북구 미아동 812-4,서울특별시 강북구 삼양로19길 40,37.6162871,127.02013329999998
2020,19750301,창문여자고등학교,서울특별시 강북구 미아동 8-16,서울특별시 강북구 월계로 61,37.6134973,127.0363372
2020,19730302,영훈고등학교,서울특별시 강북구 미아동 471-2,서울특별시 강북구 도봉로13가길 19,37.61468170000001,127.0280938
2020,20030303,누원고등학교,서울특별시 도봉구 도봉동 646,서울특별시 도봉구 마들로 849,37.6855674,127.049933
2020,20060301,효문고등학교,서울특별시 도봉구 쌍문동 468,서울특별시 도봉구 우이천로 432,37.652698,127.0183988
2020,20040301,자운고등학교,서울특별시 도봉구 창동 1,서울특별시 도봉구 노해로69길 150,37.659020700000006,127.0506763
2020,20020301,창동고등학교,서울특별시 도봉구 창동 694-10,서울특별시 도봉구 노해로62길 7,37.6510352,127.0388183
2020,19760305,정의여자고등학교,서울특별시 도봉구 쌍문동 150-1,서울특별시 도봉구 노해로49길 69,37.6533545,127.0324282
2020,19880428,상계고등학교,서울특별시 노원구 상계동 738,서울특별시 노원구 노해로 432,37.652726,127.0554547
2020,20050302,불암고등학교,서울특별시 노원구 중계동 364-10,서울특별시 노원구 중계로 155,37.6491583,127.0803044
2020,19890427,노원고등학교,서울특별시 노원구 상계동 664,서울특별시 노원구 노원로 586,37.6618014,127.0540198
2020,20050301,월계고등학교,서울특별시 노원구 월계동 778,서울특별시 노원구 초안산로5길 66,37.6317325,127.0487142
2020,19890301,청원고등학교,서울특별시 노원구 상계동 641,서울특별시 노원구 한글비석로 506,37.6652533,127.0625319
2020,19560305,서라벌고등학교,서울특별시 노원구 중계동 313,서울특별시 노원구 한글비석로5길 18,37.64525820000001,127.0758403
2020,19851024,대진고등학교,서울특별시 노원구 하계동 55-5,서울특별시 노원구 공릉로62가길 47,37.6378051,127.076091
2020,19780303,재현고등학교,서울특별시 노원구 중계동 175,서울특별시 노원구 덕릉로82길 64,37.66128870000001,127.080798
2020,20010510,청원여자고등학교,서울특별시 노원구 상계동 641,서울특별시 노원구 한글비석로 506,37.6652533,127.0625319
2020,19870508,영신여자고등학교,서울특별시 노원구 중계동 118,서울특별시 노원구 중계로16나길 13,37.6524538,127.0832893
2020,19831010,혜성여자고등학교,서울특별시 노원구 하계동 산16-47,서울특별시 노원구 노원로16길 2,37.6405492,127.0736193
2020,19870422,용화여자고등학교,서울특별시 노원구 상계동 696,서울특별시 노원구 동일로 1461,37.6591325,127.0582791
2020,19880212,대진여자고등학교,서울특별시 노원구 중계동 514-2,서울특별시 노원구 공릉로 438,37.6461736,127.0671978
2020,19491113,한국삼육고등학교,서울특별시 노원구 공릉동 26-38,서울특별시 노원구 화랑로 815,37.6433583,127.1088514
2020,19831002,염광고등학교,서울특별시 노원구 월계동 820,서울특별시 노원구 월계로45가길 9,37.63025820000001,127.0492435
2020,19370517,상명고등학교,서울특별시 노원구 중계동 515,서울특별시 노원구 덕릉로 553,37.649548,127.068044
2020,20110301,신도고등학교,서울특별시 은평구 진관동 242-38,서울특별시 은평구 통일로 961,37.6291341,126.9187475
2020,20090301,진관고등학교,서울특별시 은평구 진관동 17,서울특별시 은평구 진관4로 26,37.6433374,126.9243837
2020,20090301,은평고등학교,서울특별시 은평구 구산동 164,서울특별시 은평구 갈현로15길 51,37.6091514,126.9058084
2020,19690302,충암고등학교,서울특별시 은평구 응암동 272-113,서울특별시 은평구 가좌로5길 5,37.5846417,126.9218074
2020,18971010,숭실고등학교,서울특별시 은평구 신사동 300-88,서울특별시 은평구 은평터널로7길 6,37.5928732,126.9024048
2020,19210603,동명여자고등학교,서울특별시 은평구 대조동 91-20,서울특별시 은평구 통일로 793,37.6144774,126.9250428
2020,19711227,선일여자고등학교,서울특별시 은평구 갈현동 240-1,서울특별시 은평구 갈현로29길 27,37.6197164,126.9127997
2020,19650926,예일여자고등학교,서울특별시 은평구 구산동 8-3,서울특별시 은평구 연서로 117,37.6096421,126.9160959
2020,19500522,선정고등학교,서울특별시 은평구 갈현동 227-5,서울특별시 은평구 서오릉로20길 19,37.6187044,126.9090313
2020,19531010,인창고등학교,서울특별시 서대문구 충정로2가 70,서울특별시 서대문구 경기대로 65,37.5648835,126.9640244
2020,19280925,한성고등학교,서울특별시 서대문구 북아현동 170-1,서울특별시 서대문구 북아현로1길 24,37.5590958,126.9544615
2020,19401010,중앙여자고등학교,서울특별시 서대문구 북아현동 190-1,서울특별시 서대문구 북아현로11가길 7,37.5631498,126.95320929999998
2020,19480412,명지고등학교,서울특별시 서대문구 홍은동 361-30,서울특별시 서대문구 명지2길 56,37.58491179999999,126.9270922
2020,18940406,광성고등학교,서울특별시 마포구 신수동 91-20,서울특별시 마포구 신수로8길 20,37.5486969,126.9359678
2020,19671023,경성고등학교,서울특별시 마포구 연남동 369-1,서울특별시 마포구 성미산로 111,37.5635098,126.9191674
2020,19680312,홍익대학교사범대학부속여자고등학교,서울특별시 마포구 성산동 산11-60,서울특별시 마포구 성미산로 51,37.5596457,126.9132093
2020,19810503,금옥여자고등학교,서울특별시 양천구 신정동 729,서울특별시 양천구 신정로 213,37.5109638,126.8439724
2020,19870528,신목고등학교,서울특별시 양천구 신정동 330-3,서울특별시 양천구 안양천로 739,37.5129093,126.8736074
2020,20060301,신서고등학교,서울특별시 양천구 신정동 984-1,서울특별시 양천구 은행정로 42,37.5239153,126.86020829999998
2020,19831101,강서고등학교,서울특별시 양천구 목동 735,서울특별시 양천구 목동중앙남로 27,37.5363159,126.86576999370001
2020,19850201,광영고등학교,서울특별시 양천구 신월동 43-3,서울특별시 양천구 남부순환로30길 17,37.537197,126.8232754
2020,19840206,양천고등학교,서울특별시 양천구 신정동 산109-1,서울특별시 양천구 신정로14길 13,37.5083201,126.84520390000002
2020,19060421,진명여자고등학교,서울특별시 양천구 목동 927-6,서울특별시 양천구 목동로 170,37.524048,126.8658553
2020,19900914,목동고등학교,서울특별시 양천구 신정동 325-8,서울특별시 양천구 목동동로2길 68,37.5092145,126.860143
2020,19850306,광영여자고등학교,서울특별시 양천구 신월동 43-3,서울특별시 양천구 남부순환로30길 17,37.537197,126.82324640000002
2020,19841217,백암고등학교,서울특별시 양천구 신정동 733,서울특별시 양천구 신정로13길 16,37.51090170000001,126.8433301
2020,19830412,공항고등학교,서울특별시 강서구 방화동 648-1,서울특별시 강서구 개화동로 495,37.56929279999999,126.8063246
2020,20090504,수명고등학교,서울특별시 강서구 내발산동 758,서울특별시 강서구 수명로2길 15,37.5497628,126.8247667
2020,20060301,세현고등학교,서울특별시 강서구 가양동 1491,서울특별시 강서구 허준로 227,37.5604314,126.8636216
2020,19720926,대일고등학교,서울특별시 강서구 등촌동 산88,서울특별시 강서구 등촌로 105,37.5394883,126.8634018
2020,19530601,마포고등학교,서울특별시 강서구 등촌동 82-1,서울특별시 강서구 화곡로 403,37.5599899,126.8531328
2020,19780130,화곡고등학교,서울특별시 강서구 내발산동 산48-3,서울특별시 강서구 강서로45길 69,37.54793460000001,126.8315381
2020,19841015,명덕고등학교,서울특별시 강서구 내발산동 169-1,서울특별시 강서구 강서로47길 34-10,37.5532299,126.83481709999998
2020,19530519,동양고등학교,서울특별시 강서구 가양동 1464,서울특별시 강서구 허준로 50,37.569021,126.8470796
2020,19750515,영일고등학교,서울특별시 강서구 등촌동 525,서울특별시 강서구 등촌로51가길 26,37.5472858,126.8620613
2020,19940302,경복여자고등학교,서울특별시 강서구 등촌동 131,서울특별시 강서구 화곡로63길 40,37.5578208,126.8505974
2020,19790429,덕원여자고등학교,서울특별시 강서구 내발산동 산59-2,서울특별시 강서구 강서로45길 91-44,37.5486229,126.8290243
2020,19840305,명덕여자고등학교,서울특별시 강서구 내발산동 169-1,서울특별시 강서구 강서로47길 34-10,37.5532299,126.83481709999998
2020,19850311,한서고등학교,서울특별시 강서구 방화동 478-34,서울특별시 강서구 양천로11길 47,37.57479179999999,126.8081443
2020,19870119,한광고등학교,서울특별시 강서구 화곡동 488-2,서울특별시 강서구 등촌로13길 110,37.538844,126.857922
2020,20020516,경인고등학교,서울특별시 구로구 고척동 66-28,서울특별시 구로구 경인로46길 31,37.4959939,126.86543059999998
2020,19810406,구로고등학교,서울특별시 구로구 구로동 105-1,서울특별시 구로구 가마산로27길 45,37.4988415,126.89030929999998
2020,19900302,구일고등학교,서울특별시 구로구 구로동 685-194,서울특별시 구로구 구일로 90-51,37.4935064,126.87461709999998
2020,20090301,신도림고등학교,서울특별시 구로구 신도림동 270-2,서울특별시 구로구 경인로67길 159,37.51406420000001,126.8820842
2020,19991127,오류고등학교,서울특별시 구로구 궁동 110-1,서울특별시 구로구 오리로21길 2,37.500089,126.8273934
2020,20020302,독산고등학교,서울특별시 금천구 독산동 907-34,서울특별시 금천구 문성로 64,37.4762184,126.9109732
2020,19750304,문일고등학교,서울특별시 금천구 시흥동 559-1,서울특별시 금천구 시흥대로47길 45,37.4503313,126.8985127
2020,19730303,동일여자고등학교,서울특별시 금천구 시흥동 산100-4,서울특별시 금천구 탑골로10길 45,37.4516719,126.9168874
2020,19730303,여의도고등학교,서울특별시 영등포구 여의도동 30-1,서울특별시 영등포구 국제금융로7길 37,37.5250501,126.9342187
2020,19530331,영등포여자고등학교,서울특별시 영등포구 신길동 184-3,서울특별시 영등포구 영등포로62길 13,37.5153902,126.9153554
2020,19840301,여의도여자고등학교,서울특별시 영등포구 여의도동 40-2,서울특별시 영등포구 국제금융로7가길 13,37.5228882,126.9350894
2020,19740301,관악고등학교,서울특별시 영등포구 양평동2가 12-1,서울특별시 영등포구 영등포로6길 26,37.521792,126.8829505
