년,상세영업상태명,학교종류,학교명,주소,경도,위도
2020,영업,어린이집,개미어린이집,서울특별시 금천구 독산동 993-30번지 개미어린이집 ,126.905875540641,37.473025779021796
2020,영업,어린이집,독산1동어린이집,서울특별시 금천구 독산동 999-11번지 독산1동어린이집 ,126.89085857103201,37.4682224248816
2020,영업,어린이집,새길어린이집,서울특별시 금천구 시흥동 산 13-8번지 ,126.90753041226999,37.4401384231048
2020,영업,어린이집,가산어린이집,서울특별시 금천구 가산동 602-71번지 가산어린이집상록경록당 ,126.884379057129,37.4826935697684
2020,영업,어린이집,옥계어린이집,서울특별시 금천구 독산동 1067-9번지 옥계어린이집 ,126.900343816551,37.46011138172821
2020,영업,유치원,서울숭신초등학교서울숭신초등학교병설유치원,서울특별시 성동구 하왕십리동 1068번지 ,127.02777827697399,37.5676865598955
2020,영업,유치원,서울정곡초등학교및병설유치원,서울특별시 강서구 방화동 836-0번지 ,126.81893273906601,37.576634016041005
2020,영업,어린이집,금호어린이집(구립),서울특별시 성동구 금호동2가 산 9-1번지 ,127.01758529086099,37.5535608230365
2020,영업,유치원,숭의초등학교(숭의유치원),서울특별시 중구 예장동 8-3번지 ,126.98737550482402,37.556891783324794
2020,폐업,유치원,엔젤유치원,서울특별시 은평구 역촌동 29-24번지 ,126.91896268527901,37.6042079265358
2020,영업,유치원,서울충무초등학교 서울충무초등학교병설유치원,서울특별시 중구 장충동2가 173-7번지 ,127.00179619494301,37.562013409601995
2020,영업,어린이집,서울아산병원어린이집,서울특별시 송파구 풍납동 388-1번지 ,127.109452762088,37.5262665653841
2020,영업,어린이집,궁동어린이집,서울특별시 구로구 궁동 283-9번지 ,126.828960884695,37.4968593443773
2020,영업,어린이집,행당어린이집,서울특별시 성동구 행당동 346-1 한진A 임대관리동2층,127.026406458924,37.5552735401293
2020,영업,유치원,우정유치원,서울특별시 서초구 서초동 1324-14번지 ,127.02330905572501,37.493133003155705
2020,영업,유치원,서울장충초등학교 서울장충유치원,서울특별시 중구 신당동 386-86번지 장충초등학교 ,127.011155653911,37.5594847314199
2020,폐업,어린이집,이태원삼성어린이집,서울특별시 용산구 이태원동 111-6번지 ,126.99538231955799,37.5352834351229
2020,영업,어린이집,선릉삼성어린이집,서울특별시 강남구 삼성동 142-11번지 1층 ,127.051114098871,37.5066641392219
2020,영업,어린이집,삼성서울병원어린이집,서울특별시 강남구 수서동 745-2번지 ,127.088005604487,37.485543943298396
2020,영업,유치원,여나유치원,서울특별시 서초구 서초동 1685번지 (1층?) ,127.015589043207,37.498534140406704
2020,영업,유치원,하나유치원,서울특별시 서초구 잠원동 56-3 잠원한신아파트,127.01075712837,37.5159585949015
2020,영업,유치원,송곡유치원,서울특별시 성동구 홍익동 150번지 (지상2층) ,127.03476892520099,37.565100302872
2020,영업,어린이집,성수어린이집(구립),서울특별시 성동구 성수동2가 299-128번지 ,127.05328382761999,37.5495018212736
2020,영업,어린이집,금옥어린이집,서울특별시 성동구 옥수동 544번지 ,127.012660501253,37.5495576323806
2020,영업,어린이집,금사어린이집,서울특별시 성동구 금호동4가 803번지 ,127.02234625334299,37.5471555311929
2020,영업,어린이집,용답어린이집,서울특별시 성동구 용답동 223-5번지 ,127.056610087925,37.561552582751396
2020,영업,어린이집,금봉어린이집,서울특별시 성동구 금호동1가 37-1번지 ,127.02062001308501,37.557267266497504
2020,영업,어린이집,단비어린이집,서울특별시 성동구 용답동 83-5번지 ,127.05172292238701,37.5647642915149
2020,영업,어린이집,도선어린이집,서울특별시 성동구 홍익동 385-1번지 ,127.030623953494,37.566062033478396
2020,영업,어린이집,동호어린이집,서울특별시 성동구 금호동3가 1266-2번지 ,127.01887829852801,37.5498653376056
2020,영업,어린이집,무학어린이집,서울특별시 성동구 하왕십리동 1053번지 금호베스트빌임대관리동 1층 ,127.02552915600401,37.5619277428564
2020,영업,어린이집,서마어린이집,서울특별시 성동구 마장동 527-10번지 ,127.036880389818,37.5717246274514
2020,영업,어린이집,금일어린이집,서울특별시 성동구 금호동1가 622-1번지 지상3층 ,127.02484272128001,37.5536599097999
2020,영업,어린이집,한솔어린이집,서울특별시 성동구 성수동1가 656-522번지 ,127.045877101002,37.550041025317896
2020,영업,어린이집,대현어린이집,서울특별시 성동구 금호동1가 127-2번지 ,127.02161285472499,37.5548380705631
2020,영업,어린이집,성일어린이집,서울특별시 성동구 성수동1가 706-1번지 ,127.046466620256,37.5504906082949
2020,영업,어린이집,은행어린이집,서울특별시 성동구 행당동 139번지 ,127.03610961881901,37.5585185699042
2020,영업,어린이집,본향어린이집,서울특별시 성동구 금호동1가 48-1번지 (지상1층) ,127.022999590535,37.5575676654906
2020,영업,어린이집,연꽃어린이집,서울특별시 성동구 옥수동 204-8번지 ,127.012700526168,37.5404243664399
2020,영업,어린이집,꼬마에디슨어린이집,서울특별시 성동구 금호동1가 633번지 ,127.027090900661,37.5518471906793
2020,영업,어린이집,하니삐아제 어린이집,서울특별시 성동구 금호동4가 800번지 대우아파트 관리사무소내 ,127.01965834096201,37.5459630231884
2020,영업,어린이집,동산어린이집,서울특별시 성동구 성수동1가 668-73번지 ,127.042793417531,37.5466085755162
2020,영업,어린이집,행응어린이집,서울특별시 성동구 행당동 341-46번지 ,127.03113778876998,37.553137701751396
2020,영업,어린이집,벽산어린이집,서울특별시 성동구 금호동1가 632번지 벽산아파트(종합사회복지관상가) ,127.02581378192,37.5543352056905
2020,영업,어린이집,성동구립진터마루 어린이집,서울특별시 성동구 성수동1가 171번지 ,127.047337046651,37.538722049899704
2020,영업,어린이집,마장어린이집,서울특별시 성동구 마장동 780번지 ,127.045504665877,37.5664435223728
2020,영업,어린이집,성동종합사회복지관내 성모어린이집,서울특별시 성동구 마장동 527-2번지 ,127.033638619301,37.570372403453796
2020,영업,어린이집,한양대학교 한양어린이집,서울특별시 성동구 행당동 17번지 ,127.042458701822,37.5585455211864
2020,영업,어린이집,홍익어린이집,서울특별시 성동구 상왕십리동 130-20번지 ,127.02353631555,37.5686969146784
2020,영업,유치원,한양여대부속유치원,서울특별시 성동구 행당동 17 (지하1층),127.042458701822,37.5585455211864
2020,영업,어린이집,기독어린이집,서울특별시 금천구 시흥동 952-3번지 ,126.905325107243,37.4416838701647
2020,영업,어린이집,근로복지공단모아래어린이집,서울특별시 금천구 가산동 219-21번지 근로복지공단 아파트 ,126.890462785558,37.476316379078
2020,영업,유치원,충신유치원,서울특별시 용산구 이촌동 409번지 한가람APT 단지내 ,126.97350150985001,37.5207060373619
2020,폐업,유치원,유성유치원,서울특별시 용산구 이태원동 253-7번지 ,126.99061230350901,37.540552853261296
2020,영업,유치원,사랑유치원,서울특별시 성북구 종암동 99-10번지 ,127.03626300426501,37.5998534512943
2020,영업,유치원,영재유치원,서울특별시 성북구 종암동 45-31번지 ,127.034708331317,37.597464107468795
2020,폐업,어린이집,성덕어린이집(구립),서울특별시 성동구 성수동2가 513-1번지 (지상1층) ,127.05303967436701,37.5371423128219
2020,영업,어린이집,영안어린이집,서울특별시 중랑구 묵동 21번지 ,127.08803739749399,37.615092445063894
2020,영업,어린이집,신당삼성어린이집,서울특별시 중구 신당동 357-9번지 ,127.0092503701,37.5557280242366
2020,폐업,어린이집,스타터즈어린이집,서울특별시 용산구 이촌동 418,126.966499151392,37.52117186953871
2020,영업,어린이집,청파어린이집,서울특별시 용산구 청파동2가 36-4번지 (지상1층) ,126.968986702127,37.5452683682997
2020,영업,어린이집,동빙고어린이집,서울특별시 용산구 동빙고동 7-40번지 ,126.993993668838,37.5235662571596
2020,영업,어린이집,남산중앙어린이집,서울특별시 용산구 후암동 358-86번지 (지상1층) ,126.98357921413499,37.5483123003985
2020,영업,어린이집,새랑꾸미랑어린이집,서울특별시 용산구 도원동 23번지 삼성래미안아파트단지내 ,126.955292066192,37.5382858096126
2020,영업,어린이집,이촌어린이집,서울특별시 용산구 이촌동 206-1번지 ,126.95443996713699,37.526918468829706
2020,영업,어린이집,후암어린이집,서울특별시 용산구 후암동 160-1번지 ,126.97582790225401,37.547674157763
2020,영업,어린이집,원효어린이집,서울특별시 용산구 원효로3가 1-139번지 ,126.956736238136,37.534813667132795
2020,영업,어린이집,사무엘어린이집,서울특별시 용산구 이태원동 181-8번지 사무엘어린이집 ,126.990146535986,37.5345820539231
2020,영업,어린이집,상록어린이집,서울특별시 용산구 효창동 5-217번지 ,126.958289921718,37.540954254499
2020,영업,어린이집,보광어린이집,서울특별시 용산구 보광동 9-12번지 ,127.000886827225,37.5288326594755
2020,폐업,어린이집,해방어린이집,서울특별시 용산구 용산동2가 31번지 (지상1층) ,126.985175217878,37.5443706815507
2020,영업,어린이집,용산어린이집,서울특별시 용산구 한강로2가 187-3번지 ,126.967387590997,37.528570983082105
2020,영업,어린이집,후암교회부설 두툼돌어린이집,서울특별시 용산구 후암동 238-1번지 1층 ,126.977200298631,37.547927027259796
2020,폐업,어린이집,청운어린이집,서울특별시 용산구 청파동1가 89-77번지 ,126.96477407513399,37.5483027327293
2020,영업,어린이집,도원어린이집,서울특별시 용산구 용문동 38-265번지 (지하층) ,126.958561506935,37.538246730438104
2020,영업,어린이집,소월어린이집,서울특별시 용산구 용산동2가 11-3번지 ,126.98581264672701,37.5461080199481
2020,영업,어린이집,서소문 삼성어린이집,서울특별시 중구 을지로1가 50번지 235층 ,126.97994095597299,37.5663045531045
2020,영업,어린이집,원당어린이집,서울특별시 도봉구 방학동 496번지 ,127.02522973594999,37.6587982814033
2020,영업,어린이집,도봉2동어린이집,서울특별시 도봉구 도봉동 624-112번지 ,127.045810309807,37.67368845843379
2020,영업,어린이집,창3동어린이집,서울특별시 도봉구 창동 산 194-2번지 ,127.043759881186,37.639022506839
2020,영업,어린이집,방학1동어린이집,서울특별시 도봉구 방학동 649-57번지 ,127.041095779356,37.6680799587315
2020,영업,어린이집,방학2동어린이집,서울특별시 도봉구 방학동 668-7번지 ,127.032052285688,37.662476810822895
2020,영업,어린이집,도봉도선어린이집,서울특별시 도봉구 도봉동 629-8번지 ,127.049127923792,37.6772460201997
2020,영업,어린이집,창2동어린이집,서울특별시 도봉구 창동 632-74번지 ,127.035424865167,37.641255019900605
2020,영업,유치원,서울국악유치원,서울특별시 금천구 시흥동 산 24-17번지 ,126.906541805393,37.44590736429429
2020,영업,어린이집,쌍문1동어린이집,서울특별시 도봉구 쌍문동 348-10번지 ,127.025951748648,37.64829016680061
2020,영업,어린이집,도봉1동어린이집,서울특별시 도봉구 도봉동 577번지 ,127.042847772533,37.6829881485213
2020,영업,어린이집,쌍문2동어린이집,서울특별시 도봉구 쌍문동 8-19번지 ,127.037487808114,37.6613853579099
2020,영업,어린이집,도봉구청직장어린이집,서울특별시 도봉구 방학동 720번지 도봉구청내 ,127.04707265033701,37.66869654947679
2020,영업,어린이집,창5동어린이집,서울특별시 도봉구 창동 291-7번지 ,127.04304484026501,37.6548350752514
2020,영업,어린이집,응봉어린이집(구립),서울특별시 성동구 응봉동 193-212번지 (지상1층) ,127.030523806168,37.5489212078142
2020,영업,어린이집,서원어린이집,서울특별시 도봉구 도봉동 636-9번지 (1층) ,127.04652362473101,37.6697714590959
2020,영업,어린이집,다온어린이집,서울특별시 도봉구 창동 366번지 서울가든(아)상가동 ,127.044514068524,37.6478190778258
2020,영업,어린이집,상아어린이집,서울특별시 도봉구 창동 296-15번지 대원빌딩2층 ,127.04136132363001,37.654461311658004
2020,영업,어린이집,해맑은예체능어린이집,서울특별시 도봉구 쌍문동 493-8번지 ,127.015252431257,37.6565821601056
2020,영업,어린이집,꿈마당어린이집,서울특별시 도봉구 도봉동 567-2번지 ,127.043816590632,37.6841369878145
2020,영업,어린이집,엘림어린이집,서울특별시 도봉구 방학동 424번지 ,127.02707343941799,37.664210311836
2020,영업,어린이집,하늘빛어린이집,서울특별시 도봉구 도봉동 596-31번지 ,127.044027673447,37.6777601642042
2020,영업,어린이집,가나어린이집,서울특별시 도봉구 쌍문동 315-180번지 ,127.030444165756,37.6488986932183
2020,영업,어린이집,청아어린이집,서울특별시 도봉구 창동 808번지 동아청솔(아) 단지내 ,127.04827686831001,37.6572410977676
2020,영업,어린이집,서초어린이집,서울특별시 서초구 방배동 1027-6번지 (지하1층) ,127.000235754811,37.4746653887329
2020,영업,어린이집,잠원꿈밭어린이집,서울특별시 서초구 잠원동 24-11번지 (지하1층) ,127.01656529346,37.5137494249504
2020,영업,어린이집,구립서초한별어린이집,서울특별시 서초구 양재동 249-12번지 지하 1 층 ,127.039621589509,37.4733017286406
2020,폐업,어린이집,신애어린이집,서울특별시 서초구 우면동 68번지 1층 ,127.02658600312401,37.4718754558688
2020,영업,어린이집,까리따스어린이집,서울특별시 서초구 방배동 3274번지 1층 ,126.984188104755,37.474752940791
2020,영업,어린이집,바로미어린이집,서울특별시 서초구 서초동 1701-1번지 서울법원종합청사 별관 지상1층 ,127.011386114229,37.497001237963794
2020,영업,어린이집,반포청사어린이집,서울특별시 서초구 반포동 520-3번지 (지상1층) ,127.00296320825599,37.4993588720589
2020,영업,어린이집,국회사무처국회어린이집,서울특별시 영등포구 여의도동 1번지 ,126.91535677577801,37.5310475074358
2020,영업,어린이집,반포어린이집,서울특별시 서초구 반포동 107-87번지 지하1층 ,126.996718618874,37.497030665447
2020,영업,어린이집,남태령어린이집,서울특별시 서초구 방배동 2877번지 지하1층 ,126.98877238643,37.465872643611796
2020,영업,유치원,일민유치원,서울특별시 용산구 산천동 193번지 일민유치원 ,126.950568637454,37.5349915344981
2020,영업,유치원,해뜨는유치원,서울특별시 성북구 정릉동 181-22번지 ,127.015716742682,37.60485595412221
2020,영업,어린이집,영재어린이집,서울특별시 서초구 양재동 345-4번지 3층 ,127.043691385974,37.4684019153325
2020,영업,유치원,도원유치원,서울특별시 용산구 도원동 4-3번지 ,126.957817581886,37.538834019031896
2020,영업,유치원,원유치원,서울특별시 용산구 이촌동 402-0번지 ,126.97744369052299,37.5192234129583
2020,영업,유치원,수암유치원,서울특별시 중구 신당동 844번지 남산타운단지 24동 앞 ,127.009255376042,37.549003660166704
2020,영업,어린이집,서초성모어린이집,서울특별시 서초구 반포동 54-9번지 (지하1층) ,127.00949700852301,37.5010839967159
2020,영업,어린이집,구립서초사랑어린이집,서울특별시 서초구 잠원동 49-25번지 (지하1층) ,127.01479345226002,37.5205650302782
2020,영업,어린이집,행복한어린이집,서울특별시 서초구 방배동 789-22번지 (지상1층) ,126.98589657926,37.4920240521582
2020,영업,어린이집,상명어린이집,서울특별시 서초구 서초동 1491-12번지 지하1층 ,127.003074174176,37.4834524350787
2020,영업,유치원,가명유치원,서울특별시 중구 중림동 149-2,126.967223037283,37.5590645017077
2020,영업,유치원,덕수유치원,서울특별시 성북구 성북동 243-1번지 ,126.995241782235,37.593940189049704
2020,영업,유치원,약수유치원,서울특별시 중구 신당동 842번지 ,127.014684838211,37.554758565308106
2020,영업,어린이집,한티어린이집,서울특별시 강남구 대치동 994-17번지 대치문화복지회관3층 ,127.06693287302099,37.4999656569694
2020,영업,어린이집,서초구립사랑의어린이집,서울특별시 서초구 잠원동 60-5번지 (지상1층) ,127.01096461669701,37.5099392849185
2020,영업,어린이집,구립 샛별어린이집,서울특별시 구로구 구로동 549-8번지 ,126.885077458032,37.499936635
2020,영업,유치원,신일유치원,서울특별시 중구 신당동 369-51번지 ,127.011384885507,37.5552688629789
2020,폐업,어린이집,구립역촌2동어린이집,서울특별시 은평구 역촌동 66-11,126.91392074920401,37.602642189727796
2020,폐업,어린이집,성아어린이집,서울특별시 은평구 응암동 348-36번지 ,126.91947677005899,37.5909651835832
2020,폐업,어린이집,구립역촌어린이집,서울특별시 은평구 역촌동 26-45,126.920901281252,37.604773906363796
2020,영업,어린이집,구립은아새어린이집,서울특별시 은평구 응암동 123-19번지 ,126.91600218889201,37.595004679059
2020,영업,어린이집,성모자애어린이집,서울특별시 은평구 불광동 301-80번지 ,126.923783903742,37.6177204501023
2020,영업,어린이집,구립구산어린이집,서울특별시 은평구 구산동 340-6번지 ,126.90790606578899,37.6148079541604
2020,영업,어린이집,구립불광어린이집,서울특별시 은평구 불광동 205-2번지 ,126.929398841443,37.621704587151605
2020,영업,어린이집,구립개나리어린이집,서울특별시 은평구 불광동 444-5번지 ,126.92655780663,37.625349563278
2020,영업,어린이집,큰나무어린이집,서울특별시 구로구 고척동 296번지 대우(A)단지내 ,126.855452593344,37.5030131086245
2020,영업,어린이집,은현어린이집,서울특별시 은평구 갈현동 9-25번지 ,126.916292945221,37.6254667791939
2020,영업,어린이집,구립은평어린이집,서울특별시 은평구 증산동 92-143번지 ,126.90621999515601,37.5865089168539
2020,영업,어린이집,영산어린이집,서울특별시 은평구 불광동 279-2번지 ,126.931681680354,37.612907571889295
2020,영업,유치원,신촌유치원,서울특별시 서대문구 창천동 113-10번지 ,126.93155281985399,37.5573592482691
2020,영업,유치원,한일유치원,서울특별시 중구 신당동 67-81번지 ,127.01990292168301,37.5631068532682
2020,영업,유치원,학교법인 충암유치원,서울특별시 서대문구 남가좌동 2-3번지 충암초등학교 내 ,126.922354413151,37.58473879689061
2020,영업,어린이집,능곡어린이집,서울특별시 구로구 고척동 316번지 능곡어린이집 ,126.85443850613301,37.503181161631396
2020,영업,어린이집,온수어린이집,서울특별시 구로구 온수동 120-11번지 ,126.818712056677,37.4936321281169
2020,영업,어린이집,명화어린이집,서울특별시 구로구 개봉동 303-25번지 ,126.855087555436,37.4934554127126
2020,영업,어린이집,만나어린이집,서울특별시 구로구 개봉동 111-7번지 ,126.846219966528,37.5051310607602
2020,폐업,어린이집,다향어린이집,서울특별시 구로구 오류동 213-10번지 ,126.837340094784,37.4878062233051
2020,영업,어린이집,반야어린이집,서울특별시 구로구 신도림동 324-13번지 ,126.883786946931,37.5134833370579
2020,영업,어린이집,덕성어린이집,서울특별시 구로구 고척동 166-3번지 ,126.854162099149,37.5067021503364
2020,영업,어린이집,고척어린이집,서울특별시 구로구 고척동 141-1번지 ,126.86054565168199,37.5025350306089
2020,영업,어린이집,연꽃어린이집,서울특별시 구로구 구로동 777-22번지 연꽃어린이집 ,126.890299481658,37.487412241608
2020,영업,어린이집,성은어린이집,서울특별시 구로구 구로동 705-7번지 ,126.883258060369,37.4906988942278
2020,영업,어린이집,구민어린이집,서울특별시 구로구 구로동 90-1번지 ,126.89158278730801,37.4947521450933
2020,영업,어린이집,섬기는어린이집,서울특별시 구로구 가리봉동 111-1번지 ,126.889642515209,37.4828674348533
2020,영업,어린이집,지암어린이집,서울특별시 구로구 개봉동 354-6번지 (354-21) ,126.85283647402099,37.48722443216009
2020,폐업,어린이집,항동어린이집,서울특별시 구로구 항동 12-19번지 항동어린이집 ,126.82344112367399,37.485356130045
2020,영업,어린이집,남산어린이집,서울특별시 구로구 고척동 52-316번지 ,126.864877108377,37.5028507037735
2020,영업,어린이집,역삼가애어린이집,서울특별시 강남구 역삼동 783-19번지 ,127.044732484357,37.4948574029133
2020,영업,어린이집,강남구립보람어린이집,서울특별시 강남구 대치동 601-0번지 지상1층 ,127.061338245861,37.4943589563788
2020,영업,어린이집,태화어린이집,서울특별시 강남구 수서동 741-0번지 지상1층 ,127.09330077140899,37.4848385998018
2020,영업,어린이집,강남구립대청어린이집,서울특별시 강남구 일원동 675-1번지 지상1층 ,127.083502443243,37.4908623012801
2020,영업,어린이집,준현어린이집,서울특별시 강남구 청담동 19-16번지 지상2층 ,127.043336811681,37.5225982276932
2020,영업,어린이집,동산어린이집,서울특별시 강남구 개포동 1262-9번지 지하1층 ,127.050254812028,37.479467958963
2020,영업,어린이집,구립대치어린이집,서울특별시 강남구 대치동 985-1번지 ,127.065497967903,37.501812086977104
2020,영업,어린이집,해피어린이집,서울특별시 강남구 수서동 746-0번지 까치마을아파트관리동지상1층 ,127.087594588891,37.4847251268029
2020,영업,어린이집,논현어린이집,서울특별시 강남구 논현동 137-16번지 지하1층 ,127.026859612928,37.511030867992396
2020,영업,어린이집,구립푸른어린이집,서울특별시 강남구 자곡동 440-33번지 지상1층 ,127.09980606120001,37.47355367474329
2020,영업,어린이집,청마을어린이집,서울특별시 강남구 일원동 711-0번지 지상1층 ,127.090259593712,37.492625329087794
2020,영업,어린이집,예지어린이집,서울특별시 강남구 개포동 1164-15번지 대경빌딩 ,127.053361845198,37.4734657769789
2020,영업,어린이집,강남구민회관어린이집,서울특별시 강남구 대치동 509-2번지 지상1층 ,127.064125855635,37.493840729484894
2020,영업,어린이집,동서울어린이집,서울특별시 광진구 구의동 204-22번지 ,127.091438442871,37.54315955418609
2020,영업,어린이집,구립자양2동어린이집,서울특별시 광진구 자양동 669-2번지 ,127.08448025452499,37.528842845423796
2020,영업,어린이집,미담어린이집,서울특별시 강남구 일원동 717번지 삼성생명 일원동 빌딩 ,127.08442776256399,37.4839922695395
2020,영업,어린이집,구립역삼어린이집,서울특별시 강남구 역삼동 743-7번지 지상2층 ,127.03565122438101,37.4971127973507
2020,영업,어린이집,구립일원어린이집,서울특별시 강남구 일원동 730-0번지 지상3층 ,127.07791859500401,37.4840833646736
2020,영업,어린이집,느티나무어린이집,서울특별시 광진구 화양동 478-3번지 ,127.07806731081699,37.54540669749321
2020,영업,어린이집,삼성어린이집,서울특별시 강남구 삼성동 89-2번지 지상1층 ,127.05966789896601,37.517254068606704
2020,영업,어린이집,수서서머힐어린이집,서울특별시 강남구 수서동 712-0번지 지상2층 ,127.103552062194,37.4894614012726
2020,영업,어린이집,구립바롬어린이집,서울특별시 강남구 신사동 647-6번지 지하1층 ,127.036337367655,37.52531077048889
2020,영업,어린이집,청수어린이집,서울특별시 강남구 청담동 124-1번지 지상3층 ,127.049220339161,37.5250534902457
2020,영업,어린이집,다솔어린이집,서울특별시 강남구 개포동 1198-7번지 ,127.04906274516,37.47534576392921
2020,영업,어린이집,강남선재어린이집,서울특별시 강남구 대치동 916-23번지 지상1층 ,127.056334129744,37.5014588497954
2020,영업,어린이집,성심어린이집,서울특별시 광진구 중곡동 134-25번지 ,127.084964514818,37.5565888438511
2020,영업,어린이집,선우어린이집,서울특별시 강남구 도곡동 548-1번지 ,127.038492655349,37.490745299913
2020,폐업,어린이집,중곡1동어린이집,서울특별시 광진구 중곡동 258-17번지 ,127.079601914132,37.5609133263992
2020,영업,어린이집,성아어린이집,서울특별시 강남구 도곡동 515-15번지 ,127.043584722488,37.4840801075438
2020,영업,어린이집,민들레어린이집,서울특별시 강남구 수서동 723-0번지 지상1층 ,127.105122149538,37.4873037825343
2020,폐업,어린이집,자양4동어린이집,서울특별시 광진구 자양동 5-7번지 ,127.068372306187,37.539096065442
2020,영업,어린이집,강남어린이집,서울특별시 강남구 개포동 12-0번지 지상1층 ,127.075191406544,37.4941756707605
2020,영업,어린이집,중앙어린이집,서울특별시 광진구 자양동 615-28번지 ,127.078068456812,37.5329554102965
2020,영업,어린이집,신사어린이집,서울특별시 강남구 신사동 543-5번지 지하1층 ,127.02401104729799,37.5199918771792
2020,영업,어린이집,명성어린이집,서울특별시 광진구 구의동 248-5번지 ,127.086316509265,37.5400774791653
2020,영업,어린이집,명화어린이집,서울특별시 강남구 수서동 707-0번지 지상1층 ,127.10015362513599,37.4911237260586
2020,영업,어린이집,솔로몬어린이집,서울특별시 광진구 중곡동 191-36번지 ,127.08065203687,37.5665669158228
2020,영업,어린이집,군자어린이집,서울특별시 광진구 군자동 117-10번지 ,127.072666702977,37.5545832880111
2020,영업,어린이집,수서어린이집,서울특별시 강남구 수서동 450-2번지 ,127.099054643535,37.4861328789609
2020,영업,어린이집,구일어린이집,서울특별시 구로구 구로동 685-219번지 ,126.874364450301,37.4917311381906
2020,영업,어린이집,구립연화어린이집,서울특별시 강남구 논현동 114-24번지 논현문화복지회관3층 ,127.037210824581,37.517283199815104
2020,폐업,어린이집,참사랑어린이집,서울특별시 강남구 역삼동 657-27,127.036727653425,37.5060333184649
2020,영업,어린이집,동성어린이집,서울특별시 광진구 자양동 6-13번지 ,127.06767416617,37.539432095157
2020,영업,어린이집,목련어린이집,서울특별시 강남구 개포동 14-2번지 지상2층 ,127.07768189482401,37.4939862332378
2020,영업,어린이집,양재2동어린이집,서울특별시 서초구 양재동 341-8번지 (지하1층) ,127.044655577584,37.46911794788579
2020,영업,어린이집,즐거운어린이집,서울특별시 강서구 가양동 1481-0번지 (지상 1층) ,126.854574440511,37.563541153268396
2020,영업,어린이집,한솔어린이집,서울특별시 구로구 개봉동 64-10번지 ,126.84502084796699,37.50045496676979
2020,영업,어린이집,샬롬어린이집,서울특별시 성북구 보문동5가 41번지 ,127.01875737648999,37.583674853509706
2020,영업,어린이집,초망어린이집,서울특별시 강남구 삼성동 92-13번지 ,127.061846980701,37.516248461581704
2020,영업,어린이집,미래어린이집,서울특별시 구로구 구로동 751-14번지 ,126.887583802519,37.488095946645004
2020,영업,어린이집,돌곶이어린이집,서울특별시 성북구 석관동 343-61번지 ,127.055597484893,37.609681883391296
2020,영업,어린이집,영광어린이집,서울특별시 성북구 하월곡동 222-7번지 ,127.03828414285101,37.6056624949982
2020,영업,어린이집,국공립 돈암2동 어린이집,서울특별시 성북구 돈암동 609-1 한진A 406동,127.010292769897,37.59479797683621
2020,영업,어린이집,정릉1동어린이집,서울특별시 성북구 정릉동 966-100번지 ,127.016529024425,37.6029030899454
2020,영업,어린이집,웅지어린이집,서울특별시 성북구 길음동 877-255번지 ,127.02121510847799,37.6022577580909
2020,영업,어린이집,북악어린이집,서울특별시 성북구 정릉동 357번지 ,127.007831267103,37.6097876258168
2020,영업,어린이집,목화어린이집,서울특별시 성북구 하월곡동 52-6번지 ,127.039978160725,37.6043910383324
2020,영업,어린이집,성북어린이집,서울특별시 성북구 동소문동1가 1번지 ,127.00581995481701,37.589603249979604
2020,영업,어린이집,큰나무어린이집,서울특별시 성북구 상월곡동 산 8-10번지 ,127.051561583802,37.6033893944443
2020,영업,어린이집,효창어린이집,서울특별시 용산구 효창동 5-410번지 ,126.961358722209,37.5421765053649
2020,영업,어린이집,원광샛별어린이집,서울특별시 서초구 양재동 6-9번지 (지상1층) ,127.041698656779,37.482722035064704
2020,영업,어린이집,구립 사근다솜어린이집,서울특별시 성동구 사근동 223-22번지 ,127.045274961848,37.561393472466506
2020,영업,어린이집,헷세드어린이집,서울특별시 성동구 응봉동 275번지 신동아(아)상가 2층 ,127.02947632308998,37.5502423608696
2020,영업,어린이집,튼튼삐아제어린이집,서울특별시 성동구 행당동 347번지 대림(아) 제2관리사무소2층 ,127.027093261846,37.557892019540894
2020,영업,어린이집,꿈터어린이집,서울특별시 성동구 용답동 19-7번지 지상2층 ,127.055097221573,37.5624220525431
2020,영업,어린이집,우정어린이집,서울특별시 은평구 갈현동 298-10번지 ,126.915004678183,37.62563780079429
2020,영업,어린이집,중림어린이집,서울특별시 중구 만리동1가 62-12번지 ,126.96769109176,37.555664744572
2020,영업,유치원,양재천사유치원,서울특별시 서초구 양재동 154-2번지 지상 2층 ,127.02943401138599,37.4766089319275
2020,영업,어린이집,성동구청 무지개어린이집,서울특별시 성동구 행당동 142-1번지 ,127.03539829607,37.5591785988703
2020,영업,어린이집,구립서초남서울어린이집,서울특별시 서초구 잠원동 76-9번지 10 (지하1층) ,127.000861002945,37.5068687157615
2020,영업,어린이집,서문교회부설어린이집,서울특별시 은평구 응암동 577-57번지 ,126.916690410273,37.59156784414649
2020,영업,어린이집,수성어린이집,서울특별시 은평구 갈현동 275-124번지 ,126.913419655871,37.623570776750604
2020,영업,어린이집,상미어린이집,서울특별시 강동구 천호동 303-18번지 ,127.132287939457,37.546454174924506
2020,영업,어린이집,구립 나래어린이집,서울특별시 구로구 오류동 6-126번지 ,126.838789145385,37.496409513623796
2020,영업,어린이집,애지어린이집,서울특별시 강동구 둔촌동 452-2번지 ,127.14159518583999,37.531807073614395
2020,영업,어린이집,구립신바람어린이집,서울특별시 강동구 성내동 508-1,127.129342750444,37.5322227527368
2020,영업,어린이집,구립고덕2동어린이집,서울특별시 강동구 고덕동 258-7,127.161709396629,37.5607649760506
2020,영업,어린이집,구립강동어린이집,서울특별시 강동구 암사동 414-2번지 ,127.142009127143,37.5564321686086
2020,영업,어린이집,구립곡교어린이집,서울특별시 강동구 천호동 362-60번지 ,127.12827865866801,37.5434049903477
2020,영업,어린이집,천호어린이집,서울특별시 강동구 천호동 48-2번지 ,127.138531192663,37.5437403618941
2020,영업,어린이집,구립빗살어린이집,서울특별시 강동구 천호동 340-39,127.123631036891,37.5426538686894
2020,영업,어린이집,강동복지관어린이집,서울특별시 강동구 천호동 555번지 ,127.129753452397,37.5399175029955
2020,영업,어린이집,구립둔촌어린이집,서울특별시 강동구 둔촌동 81-4번지 ,127.14303349597401,37.5305940617125
2020,영업,어린이집,구립상계어린이집,서울특별시 노원구 상계동 101-135번지 ,127.078415125692,37.667925868870505
2020,영업,어린이집,구립성내삼어린이집,서울특별시 강동구 성내동 446-30번지 ,127.130354272444,37.5247881224184
2020,영업,어린이집,구립성내일어린이집,서울특별시 강동구 성내동 521-7번지 ,127.12686700654899,37.5305533500659
2020,영업,어린이집,구립청소년회관어린이집,서울특별시 강동구 명일동 327-6,127.146219065954,37.5497526730914
2020,영업,어린이집,사랑어린이집,서울특별시 강동구 둔촌동 94-3번지 ,127.14362689699301,37.5289379661882
2020,폐업,어린이집,청포도어린이집,서울특별시 강동구 명일동 336-2번지 ,127.144479914324,37.548441911218
2020,영업,어린이집,향기로운어린이집,서울특별시 강동구 명일동 350-1번지 ,127.145332214666,37.5447086785842
2020,영업,어린이집,푸르니서초어린이집,서울특별시 서초구 서초동 1607-5 푸르니서초어린이집1층,127.02376033253799,37.4874550925876
2020,영업,어린이집,요한어린이집,서울특별시 강북구 미아동 301-10번지 ,127.02303427304399,37.6246936618739
2020,영업,어린이집,한세어린이집,서울특별시 강동구 성내동 196-8번지 ,127.13233716706301,37.5343526228435
2020,영업,어린이집,세화어린이집,서울특별시 구로구 구로동 745-74번지 ,126.886186710564,37.4869652927672
2020,영업,어린이집,탐구어린이집,서울특별시 강북구 미아동 87-141번지 ,127.033728052612,37.6161056723715
2020,영업,어린이집,인수동 어린이집,서울특별시 강북구 수유동 355-8번지 ,127.01410982049299,37.641480086799895
2020,영업,유치원,화계유치원,서울특별시 강북구 수유동 118-1번지 화계유치원 ,127.018824738669,37.6345527704542
2020,폐업,어린이집,구립삼각산동어린이집,서울특별시 강북구 미아동 1357-5번지 삼각산아이원프러스 101호 ,127.017456879815,37.616773328263996
2020,영업,어린이집,신광어린이집,서울특별시 강동구 암사동 495-56번지 ,127.13091251481899,37.5495922009227
2020,영업,어린이집,구립 율곡 어린이집,서울특별시 강북구 미아동 258-733번지 ,127.031669657451,37.6255863223064
2020,영업,어린이집,앨리스어린이집,서울특별시 강동구 암사동 457-43번지 (3층) ,127.135132308051,37.5540913029061
2020,영업,어린이집,구립삼양어린이집,서울특별시 강북구 미아동 791-469번지 구립삼양어린이집 ,127.019928526232,37.6277159369104
2020,영업,어린이집,제일어린이집,서울특별시 강북구 우이동 139-10번지 ,127.01072930343,37.6593006329062
2020,영업,어린이집,구립송중동어린이집,서울특별시 강북구 미아동 1356-1번지 송중동어린이집 ,127.03508285722401,37.6139779872531
2020,영업,어린이집,구립송천동어린이집,서울특별시 강북구 미아동 403-44번지 ,127.024330388867,37.617474332315
2020,영업,어린이집,삼동어린이집,서울특별시 강북구 번동 241번지 주공@ 202동 ,127.045313831467,37.6265585944085
2020,영업,어린이집,미아2동어린이집,서울특별시 강북구 미아동 791-3784번지 ,127.011848948351,37.6254591384203
2020,영업,어린이집,번2동어린이집,서울특별시 강북구 번동 520번지 ,127.03199757496701,37.633721236926
2020,영업,어린이집,구립 아람 어린이집,서울특별시 강북구 미아동 791-2119번지 ,127.01682962388901,37.6216765893715
2020,영업,유치원,꿈터유치원,서울특별시 노원구 상계동 995번지 ,127.059175442997,37.672975342621996
2020,영업,유치원,서울화일초등학교서울화일초등학교병설유치원,서울특별시 강서구 화곡동 61-184번지 ,126.847506412911,37.5406036416333
2020,폐업,어린이집,은나래어린이집,서울특별시 노원구 상계동 1264번지 은빛아파트3단지 ,127.056663349002,37.6829683407088
2020,폐업,유치원,학림어린이집유치원,서울특별시 노원구 상계동 363-2번지 ,127.06458477558701,37.6578326832417
2020,폐업,어린이집,학림어린이집유치원,서울특별시 노원구 상계동 363-2번지 ,127.06458477558701,37.6578326832417
2020,영업,유치원,하나유치원,서울특별시 강북구 미아동 1353번지 SK단지내 ,127.0126043952,37.617966180455
2020,영업,유치원,사랑샘유치원,서울특별시 노원구 중계동 358-6번지 ,127.077682796144,37.6563855795279
2020,영업,어린이집,꽃동산어린이집,서울특별시 서초구 방배동 458-38번지 ,126.986409664855,37.481155678249294
2020,영업,어린이집,중계어린이집,서울특별시 노원구 중계동 364-5번지 ,127.080735681222,37.650019038231704
2020,영업,유치원,한성유치원,서울특별시 노원구 하계동 256-5 한신동성아파트,127.075222680242,37.6404268164291
2020,영업,어린이집,북부어린이집,서울특별시 노원구 상계동 1257번지 ,127.052375429018,37.6795922718895
2020,영업,어린이집,예대어린이집,서울특별시 노원구 상계동 135-13번지 ,127.069421412312,37.6665629228958
2020,폐업,어린이집,미광어린이집,서울특별시 노원구 공릉동 81 태강아파트관리동,127.083160932661,37.623490861522605
2020,영업,어린이집,상계4동어린이집,서울특별시 노원구 상계동 48-11번지 상계4동어린이집 ,127.08323656796699,37.671933822598
2020,영업,어린이집,비선어린이집,서울특별시 노원구 공릉동 109번지 ,127.087330188945,37.6257646452175
2020,영업,어린이집,청은어린이집,서울특별시 노원구 중계동 314번지 ,127.076194751977,37.6457056393203
2020,영업,어린이집,교육촌어린이집,서울특별시 노원구 월계동 534-137번지 ,127.052761846173,37.6226853227801
2020,영업,어린이집,엘림어린이집,서울특별시 노원구 공릉동 714-1번지 ,127.072072475137,37.6292735830802
2020,영업,어린이집,세네동어린이집,서울특별시 노원구 상계동 64-22번지 세네동어린이집 ,127.080440276178,37.6710873432257
2020,영업,어린이집,평화어린이집,서울특별시 노원구 중계동 514-3번지 시영3단지목련아파트 ,127.068983213528,37.6464994856214
2020,폐업,어린이집,현대호호어린이집,서울특별시 노원구 월계동 929번지 현대아파트단지내 ,127.06255575388201,37.61854409924121
2020,영업,어린이집,사슴어린이집,서울특별시 노원구 월계동 320-11번지 월계사슴3단지아파트 ,127.059659689025,37.6317203942305
2020,영업,어린이집,순복음어린이집,서울특별시 노원구 상계동 322-14번지 ,127.067397654105,37.655923245031
2020,영업,유치원,고덕한울 유치원,서울특별시 강동구 고덕동 486,127.145948615362,37.5578784110469
2020,영업,유치원,한성유치원,서울특별시 강동구 길동 91-12번지,127.14685567648701,37.5411683642363
2020,영업,어린이집,은빛어린이집,서울특별시 노원구 상계동 1256번지 은빛@2단지내 ,127.053477219454,37.679953654199295
2020,영업,어린이집,서울시청직장어린이집,서울특별시 중구 서소문동 37,126.974415412873,37.5642983797701
2020,폐업,어린이집,(주)예크트리,서울특별시 강동구 길동 399-4,127.14268275228399,37.53784568134649
2020,영업,유치원,그리새유치원,서울특별시 강동구 길동 397-9번지 ,127.141946002044,37.5370914048407
2020,영업,유치원,근화유치원,서울특별시 강동구 명일동 44,127.1520840016,37.5537306332579
2020,영업,유치원,성보나유치원,서울특별시 강동구 고덕동 177-8,127.16917398124501,37.5597568273234
2020,영업,유치원,녹원유치원,서울특별시 강동구 명일동 242-3번지 ,127.15354505240101,37.5484925203444
2020,영업,유치원,유정유치원,서울특별시 강동구 성내동 430-6번지 유정유치원 ,127.133786480583,37.5259541964921
2020,영업,유치원,명덕유치원,서울특별시 강동구 고덕동 639-2,127.153148580501,37.5598697998675
2020,영업,유치원,예슬유치원,서울특별시 강동구 암사동 509번지 ,127.125789357058,37.552387845966
2020,영업,유치원,은새유치원,서울특별시 강동구 명일동 42번지 ,127.15189386471901,37.551145963655706
2020,영업,유치원,오송유치원,서울특별시 강동구 천호동 302-10,127.131885362365,37.545845570247
2020,영업,유치원,둔촌유치원,서울특별시 강동구 둔촌동 483번지 ,127.139690963694,37.5313911833516
2020,영업,유치원,(재)천주교서울대교구유지재단 천호유치원,서울특별시 강동구 천호동 397-413,127.13137032954901,37.5414032252919
2020,영업,유치원,가람유치원,서울특별시 강동구 명일동 237-2번지 가람유치원 ,127.153913086322,37.5482657315308
2020,영업,유치원,준현유치원,서울특별시 강동구 성내동 590번지 ,127.12596320500799,37.5307519666891
2020,영업,어린이집,늘푸른어린이집,서울특별시 노원구 상계동 688번지 늘푸른어린이집 ,127.06487078344,37.65943842461
2020,영업,어린이집,꿈빛어린이집,서울특별시 노원구 월계동 600번지 꿈빛어린이집 ,127.055958309326,37.6291940465069
2020,영업,유치원,대원유치원,서울특별시 노원구 상계동 629번지 주공@14단지내 대원유치원 ,127.058708858636,37.667800733214506
2020,영업,어린이집,한국성서대학교어린이집,서울특별시 노원구 상계동 205-4번지 한국성서대학교내 ,127.064209541651,37.6485904721505
2020,영업,어린이집,경일어린이집,서울특별시 도봉구 방학동 635-5번지 ,127.034886792615,37.666456857899604
2020,폐업,어린이집,구립청능어린이집,서울특별시 관악구 봉천동 1584-18번지 ,126.947709806581,37.4781927158944
2020,영업,어린이집,서울선교어린이집,서울특별시 관악구 봉천동 291-1번지 ,126.959849257522,37.4741506691901
2020,영업,어린이집,청룡어린이집,서울특별시 관악구 봉천동 1544-1 보육시설,126.942072179899,37.47878285037871
2020,영업,어린이집,노유은성어린이집,서울특별시 광진구 자양동 53-9번지 ,127.063773468678,37.5356609553823
2020,영업,어린이집,구의2동어린이집,서울특별시 광진구 구의동 36-20번지 ,127.096242263971,37.5501900921911
2020,영업,어린이집,구립동산어린이집,서울특별시 관악구 신림동 254-5번지 구립 동산 어린이집 ,126.935155370874,37.465919587779496
2020,영업,어린이집,월계3동 어린이집,서울특별시 노원구 월계동 18번지 그랑빌아파트 ,127.068541689114,37.6177937190013
2020,영업,어린이집,화송어린이집,서울특별시 광진구 화양동 32-3번지 ,127.068025487592,37.5461826829228
2020,영업,어린이집,수유1동어린이집,서울특별시 강북구 수유동 468-147번지 ,127.015681492377,37.6314168327347
2020,영업,유치원,서울유치원,서울특별시 관악구 봉천동 1703-1번지 ,126.956156456735,37.487887998358296
2020,영업,어린이집,합실어린이집,서울특별시 관악구 신림동 1714-2번지 ,126.925419206005,37.464036996824
2020,영업,어린이집,사랑의어린이집,서울특별시 광진구 광장동 472-1번지 ,127.097109049375,37.541036409605
2020,영업,어린이집,중곡샛별어린이집,서울특별시 광진구 중곡동 587-8번지 ,127.08024468475,37.57093928234711
2020,영업,어린이집,자양어린이집,서울특별시 광진구 자양동 581-2번지 ,127.075205909324,37.532889010465496
2020,영업,어린이집,율곡어린이집,서울특별시 관악구 신림동 산 69-2번지 ,126.93213345947201,37.4617783006529
2020,영업,어린이집,구립금강어린이집,서울특별시 관악구 신림동 91-50번지 ,126.933438081079,37.4793918342757
2020,영업,어린이집,서원어린이집,서울특별시 관악구 신림동 409-197번지 ,126.934126606089,37.476938266934
2020,영업,어린이집,우림어린이집,서울특별시 은평구 대조동 212-35번지 ,126.91837388223,37.6123815545044
2020,영업,어린이집,신당5동어린이집,서울특별시 중구 신당동 67-12번지 ,127.02080347834699,37.5629913416375
2020,영업,어린이집,남산 숲 어린이집,서울특별시 중구 신당동 366-480번지 ,127.00889458847999,37.5465044853214
2020,폐업,어린이집,국공립 황학어린이집,서울특별시 중구 황학동 1457 지하1층,127.022301823047,37.5687412847619
2020,영업,어린이집,약수어린이집,서울특별시 중구 신당동 366-19번지 ,127.00921645250601,37.5523194681648
2020,영업,어린이집,구립당곡어린이집,서울특별시 관악구 봉천동 963-5번지 ,126.935335560065,37.4867098332516
2020,영업,어린이집,청구 어린이집,서울특별시 중구 신당동 333-177번지,127.01672312689101,37.5571836345838
2020,영업,어린이집,구립미림어린이집,서울특별시 관악구 신림동 300-7번지 ,126.930917555012,37.4663978829359
2020,영업,어린이집,동화나라 어린이집,서울특별시 중구 신당동 52-154번지 ,127.01924778030799,37.561539169575
2020,영업,어린이집,구립새들어린이집,서울특별시 관악구 신림동 1440-15번지 ,126.92642124063299,37.4877555907199
2020,영업,유치원,현대유치원,서울특별시 관악구 봉천동 1000번지 ,126.95844937284599,37.492255796703795
2020,영업,어린이집,회현어린이집,서울특별시 중구 회현동1가 100-72번지 ,126.98089119687,37.5559957333946
2020,영업,어린이집,충무어린이집,서울특별시 중구 묵정동 21-4번지 ,127.001726566036,37.5602569549323
2020,영업,어린이집,가명어린이집,서울특별시 중구 중림동 149-2번지 ,126.967223037283,37.5590645017077
2020,폐업,어린이집,만리어린이집,서울특별시 중구 만리동2가 37-2번지 1층 ,126.963940888797,37.55490908619221
2020,영업,어린이집,구립우리꿈어린이집,서울특별시 관악구 봉천동 1718-1번지 ,126.94268092182101,37.4917922117706
2020,영업,어린이집,필동어린이집,서울특별시 중구 필동2가 116-1번지 ,126.995468186303,37.5576891545338
2020,영업,어린이집,단우물어린이집,서울특별시 중구 황학동 755번지 ,127.018097768782,37.56751985645021
2020,영업,어린이집,영락교회어린이집,서울특별시 중구 저동2가 61-10번지 ,126.989188536949,37.563233856013106
2020,영업,어린이집,중구청 직장어린이집,서울특별시 중구 충무로5가 22-3번지 외2필지(지상3층) ,127.001176617593,37.5638126771775
2020,영업,어린이집,구립구암어린이집,서울특별시 관악구 봉천동 1712-1번지 ,126.948131877743,37.49163983422729
2020,영업,어린이집,구립상록어린이집,서울특별시 관악구 신림동 1635-60번지 ,126.928480039754,37.480003504521605
2020,영업,어린이집,신당동어린이집,서울특별시 중구 신당동 304-720번지 신당동어린이집 ,127.014172422586,37.562188120497204
2020,영업,어린이집,을지어린이집,서울특별시 중구 주교동 321번지 ,127.00050798309799,37.5677345788281
2020,영업,어린이집,약수교회어린이집,서울특별시 중구 신당동 372-87번지 ,127.011180503025,37.552352456611295
2020,영업,어린이집,성혜어린이집,서울특별시 관악구 신림동 661-52번지 ,126.92196118838801,37.465981467583106
2020,영업,어린이집,이레어린이집,서울특별시 중구 신당동 333-47번지 ,127.013967593001,37.5568980420039
2020,영업,어린이집,구립복은어린이집,서울특별시 관악구 신림동 108-51번지 ,126.936707540669,37.4732722199426
2020,영업,어린이집,종아홍익어린이집,서울특별시 중구 신당동 840번지 현대아파트단지내 ,127.021734109298,37.5599624442816
2020,영업,어린이집,백운교회어린이집,서울특별시 강북구 수유동 543-1번지 ,127.010184760676,37.644594323708795
2020,영업,어린이집,초롱어린이집,서울특별시 강북구 미아동 126-31번지 ,127.02759792191799,37.6234110586075
2020,영업,어린이집,이화어린이집,서울특별시 성북구 정릉동 692-21번지 ,127.00459120972,37.609177329523
2020,영업,어린이집,신기어린이집,서울특별시 강북구 수유동 472-236번지 ,127.017006794198,37.6309440605095
2020,영업,어린이집,비안어린이집,서울특별시 관악구 봉천동 1524-36번지 ,126.939341300003,37.4815951235273
2020,영업,어린이집,별밭어린이집,서울특별시 강북구 미아동 345-1번지 ,127.024462086513,37.6196827548301
2020,영업,어린이집,효성어린이집,서울특별시 강북구 미아동 3-878번지 ,127.03252326528099,37.6191090718285
2020,영업,어린이집,비테에어린이집,서울특별시 강북구 미아동 1353번지 SK북한산@ 복지회관2층 ,127.0126043952,37.617966180455
2020,영업,어린이집,동양어린이집,서울특별시 강북구 번동 148-308번지 ,127.03382571206801,37.626256306642
2020,영업,어린이집,예지어린이집,서울특별시 관악구 신림동 646-447번지 ,126.922901056351,37.4710348058899
2020,영업,어린이집,꼬꼬마어린이집,서울특별시 강북구 번동 177-2번지 ,127.042008327069,37.6276343933963
2020,폐업,어린이집,예닮어린이집,서울특별시 강북구 번동 430-66,127.03565151689301,37.634911309657895
2020,영업,어린이집,구세군강북어린이집,서울특별시 강북구 미아동 791-1509번지 ,127.013382224967,37.6256756615863
2020,영업,어린이집,세종어린이집,서울특별시 강북구 미아동 791-1618번지 ,127.016023485516,37.6255685310254
2020,영업,어린이집,나이팅게일어린이집,서울특별시 강북구 수유동 269-28번지 ,127.01862641900499,37.64667068256961
2020,영업,어린이집,솔로몬영재어린이집,서울특별시 강북구 수유동 484번지 ,127.015717439303,37.628921230572296
2020,영업,어린이집,미래연어린이집,서울특별시 동작구 사당동 300-2번지 ,126.97142207308701,37.4802434673459
2020,영업,어린이집,자연어린이집,서울특별시 강북구 번동 155-5번지 ,127.039204397161,37.627879032547895
2020,영업,어린이집,구립초록나라어린이집,서울특별시 강북구 미아동 791-1873번지 ,127.01303180253001,37.6240633528241
2020,영업,어린이집,한둘어린이집,서울특별시 강북구 우이동 46-2번지 ,127.012825524653,37.658516963827296
2020,폐업,어린이집,보물섬어린이집,서울특별시 동작구 노량진동 292-1,126.93684642746099,37.5096294258015
2020,영업,어린이집,나나어린이집,서울특별시 강북구 수유동 56-170번지 ,127.01978308434099,37.63185026667529
2020,영업,어린이집,강북솔로몬어린이집,서울특별시 강북구 미아동 760-3번지 ,127.017954417835,37.6227046666715
2020,영업,어린이집,예지원어린이집,서울특별시 강북구 수유동 392-54번지 ,127.01758904624901,37.638730998497294
2020,영업,어린이집,삼선뜰어린이집,서울특별시 성북구 삼선동3가 68-2번지 ,127.013636240803,37.5864050531677
2020,영업,어린이집,삼성어린이집,서울특별시 강북구 수유동 730번지 삼성@ 단지내 ,127.018036605573,37.6446994179724
2020,영업,어린이집,동선어린이집,서울특별시 성북구 동소문동7가 10-5번지 ,127.015157644921,37.5953793169866
2020,영업,어린이집,행당한신어린이집,서울특별시 성동구 행당동 349번지 한신플러스아파트 관리사무소 2층 ,127.03622864225201,37.5551199187704
2020,영업,어린이집,노벨어린이집,서울특별시 동작구 상도동 413-0번지 ,126.944593889769,37.4971320059589
2020,영업,어린이집,숲속어린이집,서울특별시 동작구 대방동 44-197번지 ,126.933312025792,37.5101302552173
2020,영업,어린이집,백송어린이집,서울특별시 용산구 효창동 2-50번지 ,126.96329263506,37.5434963110406
2020,영업,어린이집,솔어린이집,서울특별시 용산구 보광동 217-32번지 (3층) ,127.00008228542102,37.526255141736996
2020,영업,어린이집,구립이수어린이집,서울특별시 동작구 사당동 41-42,126.980702183082,37.4915951525199
2020,영업,어린이집,기쁨어린이집,서울특별시 금천구 독산동 1006-144번지 기쁨어린이집독산1동 청소년독서실 ,126.893497812182,37.4644660787388
2020,영업,어린이집,둥지어린이집,서울특별시 동작구 사당동 268-6번지 사당종합사회복지관 ,126.97136802212299,37.4832598972771
2020,영업,어린이집,황성영재어린이집,서울특별시 금천구 시흥동 799-35번지 ,126.907001614652,37.460991564123
2020,영업,어린이집,꿈동산어린이집,서울특별시 금천구 시흥동 814-14번지 ,126.905765242745,37.456754371308996
2020,영업,어린이집,구립탑골어린이집,서울특별시 금천구 시흥동 267-9번지 금천복지타운 ,126.914483518916,37.449604499059994
2020,영업,어린이집,소망어린이집,서울특별시 금천구 독산동 331-41번지 지상1층 ,126.893657298235,37.46682934579721
2020,영업,어린이집,세광어린이집,서울특별시 금천구 시흥동 813-20번지 ,126.90553927464701,37.4583427414191
2020,영업,어린이집,우리어린이집,서울특별시 서대문구 홍제동 287-121번지 ,126.947882932624,37.5972964319109
2020,영업,어린이집,고은어린이집,서울특별시 서대문구 홍제동 157-92번지 ,126.945415894572,37.5858247597667
2020,영업,어린이집,자람어린이집,서울특별시 강남구 일원동 677-9번지 지상3층 ,127.082942421618,37.4916812563773
2020,영업,어린이집,홍제어린이집,서울특별시 서대문구 홍제동 92-1번지 ,126.948462862922,37.5839343211196
2020,영업,어린이집,구립연희어린이집,서울특별시 서대문구 연희동 151-29번지 ,126.93425503396601,37.5770798368962
2020,영업,어린이집,YWCA또래또어린이집,서울특별시 동작구 상도동 298-19번지 ,126.9314317343,37.497094814527294
2020,영업,어린이집,금화어린이집,서울특별시 서대문구 천연동 110번지 ,126.96104537654399,37.5681344038015
2020,영업,어린이집,성진어린이집,서울특별시 동작구 사당동 1022-15번지 성진교회 ,126.977184501392,37.4809795397787
2020,영업,어린이집,하나어린이집,서울특별시 동작구 사당동 419-19번지 ,126.975029813866,37.4780509971448
2020,영업,어린이집,예슬어린이집,서울특별시 동작구 사당동 291-5번지 ,126.969329898717,37.4806640151495
2020,영업,유치원,참사랑유치원,서울특별시 금천구 독산동 711-2번지 ,126.89036139480301,37.4622510917075
2020,영업,어린이집,석관어린이집,서울특별시 성북구 석관동 384-39번지 ,127.062791270727,37.6133705787286
2020,영업,어린이집,서대문어린이집,서울특별시 서대문구 북가좌동 325-44번지 ,126.910256216373,37.5825100743606
2020,영업,어린이집,예뜨랑어린이집,서울특별시 노원구 공릉동 569-22번지 ,127.073023813492,37.621993007157
2020,영업,어린이집,구립우정어린이집,서울특별시 서대문구 연희동 290-3번지 ,126.93113954726299,37.5653231244595
2020,영업,어린이집,짐랜드어린이집,서울특별시 강북구 수유동 221-20번지 ,127.023092891427,37.63942949443521
2020,영업,어린이집,주영광어린이집,서울특별시 강북구 번동 461-66번지 ,127.029923190573,37.6383215960492
2020,영업,어린이집,동방어린이집,서울특별시 서대문구 남가좌동 115-63번지 ,126.920245967104,37.5714535893916
2020,영업,어린이집,환희어린이집,서울특별시 서대문구 남가좌동 342-32번지 ,126.92437189101601,37.5783054630312
2020,영업,어린이집,가좌제일어린이집,서울특별시 서대문구 북가좌동 186-115번지 ,126.907314442565,37.576499786503604
2020,영업,어린이집,큰돌몬테소리어린이집,서울특별시 금천구 시흥동 3-66번지 큰돌어린이집 ,126.91027741065399,37.4624144117251
2020,영업,어린이집,중계1동어린이집,서울특별시 노원구 중계동 413-18번지 ,127.071979284172,37.651108603857296
2020,영업,어린이집,서초중앙어린이집,서울특별시 서초구 방배동 530-55번지 3층 ,126.98907257479799,37.47681943412178
2020,영업,어린이집,구립월곡어린이집,서울특별시 성북구 하월곡동 222-5번지 ,127.037445243267,37.608868155644004
2020,영업,어린이집,서머힐어린이집,서울특별시 도봉구 쌍문동 520-46번지 ,127.015520677676,37.6569815542461
2020,영업,어린이집,새싹어린이집,서울특별시 도봉구 방학동 611-12번지 (지상4층) ,127.031376627416,37.6682740358445
2020,영업,어린이집,유유어린이집,서울특별시 도봉구 창동 263-28번지 ,127.044708543663,37.6545161829348
2020,영업,어린이집,또래또어린이집,서울특별시 도봉구 쌍문동 26-49번지 (지상3층) ,127.036458056453,37.6603734172766
2020,영업,어린이집,종암어린이집,서울특별시 성북구 종암동 79-236번지 ,127.033191458989,37.5997352548256
2020,영업,어린이집,삼성짐키드어린이집,서울특별시 동작구 상도동 431번지 삼성래미안아파트내 ,126.954709130079,37.4993418211211
2020,영업,어린이집,새싹어린이집,서울특별시 성북구 하월곡동 96-156번지 ,127.03232109413099,37.6095297484565
2020,영업,어린이집,온터어린이집,서울특별시 성북구 정릉동 산 1-293번지 ,127.001260240643,37.6111895734976
2020,폐업,어린이집,영재어린이집,서울특별시 동작구 대방동 17-31번지 ,126.931802892536,37.5088413638487
2020,영업,어린이집,구립상도어린이집,서울특별시 동작구 상도동 159-403,126.94641957445299,37.5024662656893
2020,폐업,어린이집,아롱다롱어린이집,서울특별시 동작구 사당동 1020-40,126.980668228409,37.4807980272699
2020,영업,어린이집,한우리예체능 어린이집,서울특별시 도봉구 창동 501-16번지 ,127.040701940354,37.6340718754175
2020,영업,어린이집,솔샘어린이집,서울특별시 성북구 정릉동 266-11번지 ,127.01107137594299,37.6137855729536
2020,폐업,어린이집,파랑어린이집,서울특별시 광진구 자양동 16-3,127.064721650145,37.5411111328053
2020,폐업,어린이집,구립도담어린이집,서울특별시 관악구 봉천동 1-85,126.95832660014601,37.4897379059519
2020,영업,어린이집,광진어린이집,서울특별시 광진구 자양동 223-7번지 ,127.078635835852,37.5372030743226
2020,폐업,어린이집,예슬어린이집,서울특별시 관악구 봉천동 933-3번지 ,126.941200795616,37.483928823863
2020,영업,어린이집,서연어린이집,서울특별시 서대문구 연희동 527-15번지 ,126.92564462914301,37.5736742587857
2020,영업,어린이집,구립큰나무어린이집,서울특별시 동작구 사당동 228-11,126.966910891961,37.4856704673077
2020,폐업,어린이집,칼비테어린이집,서울특별시 동작구 사당동 1033-10,126.97943496263001,37.4788575852115
2020,영업,어린이집,연꽃어린이집,서울특별시 동작구 상도동 283-226번지 1층 ,126.936306501315,37.4932215626274
2020,영업,어린이집,예담어린이집,서울특별시 동작구 상도동 511번지 ,126.957198003367,37.4963437178081
2020,영업,어린이집,장석어린이집,서울특별시 성북구 장위동 112-1번지 ,127.057005259465,37.615298846167995
2020,영업,어린이집,예나 어린이집,서울특별시 도봉구 방학동 644-29번지 ,127.03884604869499,37.6689848443396
2020,영업,어린이집,푸른어린이집,서울특별시 관악구 봉천동 213-10번지 ,126.960098199666,37.475138318591
2020,영업,어린이집,은가어린이집,서울특별시 서대문구 북가좌동 280-27번지 ,126.914865835884,37.582293060904
2020,영업,어린이집,구립우리어린이집,서울특별시 동작구 사당동 235-61,126.96721104194201,37.4829651331725
2020,영업,유치원,소망유치원,서울특별시 동작구 흑석동 10-0번지 ,126.966910378393,37.50785797791121
2020,영업,어린이집,명지대학교어린이집,서울특별시 서대문구 남가좌동 50-3번지 ,126.923094704866,37.5802157031977
2020,영업,어린이집,구립공릉어린이집,서울특별시 노원구 공릉동 389-4번지 ,127.07533893426701,37.6271273611581
2020,영업,어린이집,구립마장현대어린이집,서울특별시 성동구 마장동 818번지 현대아파트관리동 1층 ,127.042522565199,37.569450071391
2020,영업,어린이집,아현어린이집,서울특별시 서대문구 북아현동 950-1번지 ,126.95899812340099,37.5578392804782
2020,영업,어린이집,홍연어린이집,서울특별시 서대문구 연희동 170-5번지 ,126.933191534209,37.57799386905021
2020,영업,어린이집,예꼴예능어린이집,서울특별시 서대문구 현저동 200번지 극동아파트 단지내 ,126.95674177557,37.572024231677496
2020,영업,어린이집,금빛어린이집,서울특별시 관악구 봉천동 1634-17번지 ,126.965192752615,37.4753507128755
2020,영업,어린이집,구립상계2동어린이집,서울특별시 노원구 상계동 360-5번지 ,127.063314361455,37.6584838056421
2020,영업,어린이집,구립선봉어린이집,서울특별시 관악구 봉천동 942-29번지 ,126.93957084238701,37.4851759229105
2020,영업,어린이집,자연어린이집,서울특별시 송파구 가락동 170-8번지 ,127.134336210594,37.4971448228357
2020,영업,어린이집,독립문어린이집,서울특별시 서대문구 영천동 100번지 ,126.958423022166,37.5702999540931
2020,영업,어린이집,이편한어린이집,서울특별시 구로구 신도림동 642번지 외1필지 신도림대림아파트관리동 1층 ,126.880566425287,37.5058335628818
2020,영업,어린이집,열린이레어린이집,서울특별시 송파구 가락동 197-3번지 ,127.13158659470301,37.4925763311539
2020,영업,어린이집,문화어린이집,서울특별시 동작구 사당동 1131-4번지 ,126.972358519181,37.4851936642029
2020,영업,어린이집,구의3동어린이집,서울특별시 광진구 구의동 199-21번지 ,127.09508837853399,37.5393353361432
2020,영업,유치원,예쁨유치원,서울특별시 구로구 온수동 73-1번지 ,126.81731690787599,37.495172902671
2020,영업,어린이집,명랑어린이집,서울특별시 서대문구 홍제동 361-38번지 ,126.937015700301,37.58340212318429
2020,영업,어린이집,광진구청직장어린이집,서울특별시 광진구 자양동 777번지 ,127.082424058178,37.5384106918361
2020,영업,어린이집,청호빅스맘어린이집,서울특별시 동작구 흑석동 327번지 ,126.96306886244899,37.501311888093795
2020,영업,어린이집,세모네모어린이집,서울특별시 중랑구 중화동 304-29번지 ,127.07862631106701,37.6002050789608
2020,영업,유치원,미림유치원,서울특별시 구로구 개봉동 259-35번지 ,126.857935440788,37.49086034779521
2020,폐업,어린이집,신영창의어린이집,서울특별시 성동구 하왕십리동 976-13번지 ,127.031982293824,37.560897252583
2020,영업,어린이집,참사랑어린이집,서울특별시 동작구 사당동 1012-23번지 ,126.977468950495,37.4827786629893
2020,영업,어린이집,예성어린이집,서울특별시 동작구 사당동 1006-28번지 ,126.980772675991,37.483765622665295
2020,폐업,어린이집,상도중앙어린이집,서울특별시 동작구 상도동 331-149,126.932373255279,37.502007071649
2020,영업,어린이집,구립양지어린이집,서울특별시 동작구 사당동 1133번지 ,126.970429589491,37.489166920071796
2020,영업,어린이집,재원몬테소리어린이집,서울특별시 동작구 상도동 422번지 ,126.957134539515,37.498053726874296
2020,영업,어린이집,구립양지어린이집,서울특별시 관악구 신림동 352-1번지 ,126.928451429002,37.4687026667583
2020,영업,어린이집,노량진2동어린이집,서울특별시 동작구 노량진동 314-21번지 ,126.93901495418501,37.5069042268305
2020,영업,어린이집,구립반포1동어린이집,서울특별시 서초구 반포동 703-1 지하1층,127.018449931819,37.5099943124568
2020,영업,유치원,정훈유치원,서울특별시 구로구 개봉동 476번지 한마을아파트 ,126.86247763370199,37.4952528060062
2020,영업,어린이집,한솔어린이집,서울특별시 중구 신당동 844번지 남산타운재개발임대(아)관리동1층 ,127.009255376042,37.549003660166704
2020,영업,유치원,동부유치원,서울특별시 구로구 오류동 338번지 동부골든아파트내 ,126.839507424711,37.4992788579199
2020,영업,유치원,동아유치원,서울특별시 구로구 신도림동 643번지 동아1차아파트 단지내 ,126.88292787851499,37.511030470497495
2020,영업,유치원,혜원유치원,서울특별시 구로구 오류동 18-8번지 ,126.84233760837601,37.49935941186
2020,폐업,유치원,서울아람유치원,서울특별시 구로구 개봉동 115-9번지 ,126.846152429527,37.504596685687105
2020,영업,유치원,나비유치원,서울특별시 구로구 오류동 14-391번지 ,126.83980961941002,37.497509660858796
2020,영업,유치원,목원유치원,서울특별시 구로구 개봉동 481번지 ,126.85847249768999,37.4920656136762
2020,영업,유치원,동정성모유치원,서울특별시 구로구 오류동 108-80번지 ,126.827208203939,37.4898023444408
2020,영업,유치원,신도유치원,서울특별시 구로구 구로동 700-55번지 ,126.87754726264099,37.4892467111498
2020,영업,유치원,새두산유치원,서울특별시 구로구 구로동 1265번지 두산아파트 단지내 ,126.88923540371,37.48932955240721
2020,영업,어린이집,하계어린이집,서울특별시 노원구 하계동 252-13번지 ,127.076497384975,37.63694568598
2020,영업,어린이집,자연아이발트슐레어린이집,서울특별시 중랑구 묵동 122-356번지 ,127.078461582148,37.609292424151896
2020,영업,유치원,세희유치원,서울특별시 구로구 구로동 1257번지 럭키아파트 단지내 ,126.894046419195,37.4919999541532
2020,영업,어린이집,구립새빛어린이집,서울특별시 관악구 신림동 501-30번지 ,126.9151459775,37.486267238137295
2020,영업,어린이집,동우어린이나라어린이집,서울특별시 서대문구 북아현동 1-418번지 ,126.95722157398501,37.565531277111894
2020,영업,어린이집,아가랑어린이집,서울특별시 노원구 월계동 777번지 ,127.05075332015,37.6325004624669
2020,영업,어린이집,구립 별하어린이집,서울특별시 성동구 마장동 766-24번지 ,127.043025507316,37.5681035501141
2020,영업,어린이집,초원어린이집,서울특별시 중랑구 신내동 441-21번지 ,127.099695410116,37.60362010235279
2020,영업,어린이집,몬데소리어린이집,서울특별시 중랑구 묵동 183-5번지 ,127.080372930243,37.60664270041461
2020,영업,어린이집,서문어린이집,서울특별시 서대문구 홍은동 8-88번지 ,126.94899993888599,37.6027105830897
2020,영업,어린이집,꿈나래어린이집,서울특별시 성북구 정릉동 285-4번지 ,127.009352874894,37.6105963368948
2020,영업,어린이집,한솔키즈클럽어린이집,서울특별시 서대문구 홍제동 463번지 문화촌 현대아파트 내 ,126.949467268317,37.592266096474795
2020,영업,어린이집,중계4동어린이집,서울특별시 노원구 중계동 445번지 염광아파트 ,127.072918278426,37.6561721172139
2020,영업,어린이집,해오름어린이집,서울특별시 중랑구 면목동 543-18번지 ,127.08731912056801,37.5865151583775
2020,영업,어린이집,애플트리 에듀센터 어린이집,서울특별시 동작구 사당동 220-24번지 ,126.970412735034,37.4866007638527
2020,영업,유치원,서울남유치원,서울특별시 구로구 구로동 708-25번지 ,126.881877120717,37.4880941660838
2020,영업,유치원,사랑유치원,서울특별시 구로구 신도림동 290번지 사랑유치원 ,126.876447023517,37.5073228553857
2020,영업,어린이집,노원어린이집(구립),서울특별시 노원구 상계동 1096-1번지 ,127.051124451322,37.6761927446048
2020,영업,어린이집,파란나라어린이집,서울특별시 성북구 정릉동 260-30번지 ,127.0093559653,37.6119303427785
2020,영업,어린이집,한일어린이집,서울특별시 도봉구 방학동 712-1번지 ,127.045092646807,37.6624799249705
2020,영업,어린이집,성모어린이집,서울특별시 서대문구 홍제동 260-43번지 ,126.945439530299,37.591108702020605
2020,폐업,어린이집,공릉2동어린이집(구립),서울특별시 노원구 공릉동 77번지,127.08233341759,37.6245821543655
2020,영업,어린이집,월계1동어린이집,서울특별시 노원구 월계동 411-46번지 ,127.06239905538601,37.6208868404562
2020,영업,어린이집,구립샛별어린이집,서울특별시 동작구 상도동 235-23번지 ,126.939094911604,37.4991985481955
2020,영업,어린이집,구립흑석어린이집,서울특별시 동작구 흑석동 257-8 흑석동 어린이집,126.960321924393,37.4995696901289
2020,영업,어린이집,청구어린이집,서울특별시 노원구 하계동 354번지 ,127.06131291022699,37.6363403795948
2020,영업,어린이집,대원어린이집,서울특별시 광진구 중곡동 92-31번지 ,127.088928002365,37.555578434657505
2020,영업,어린이집,좋은어린이집,서울특별시 광진구 구의동 590-3번지 ,127.090314357897,37.536194875836294
2020,영업,어린이집,잠일어린이집,서울특별시 송파구 잠실동 211-36번지 ,127.085528389959,37.5080367320937
2020,영업,어린이집,구립성대어린이집,서울특별시 동작구 상도동 271,126.93526639189699,37.4967945530574
2020,영업,어린이집,충현복지재단 충현어린이집,서울특별시 강남구 역삼동 665-1번지 ,127.03743019111499,37.5048381687635
2020,영업,어린이집,문성어린이집,서울특별시 관악구 신림동 1661-15번지 ,126.902953481194,37.4819241026237
2020,영업,어린이집,대일어린이집,서울특별시 광진구 구의동 66-63번지 ,127.088258505541,37.545142380748
2020,영업,어린이집,민주어린이집,서울특별시 광진구 화양동 33-32번지 ,127.068571289871,37.544792957114396
2020,영업,어린이집,중곡4동어린이집,서울특별시 광진구 중곡동 69-24번지 ,127.09182925584601,37.5590621662108
2020,영업,어린이집,킹스키즈어린이집,서울특별시 강남구 대치동 926-10번지 ,127.05624510156099,37.4998415550139
2020,영업,어린이집,압구정어린이집,서울특별시 강남구 신사동 627-2번지 지상2층 ,127.03223790441002,37.5239672973362
2020,영업,어린이집,녹색어린이집,서울특별시 성북구 장위동 270-25번지 ,127.05918511353902,37.6148616487576
2020,영업,어린이집,미래클어린이집,서울특별시 관악구 신림동 611-142번지 ,126.919797885922,37.4736805886813
2020,영업,어린이집,바른선어린이집,서울특별시 광진구 중곡동 257-4번지 ,127.078987067113,37.5605708041546
2020,영업,어린이집,송파제일어린이집,서울특별시 송파구 송파동 106-9번지 ,127.11215575983,37.5035848253544
2020,영업,어린이집,문정어린이집,서울특별시 송파구 문정동 13-2번지 ,127.12765957541599,37.488085640693605
2020,영업,어린이집,돌마리어린이집,서울특별시 송파구 석촌동 289-2번지 지상2층 ,127.107419999158,37.50356922239449
2020,영업,어린이집,산성어린이집,서울특별시 송파구 마천동 127-1번지 ,127.148567686448,37.4969305904609
2020,영업,어린이집,쌍용어린이집,서울특별시 송파구 가락동 140번지 쌍용아파트 관리동 2층 ,127.12809384216801,37.49553443659421
2020,영업,어린이집,은진어린이집,서울특별시 성북구 장위동 270-75번지 ,127.053433435411,37.6178072740913
2020,영업,어린이집,세브란스어린이집,서울특별시 서대문구 대신동 84-4번지 ,126.944224030508,37.5642772999908
2020,영업,어린이집,아이뜰어린이집,서울특별시 강남구 개포동 1204-7번지 지상12층 ,127.050114351081,37.4771798792669
2020,영업,어린이집,오금어린이집,서울특별시 송파구 오금동 114-31번지 ,127.14053320557801,37.5025768902912
2020,영업,어린이집,효지어린이집,서울특별시 광진구 자양동 527번지 ,127.073822581429,37.5360877331091
2020,영업,어린이집,현대열린어린이집,서울특별시 구로구 개봉동 481번지 현대아파트 1단지내 ,126.85847249768999,37.4920656136762
2020,영업,어린이집,구립 영서어린이집,서울특별시 구로구 구로동 166-38번지 ,126.893549337388,37.4883661182419
2020,영업,유치원,아이디유치원,서울특별시 노원구 상계동 695번지 아이디유치원 ,127.057500304545,37.6597707249354
2020,영업,유치원,한울유치원,서울특별시 노원구 상계동 1293번지 한울유치원 ,127.08159095764299,37.66782045259721
2020,폐업,어린이집,소슬어린이집,서울특별시 관악구 봉천동 1712번지,126.95059596401899,37.4897573226814
2020,영업,어린이집,새봄어린이집,서울특별시 성북구 종암동 10-118번지 ,127.035848412229,37.5974965422371
2020,영업,어린이집,삼전어린이집,서울특별시 송파구 삼전동 172번지 삼전종합사회복지관,127.094923531464,37.4991192916523
2020,영업,유치원,풍천유치원,서울특별시 노원구 상계동 673번지 ,127.060976552761,37.6611962809796
2020,영업,유치원,유리유치원,서울특별시 중랑구 중화동 292-1번지 ,127.081580282575,37.59959017735999
2020,영업,어린이집,새싹어린이집,서울특별시 용산구 원효로2가 8-4번지 ,126.96386300595199,37.53756130263611
2020,영업,어린이집,튼튼영재 어린이집,서울특별시 강남구 청담동 134-20번지 지상3층 ,127.057711408453,37.5222957075018
2020,영업,어린이집,풍납어린이집,서울특별시 송파구 풍납동 403-4번지 ,127.11648157198401,37.5288725643385
2020,영업,유치원,소슬유치원,서울특별시 관악구 봉천동 1712-7번지 ,126.94836159804399,37.4897803712121
2020,영업,어린이집,거성어린이집,서울특별시 송파구 거여동 32-8번지 ,127.149304027138,37.4924801197495
2020,폐업,유치원,새봄유치원,서울특별시 노원구 상계동 1255번지 ,127.053816890025,37.681507716904
2020,영업,어린이집,으뜸어린이집,서울특별시 광진구 자양동 482-5번지 ,127.07112383148198,37.5308726230885
2020,영업,유치원,아이들세상유치원,서울특별시 성동구 금호동4가 800번지 ,127.01965834096201,37.5459630231884
2020,영업,유치원,성심유치원,서울특별시 성동구 홍익동 236번지 (지상1층) ,127.03347653181001,37.5661044849299
2020,영업,어린이집,새소리어린이집,서울특별시 중랑구 면목동 191-10번지 ,127.074156047502,37.59010935579271
2020,폐업,유치원,새소슬유치원,서울특별시 관악구 봉천동 1712번지,126.95059596401899,37.4897573226814
2020,영업,어린이집,동그라미 어린이집,서울특별시 성북구 정릉동 281-3번지 ,127.00982631008999,37.610128450409604
2020,영업,어린이집,은현어린이집,서울특별시 관악구 신림동 684-1번지 ,126.91906227633301,37.4654105834779
2020,영업,유치원,세인유치원,서울특별시 성동구 마장동 784번지 ,127.045157885992,37.5652862698372
2020,영업,어린이집,목양몬테소리어린이집,서울특별시 구로구 개봉동 323-16번지 ,126.85322461118601,37.4916938794531
2020,영업,어린이집,리틀짐어린이집,서울특별시 송파구 송파동 141-6번지 ,127.113411067084,37.5091285441127
2020,영업,어린이집,산들어린이집,서울특별시 구로구 개봉동 465-15번지 ,126.85329608286001,37.4999579369319
2020,영업,어린이집,광진선교어린이집,서울특별시 구로구 개봉동 478번지 광진선교어린이집 ,126.851916020522,37.484667753728104
2020,영업,어린이집,초롱어린이집,서울특별시 중랑구 중화동 321-37번지 ,127.074806996859,37.5950018557801
2020,폐업,어린이집,앙코아어린이집,서울특별시 성북구 장위동 68-935번지,127.04819181797701,37.6107392786788
2020,영업,어린이집,무궁화어린이집,서울특별시 송파구 방이동 116-6번지 ,127.11519990801001,37.51082961511821
2020,영업,어린이집,신나는어린이집,서울특별시 광진구 구의동 240-25번지 ,127.088673453574,37.5413372287221
2020,영업,어린이집,송파구청어린이집,서울특별시 송파구 신천동 29-5번지 ,127.106060829168,37.5146025664681
2020,영업,어린이집,중랑구청직장어린이집,서울특별시 중랑구 신내동 662번지 중랑구청 ,127.09288148331699,37.6066169984235
2020,영업,어린이집,키즈스쿨어린이집,서울특별시 송파구 가락동 140번지 가락쌍용아파트,127.12809384216801,37.49553443659421
2020,영업,유치원,금호유치원,서울특별시 성동구 금호동3가 165-1번지 (지상1층) ,127.023558581222,37.5487513640565
2020,영업,어린이집,금륜어린이집,서울특별시 송파구 마천동 44-7번지 ,127.14808311541701,37.4994934695461
2020,영업,유치원,현정유치원,서울특별시 광진구 구의동 230-12번지 ,127.0888873895,37.5444800485598
2020,영업,어린이집,송파어린이집,서울특별시 송파구 거여동 5-8번지 ,127.141754607363,37.4982703147073
2020,영업,유치원,미타유치원,서울특별시 성동구 옥수동 396번지 ,127.01738168830299,37.5431672458739
2020,영업,어린이집,현일어린이집,서울특별시 구로구 구로동 537-64번지 ,126.88890032698099,37.498806557649296
2020,영업,어린이집,수잔나어린이집,서울특별시 구로구 고척동 239-2번지 ,126.852387813648,37.5068227814356
2020,영업,어린이집,한마을어린이집,서울특별시 구로구 개봉동 476번지 한마을아파트 관리동2층 ,126.86247763370199,37.4952528060062
2020,영업,어린이집,롯데어린이집,서울특별시 구로구 구로동 1263번지 롯데아파트 관리동1층 ,126.88418596002701,37.503486852102
2020,영업,어린이집,성모어린이집,서울특별시 강서구 등촌동 707-0번지 (지상 1층) ,126.851662717034,37.560792275187396
2020,영업,어린이집,푸른어린이집,서울특별시 강서구 등촌동 704-0번지 ,126.849604407516,37.56163032697121
2020,영업,어린이집,새싹어린이집,서울특별시 강서구 방화동 262-13번지 ,126.813387141294,37.5705433244536
2020,영업,어린이집,구립로야어린이집,서울특별시 동작구 상도동 471-20,126.951618904305,37.49770123157701
2020,영업,어린이집,예뜰어린이집,서울특별시 구로구 가리봉동 771-1번지 파니파니어린이집,126.88460805251002,37.4859784189149
2020,영업,유치원,세성유치원,서울특별시 성동구 응봉동 100번지 대림종합상가 311호 ,127.033239384976,37.5519211562301
2020,영업,유치원,경동유치원,서울특별시 성동구 금호동1가 633번지 ,127.027090900661,37.5518471906793
2020,영업,유치원,솔유치원,서울특별시 성동구 하왕십리동 258번지 청계벽산@ 내(지상1층) ,127.03163882670601,37.568694028727705
2020,영업,어린이집,가락복지관어린이집,서울특별시 송파구 가락동 481-2번지 ,127.107248071637,37.495704567055604
2020,영업,어린이집,미키몬테소리,서울특별시 구로구 고척동 334 벽산블루밍아파트 관리동 1층,126.864370999779,37.495688781924294
2020,영업,어린이집,구립큰별어린이집,서울특별시 동작구 흑석동 6-5,126.96398420758499,37.508038996027295
2020,영업,어린이집,하늘꿈터어린이집,서울특별시 성북구 장위동 223-59번지 ,127.04615029057,37.6162424329535
2020,영업,유치원,한별유치원,서울특별시 관악구 신림동 1478-31번지 ,126.913422095012,37.478389007267104
2020,영업,유치원,율화유치원,서울특별시 성동구 행당동 349번지 행당한신아파트 내(지하1층) ,127.03622864225201,37.5551199187704
2020,영업,어린이집,열매어린이집,서울특별시 중랑구 면목동 141-13번지 ,127.08139969622499,37.5885961143221
2020,영업,어린이집,구립면일어린이집,서울특별시 중랑구 면목동 89-44번지 ,127.09254545366699,37.5933329241184
2020,영업,유치원,복자유치원,서울특별시 용산구 후암동 38-3번지 ,126.97821642460801,37.551931738417395
2020,영업,어린이집,양무리어린이집,서울특별시 송파구 잠실동 223-6번지 ,127.08021232355101,37.5077556816645
2020,영업,어린이집,풍성어린이집,서울특별시 송파구 풍납동 485-14번지 ,127.120432305058,37.53536407135471
2020,영업,어린이집,사랑어린이집,서울특별시 송파구 풍납동 503-1번지 ,127.119347366656,37.5314921803674
2020,영업,어린이집,은별어린이집,서울특별시 구로구 궁동 142-5번지 ,126.83055643711799,37.4996185407288
2020,영업,어린이집,구립)난우어린이집,서울특별시 관악구 신림동 1482-1번지 ,126.913987978,37.4803193699574
2020,영업,어린이집,동숭어린이집,서울특별시 종로구 동숭동 50-135번지 ,127.00702009074499,37.5791248869477
2020,영업,어린이집,서울대학교 어린이보육지원센터 백학어린이집,서울특별시 관악구 봉천동 산 4-1번지 ,126.961319690058,37.4670173135341
2020,영업,어린이집,열매어린이집,서울특별시 성북구 길음동 1278번지 ,127.024247661413,37.610361312007896
2020,폐업,유치원,양지유치원,서울특별시 금천구 독산동 899-16번지 ,126.905948238694,37.479688632719395
2020,영업,어린이집,구립오르다어린이집,서울특별시 강남구 삼성동 49-6번지 지하1층 ,127.05049938524401,37.512756139499395
2020,영업,어린이집,숭인어린이집,서울특별시 종로구 숭인동 55-2번지 ,127.01560346366199,37.577818963709795
2020,영업,어린이집,예아랑어린이집,서울특별시 광진구 중곡동 589-1번지 ,127.080233277116,37.570813961853204
2020,영업,어린이집,신내어린이집,서울특별시 중랑구 신내동 474-1번지 ,127.097928072617,37.6046829970931
2020,폐업,어린이집,구립용마어린이집,서울특별시 중랑구 면목동 50-17번지 ,127.095160481488,37.58696999999111
2020,영업,어린이집,자연유아어린이집,서울특별시 금천구 시흥동 420-11번지 자연유아원 ,126.908227031305,37.4467527322885
2020,영업,어린이집,열매어린이집,서울특별시 송파구 풍납동 401-1번지 ,127.117678482587,37.5272430410256
2020,영업,어린이집,종로아동회관어린이집,서울특별시 종로구 창신동 산 6-25번지 아동회관 어린이집 ,127.01459544104999,37.578866433027294
2020,영업,어린이집,나래어린이집,서울특별시 강동구 암사동 116-21번지 ,127.133429031874,37.5635874163827
2020,영업,어린이집,낙산어린이집,서울특별시 종로구 창신동 611-19번지 ,127.01022907128599,37.57970631658029
2020,영업,어린이집,구립보경어린이집,서울특별시 중랑구 망우동 146-41번지 ,127.10631700600901,37.6013838550575
2020,영업,유치원,꿈밭유치원,서울특별시 도봉구 방학동 734번지 청구아파트 단지내 ,127.026115946593,37.6580014294241
2020,영업,어린이집,석촌삐아제어린이집,서울특별시 송파구 석촌동 293-14번지 ,127.10783258562599,37.5024103676469
2020,영업,어린이집,세정어린이집,서울특별시 강동구 고덕동 501-1,127.155721756662,37.5606429243515
2020,영업,어린이집,조은어린이집,서울특별시 종로구 숭인동 59-45번지 ,127.01694754008999,37.575638711446096
2020,영업,유치원,다솜유치원,서울특별시 양천구 신월동 422-2번지 ,126.83876531094101,37.524256214788
2020,영업,유치원,건영유치원,서울특별시 관악구 신림동 513-17,126.91492920851401,37.4847812749217
2020,영업,유치원,시내유치원,서울특별시 금천구 가산동 769번지 두산위브아파트 ,126.891696121955,37.476028261069104
2020,영업,어린이집,구립선재어린이집,서울특별시 동작구 본동 12-12번지 ,126.95698069568,37.5113450690564
2020,영업,어린이집,사무엘어린이집,서울특별시 강서구 내발산동 746-0 사무엘어린이집,126.82791621567101,37.5511045349266
2020,영업,어린이집,알파어린이집,서울특별시 강서구 염창동 292번지 동아아파트단지내 보육원12층 ,126.873094221678,37.5548402679641
2020,영업,어린이집,꿈을여는어린이집,서울특별시 강서구 화곡동 811-12번지 ,126.859275182194,37.533532093068104
2020,영업,어린이집,보성어린이집,서울특별시 강서구 방화동 839-0번지 보성어린이집 (지상 1층) ,126.818934860998,37.5747699180895
2020,영업,어린이집,새영어린이집,서울특별시 강서구 염창동 290번지 ,126.866101742712,37.5580393711564
2020,영업,어린이집,성심어린이집,서울특별시 강동구 길동 401-2번지 ,127.14456357245899,37.536220740075
2020,영업,어린이집,유림어린이집,서울특별시 강서구 화곡동 914-22번지 ,126.844400410678,37.5287507540588
2020,영업,어린이집,한별어린이집(구립),서울특별시 양천구 신정동 144-20번지 ,126.87198170448299,37.518489544947705
2020,영업,어린이집,은행정어린이집(구립),서울특별시 양천구 신정동 957-16번지 ,126.858468924095,37.522908775036896
2020,영업,어린이집,염창어린이집,서울특별시 강서구 염창동 272-24번지 ,126.869486402564,37.5503702750992
2020,영업,어린이집,해바라기어린이집,서울특별시 강서구 화곡동 474-17번지 ,126.855815294895,37.5373270727224
2020,영업,어린이집,구립 배다리어린이집,서울특별시 강서구 화곡동 355-5번지 ,126.83952898640301,37.5312596016372
2020,영업,어린이집,구립초록어린이집,서울특별시 강서구 화곡동 56-63번지 ,126.851044413335,37.54092655117
2020,영업,어린이집,발산어린이집,서울특별시 강서구 내발산동 661-13번지 ,126.84216609637899,37.5544413681208
2020,영업,어린이집,까치산어린이집,서울특별시 강서구 화곡동 341-11번지 까치산어린이집 (지상 2층) ,126.848500921604,37.5323517088668
2020,영업,어린이집,방화엔젤어린이집,서울특별시 강서구 방화동 814번지 ,126.8102273583,37.5771767124895
2020,영업,어린이집,다정한어린이집,서울특별시 강서구 방화동 247-225번지 (지상 2층) ,126.816013761912,37.567949960851
2020,영업,유치원,운현유치원,서울특별시 금천구 시흥동 1013번지 벽산5단지아파트 ,126.918746397977,37.4482587951367
2020,영업,어린이집,구립아이솔어린이집,서울특별시 강서구 방화동 616-20번지 ,126.80731784317601,37.5643823870821
2020,영업,유치원,동일유치원,서울특별시 금천구 시흥동 산 100-4번지 ,126.916329553367,37.4512641212808
2020,영업,어린이집,구립공항어린이집,서울특별시 강서구 공항동 664-4번지 ,126.814589799415,37.5570245642044
2020,영업,어린이집,종교교회어린이집,서울특별시 종로구 도렴동 32번지 1층호,126.973815306432,37.5737865922603
2020,영업,어린이집,가양어린이집,서울특별시 강서구 가양동 187-6번지 ,126.84088848879401,37.5698767084411
2020,영업,어린이집,해솔어린이집,서울특별시 강서구 가양동 1478-0번지 도시개발4단지 ,126.851872627245,37.5650188461061
2020,영업,유치원,은아유치원,서울특별시 관악구 봉천동 1635-1번지 ,126.964338856224,37.4753290473741
2020,영업,어린이집,구립볏고을어린이집,서울특별시 강서구 화곡동 1129-36번지 ,126.85605489658701,37.551549134257705
2020,영업,어린이집,명문어린이집,서울특별시 성북구 장위동 66-242번지 ,127.053066121364,37.61050352270679
2020,영업,어린이집,모난어린이집,서울특별시 성북구 장위동 68-1311번지 ,127.050620261482,37.6094886604701
2020,폐업,어린이집,큐티프리스쿨어린이집,서울특별시 관악구 신림동 1714번지 삼성산아파트 관리동 ,126.926105920754,37.4624964940292
2020,영업,어린이집,은초록어린이집,서울특별시 강서구 등촌동 690번지 (주공4단지복지관) ,126.843295548372,37.5615574220698
2020,영업,어린이집,꿈나무어린이집,서울특별시 동작구 대방동 385-2번지 ,126.92302146243401,37.5047109836555
2020,영업,어린이집,가양7어린이집,서울특별시 강서구 가양동 1486번지 주공가양(아)7단지 ,126.861666960973,37.561973488700296
2020,영업,어린이집,또또어린이집,서울특별시 중랑구 면목동 162-59번지 ,127.07994520385401,37.5823486842655
2020,영업,어린이집,중앙어린이집,서울특별시 관악구 봉천동 890-1번지 ,126.948326045393,37.484395086685794
2020,영업,어린이집,하나어린이집,서울특별시 관악구 신림동 516-2번지 ,126.91486778589599,37.486269381455706
2020,영업,어린이집,혜화어린이집,서울특별시 강서구 방화동 858번지 삼성꽃마을아파트 상가 2층 ,126.81330454391599,37.5723262231996
2020,영업,유치원,샛별유치원,서울특별시 송파구 가락동 70-7번지 ,127.118744638582,37.498623147210395
2020,영업,어린이집,월드비젼어린이집,서울특별시 송파구 석촌동 297-27번지 ,127.109857295767,37.5010490542427
2020,영업,어린이집,화곡어린이집,서울특별시 강서구 화곡동 24-268번지 화곡교회 (지상 1층) B동 ,126.846562569596,37.5440003211822
2020,영업,어린이집,한울어린이집,서울특별시 강서구 화곡동 1159-4번지 지상1층 ,126.841825296062,37.5482564541672
2020,영업,어린이집,하나영재어린이집,서울특별시 강서구 가양동 448-1번지 강나루현대아파트단지내 ,126.856945829184,37.5607434816801
2020,영업,어린이집,(구립)하늘숲어린이집,서울특별시 강서구 화곡동 1039-17번지 ,126.834380771071,37.543360865280206
2020,영업,유치원,동연유치원,서울특별시 양천구 목동 602-16번지 ,126.867672833672,37.548845168179604
2020,영업,유치원,럭키유치원,서울특별시 금천구 시흥동 1002-1번지 럭키아파트 ,126.89935412901,37.4504103754588
2020,영업,어린이집,사당어린이집,서울특별시 동작구 사당동 1132번지 ,126.972488151728,37.4907669414062
2020,폐업,어린이집,톰소여어린이집,서울특별시 은평구 갈현동 6-18,126.918142755356,37.6274262741524
2020,영업,어린이집,그림터어린이집,서울특별시 강서구 화곡동 98-15번지 ,126.84419367582198,37.5442158771857
2020,영업,어린이집,리틀빌리지어린이집,서울특별시 강서구 염창동 276-10번지 ,126.870017704274,37.549886964383
2020,영업,어린이집,동산어린이집,서울특별시 강서구 염창동 113-17번지 ,126.875577255431,37.5515360694618
2020,영업,어린이집,신월이화어린이집,서울특별시 양천구 신월동 911-3번지 ,126.83017692473,37.5224305505338
2020,영업,어린이집,예뜰어린이집,서울특별시 양천구 신정동 913-5번지 ,126.85706186025101,37.526380109576
2020,영업,유치원,명성유치원,서울특별시 관악구 신림동 1704-3번지 ,126.927002903205,37.46549057593779
2020,영업,어린이집,구립백로어린이집,서울특별시 동작구 상도동 362-46,126.935542289848,37.5067840146923
2020,영업,어린이집,은하어린이집,서울특별시 동작구 신대방동 366-27번지 ,126.925053224664,37.495826177007714
2020,영업,어린이집,구립 보라매어린이집,서울특별시 동작구 신대방동 364-18번지 ,126.92234511224702,37.497549697500794
2020,폐업,어린이집,초록마을어린이집,서울특별시 은평구 갈현동 241-20번지 ,126.91231365799,37.6208684336371
2020,영업,어린이집,즐거운어린이집(구립),서울특별시 양천구 신월동 611-2번지 1층 ,126.84795812973199,37.5204321457725
2020,영업,어린이집,고일어린이집,서울특별시 강동구 고덕동 494-3,127.14969212277201,37.5569794522707
2020,영업,유치원,바니유치원,서울특별시 구로구 구로동 685-70번지 현대연예인아파트 단지내 ,126.87708949006901,37.4929748453685
2020,영업,어린이집,상록수어린이집,서울특별시 종로구 행촌동 1-69번지 상록수 어린이집 ,126.962944566341,37.5725080471624
2020,영업,어린이집,고은어린이집,서울특별시 동작구 신대방동 625-1번지 ,126.912548514598,37.4894395420457
2020,영업,어린이집,영재어린이집,서울특별시 강서구 화곡동 851-3번지 4층 ,126.856428790107,37.530435235167104
2020,영업,어린이집,전박사어린이집,서울특별시 관악구 봉천동 1698-1번지 삼성아파트 단지내 ,126.92815312261101,37.4940935143265
2020,영업,어린이집,구립파란들어린이집,서울특별시 양천구 신월동 48-12번지 ,126.82533716208799,37.5356672435009
2020,폐업,어린이집,알티오라어학원,서울특별시 서대문구 북가좌동 124-12번지 지하1층 ,126.909610243136,37.57175363245071
2020,영업,어린이집,무지개어린이집,서울특별시 강동구 암사동 466-104번지 ,127.130490016039,37.55371427844021
2020,영업,어린이집,새암어린이집,서울특별시 강서구 내발산동 681-4번지 새암어린이집 (지상 4층) ,126.832944229011,37.5532728057064
2020,영업,어린이집,구립 강변어린이집,서울특별시 강서구 가양동 1475-0번지 강변아파트내복지관 ,126.855642304398,37.5652045065319
2020,영업,어린이집,에덴어린이집,서울특별시 양천구 목동 909-9번지 ,126.883167192075,37.5367355170832
2020,영업,유치원,사슴유치원,서울특별시 양천구 신월동 121-36번지 ,126.835862501775,37.5308943387341
2020,영업,어린이집,세신어린이집,서울특별시 양천구 신정동 322-2번지 ,126.86338785880699,37.5159931983321
2020,영업,어린이집,어깨동무어린이집,서울특별시 양천구 신정동 884-19번지 ,126.859128338916,37.527481048054106
2020,영업,어린이집,한빛어린이집(수정),서울특별시 양천구 신월동 540-1번지 한빛복지관내 ,126.840205864256,37.5190513998234
2020,영업,어린이집,이대복지어린이집,서울특별시 서대문구 북아현동 1-826번지 ,126.950589471135,37.56386515871829
2020,영업,유치원,신우주어린이집유치원,서울특별시 강남구 일원동 718-0번지 샘터마을아파트유치원지하1지상12층 ,127.082588966534,37.484266424315706
2020,영업,어린이집,구립산들어린이집,서울특별시 양천구 신정동 937-4번지 ,126.850735830954,37.5268678757444
2020,영업,어린이집,구립합정어린이집,서울특별시 마포구 합정동 376-29번지 ,126.912358361589,37.5467019449931
2020,영업,어린이집,마포구청직장어린이집,서울특별시 마포구 성산동 370번지 ,126.90191699008301,37.566231186604206
2020,영업,어린이집,신우주어린이집유치원,서울특별시 강남구 일원동 718-0번지 샘터마을아파트유치원지하1지상12층 ,127.082588966534,37.484266424315706
2020,폐업,어린이집,근하어린이집,서울특별시 서초구 양재동 255-2번지 1층 ,127.042349139457,37.4733487478305
2020,영업,어린이집,상아어린이집,서울특별시 강서구 등촌동 679-5번지 ,126.840201017859,37.5620604146012
2020,영업,유치원,큰솔유치원,서울특별시 관악구 봉천동 1706번지 우성아파트 단지내 ,126.959503779245,37.4849676266707
2020,영업,유치원,배꽃유치원,서울특별시 관악구 봉천동 935-2번지 ,126.941926045411,37.485624364126295
2020,영업,어린이집,무악어린이집,서울특별시 종로구 무악동 79번지 무악어린이집 ,126.96027885842301,37.576039283029
2020,영업,어린이집,노고산어린이집,서울특별시 마포구 노고산동 33-20번지 ,126.938415545697,37.5545900489104
2020,영업,어린이집,은강어린이집,서울특별시 마포구 용강동 149-50번지 ,126.93920993203301,37.541271428341
2020,영업,어린이집,부암어린이집,서울특별시 종로구 신영동 105-10번지 구립 부암어린이집 ,126.96306092243601,37.6015339925312
2020,영업,어린이집,창일어린이집,서울특별시 종로구 창신동 403-17번지 ,127.014880212541,37.5703684484102
2020,영업,어린이집,도화어린이집,서울특별시 마포구 도화동 196-7번지 ,126.952020786248,37.5408512401422
2020,영업,어린이집,서교어린이집,서울특별시 마포구 서교동 452-14번지 ,126.91560593329201,37.5575256504028
2020,영업,어린이집,화가마을어린이집,서울특별시 강동구 고덕동 258-8,127.161822333504,37.560728045867
2020,영업,유치원,리아유치원,서울특별시 송파구 방이동 89-19번지 ,127.13046668246099,37.5130996376727
2020,영업,유치원,은비유치원,서울특별시 관악구 봉천동 1717-2번지 대우푸르지오단지내 ,126.960033937684,37.489104929092896
2020,영업,어린이집,연남어린이집,서울특별시 마포구 연남동 370-6번지 ,126.918403509713,37.56395074923579
2020,영업,유치원,삼성유치원,서울특별시 서대문구 북가좌동 5-33번지 (1층) ,126.91921758289101,37.5816037089393
2020,영업,어린이집,나래어린이집,서울특별시 동작구 상도동 356-100번지 ,126.93380761678499,37.50348678137679
2020,영업,어린이집,새자연어린이집,서울특별시 강서구 방화동 831번지 ,126.814637942404,37.5769885453131
2020,영업,어린이집,아이사랑어린이집,서울특별시 관악구 신림동 685-56번지 ,126.918736925583,37.46472455389421
2020,영업,유치원,나랑유치원,서울특별시 관악구 봉천동 1708번지 ,126.942870805562,37.4845159799207
2020,영업,어린이집,청운어린이집,서울특별시 양천구 신월동 564-7번지 지하1층 ,126.842409730304,37.5138549940961
2020,영업,유치원,성도유치원,서울특별시 관악구 신림동 98-344번지 ,126.940166177033,37.4744695322305
2020,영업,어린이집,신정어린이집(구립),서울특별시 양천구 신정동 904-4번지 ,126.860468416771,37.5264758769359
2020,영업,유치원,레인보우유치원,서울특별시 양천구 목동 520-29번지 ,126.87801828592698,37.545517932490895
2020,영업,어린이집,명성어린이집,서울특별시 강서구 화곡동 504-40번지 ,126.859909346665,37.5366766218895
2020,영업,유치원,경성유치원,서울특별시 양천구 신정동 276번지 양천아파트단지내 ,126.865182621394,37.5109882748024
2020,영업,어린이집,이화어린이집,서울특별시 양천구 신월동 608-2번지 ,126.84686460543399,37.5218305664938
2020,폐업,어린이집,신파랑새어린이집,서울특별시 양천구 목동 766-6,126.868722037909,37.536386025713504
2020,영업,어린이집,엄마사랑어린이집,서울특별시 양천구 목동 231-50번지 ,126.86981006487301,37.5416701318493
2020,영업,유치원,조은유치원,서울특별시 서대문구 남가좌동 377번지 삼성아파트단지내(지하1~지상2) ,126.91653653886101,37.5779227885419
2020,폐업,유치원,신림유치원,서울특별시 관악구 신림동 621-34번지 ,126.920154883036,37.4720463359858
2020,영업,유치원,한가람유치원,서울특별시 용산구 이촌동 301-54번지 ,126.981181988473,37.5195449205711
2020,영업,유치원,꿈나무유치원,서울특별시 양천구 신정동 314번지 ,126.867632123006,37.5216153719106
2020,영업,유치원,불광유치원,서울특별시 송파구 석촌동 159-1번지 지상2층 ,127.10210063645201,37.5069320142509
2020,영업,유치원,제일무궁화유치원,서울특별시 송파구 가락동 193-9번지 ,127.130976805068,37.4947707336019
2020,영업,유치원,현대홍익유치원,서울특별시 서대문구 홍제동 456번지 ,126.94286066529,37.58365923875829
2020,폐업,어린이집,서강사랑어린이집,서울특별시 마포구 창전동 400-12,126.92779575949899,37.5483457516085
2020,영업,유치원,목성유치원,서울특별시 양천구 신정동 326번지 목동12단지아파트내 ,126.86110810394301,37.5130250883891
2020,영업,어린이집,성미어린이집,서울특별시 마포구 성산동 65-4번지 ,126.911287805203,37.5628752427588
2020,영업,유치원,계상유치원,서울특별시 양천구 신정동 1286-1번지 ,126.83982108912599,37.5124336350924
2020,영업,유치원,튼튼유치원,서울특별시 양천구 신정동 915-4번지 ,126.857283179702,37.5259538663421
2020,영업,어린이집,공덕어린이집,서울특별시 마포구 공덕동 11-181번지 ,126.96114975351699,37.5479557251491
2020,영업,유치원,신예유치원,서울특별시 양천구 신정동 1276번지 ,126.852925446886,37.511887025577295
2020,영업,유치원,벧엘유치원,서울특별시 서대문구 연희동 301-1번지 ,126.932197938388,37.566328790682704
2020,영업,어린이집,대건어린이집,서울특별시 중랑구 신내동 522-1번지 ,127.095578889633,37.6026646430017
2020,영업,어린이집,꿈땅어린이집,서울특별시 성북구 장위동 252-31번지 ,127.047490203252,37.6087032039168
2020,영업,유치원,현대경복유치원,서울특별시 서대문구 홍제동 460번지 인왕산현대아파트단지내 (지하1층) ,126.95079445130199,37.5855188496225
2020,영업,유치원,경복유치원,서울특별시 서대문구 홍은동 455 벽산아파트단지내(지상2층),126.944791052745,37.5953651082626
2020,영업,어린이집,제일어린이집,서울특별시 강서구 화곡동 820-31번지 ,126.85768177143,37.53487214523261
2020,영업,어린이집,미예뜰어린이집,서울특별시 광진구 중곡동 191-60번지 ,127.08051804738899,37.5663215294387
2020,영업,유치원,선희유치원,서울특별시 도봉구 쌍문동 59번지 ,127.031295137055,37.657029787761296
2020,영업,유치원,한가람유치원,서울특별시 송파구 풍납동 507번지 ,127.115059144399,37.5366283478144
2020,영업,어린이집,그림나라어린이집,서울특별시 양천구 신월동 947-11번지 ,126.831791551927,37.520412547258104
2020,영업,어린이집,강성어린이집,서울특별시 양천구 신정동 1271번지 ,126.85516003344101,37.5128788140601
2020,영업,유치원,예원유치원,서울특별시 중랑구 신내동 783번지 ,127.094692192748,37.604869511871
2020,영업,유치원,어린이의정원유치원,서울특별시 양천구 신정동 337-2번지 ,126.86513693803002,37.50633143863561
2020,폐업,유치원,신현유치원,서울특별시 서대문구 대현동 62-1번지 (지상2층),126.94711087228,37.5586191336814
2020,영업,어린이집,강동제일어린이집,서울특별시 강동구 암사동 452-13번지 ,127.13633286888901,37.5541435762663
2020,영업,유치원,반석유치원,서울특별시 강동구 길동 78-5번지 ,127.147322425457,37.542829247127706
2020,영업,유치원,등대유치원,서울특별시 양천구 신정동 1279번지 목동현대아파트단지내 ,126.87721092428801,37.5203772061869
2020,영업,어린이집,로뎀어린이집,서울특별시 강서구 방화동 275-1번지 ,126.81579907745702,37.57199559880621
2020,영업,어린이집,비둘기어린이집,서울특별시 동작구 대방동 503번지 ,126.93002049335199,37.509714103563
2020,영업,어린이집,새싹어린이집,서울특별시 동작구 사당동 105-27번지 ,126.974920405086,37.489371760744
2020,영업,어린이집,혜화어린이집,서울특별시 종로구 혜화동 163-3번지 ,127.002506258525,37.5847588232312
2020,영업,어린이집,구립사랑어린이집,서울특별시 중랑구 묵동 250-25번지 ,127.07774541663099,37.605848150433204
2020,영업,유치원,원일유치원,서울특별시 양천구 목동 912번지 ,126.882059046999,37.534104354399204
2020,폐업,어린이집,내곡어린이집,서울특별시 서초구 내곡동 156-4번지 지하 1층 ,127.06540099312299,37.4531630715544
2020,영업,어린이집,구립양천어린이집,서울특별시 양천구 신정동 276번지 ,126.865182621394,37.5109882748024
2020,영업,어린이집,둥지어린이집(구립),서울특별시 양천구 신월동 9-2번지 ,126.828526272497,37.542725188403104
2020,영업,유치원,좋은나라유치원,서울특별시 성북구 종암동 104-1번지 SK아파트단지내 ,127.036962715126,37.601175438891296
2020,영업,어린이집,꿈땅몬테소리어린이집,서울특별시 성북구 정릉동 170-20번지 ,127.015173118904,37.6059437455086
2020,영업,어린이집,품속어린이집,서울특별시 노원구 상계동 1019-8번지 ,127.057582859606,37.6722217623976
2020,영업,어린이집,구립파랑새어린이집,서울특별시 양천구 신월동 965-1번지 ,126.835841198397,37.522140446377705
2020,영업,어린이집,휘경어린이집,서울특별시 동대문구 휘경동 308-196번지 ,127.057673646824,37.5870471490626
2020,영업,어린이집,양문어린이집,서울특별시 양천구 신월동 982-21번지 ,126.83595038076099,37.516259452723
2020,영업,어린이집,구립곰달래어린이집,서울특별시 양천구 신월동 217-1번지 ,126.834019007847,37.527739076406604
2020,영업,유치원,명수유치원,서울특별시 동작구 흑석동 186번지 ,126.960290592341,37.5089214973377
2020,영업,유치원,예은유치원,서울특별시 송파구 송파동 166번지 ,127.121283963311,37.5042078207369
2020,영업,유치원,관인 동그라미유치원,서울특별시 동작구 사당동 1017-30번지 ,126.979347889066,37.48156876454021
2020,영업,어린이집,세란어린이집,서울특별시 강서구 방화동 839번지 도시개발2-2단지내 ,126.818934860998,37.5747699180895
2020,영업,유치원,영광유치원,서울특별시 성북구 돈암동 632-10번지 풍림(아) 단지내 ,127.022776787502,37.595730001545604
2020,영업,유치원,양문유치원,서울특별시 동작구 신대방동 607-32번지 ,126.90731856992599,37.4891994332473
2020,영업,어린이집,예은어린이집,서울특별시 강동구 천호동 186-7,127.133602136892,37.5408530960142
2020,영업,유치원,새싹유치원,서울특별시 성북구 정릉동 966-112번지 ,127.014501095781,37.603120250215795
2020,영업,유치원,희망찬유치원,서울특별시 성북구 돈암동 15-3번지 ,127.02398638901,37.598465062535794
2020,영업,유치원,개동유치원,서울특별시 성북구 정릉동 771-3번지 ,127.00506423326401,37.615799783691294
2020,영업,어린이집,예나어린이집,서울특별시 동대문구 제기동 681-2번지 ,127.03941104534901,37.5857400149585
2020,폐업,어린이집,파란꿈 어린이집,서울특별시 강동구 고덕동 503번지 ,127.15448685267599,37.560042519617795
2020,영업,유치원,요요유치원,서울특별시 동작구 신대방동 707번지 ,126.912224311327,37.494554230491296
2020,영업,유치원,상도유치원,서울특별시 동작구 상도1동 418-2번지 ,126.951924322738,37.5015678627037
2020,영업,유치원,천사유치원,서울특별시 성북구 돈암동 609-1번지 한진(아) 단지내 ,127.010292769897,37.59479797683621
2020,폐업,유치원,송림유치원,서울특별시 동작구 사당동 190-171,126.96343773793501,37.48904461729
2020,영업,어린이집,배봉어린이집,서울특별시 동대문구 장안동 94-61번지 ,127.070655815722,37.5811424368263
2020,영업,유치원,은하유치원,서울특별시 성북구 석관동 250-1번지 ,127.05865942956899,37.6094877047029
2020,폐업,어린이집,구립단비어린이집,서울특별시 동대문구 전농동 648-83번지 ,127.04755894839501,37.575157025805
2020,영업,어린이집,구립동대문어린이집,서울특별시 동대문구 답십리동 711번지 ,127.06585794965,37.5724879768759
2020,영업,어린이집,구립장안어린이집,서울특별시 동대문구 장안동 444-7번지 ,127.069459855979,37.5640789455803
2020,영업,유치원,성실유치원,서울특별시 강북구 수유동 205번지 수유벽산아파트 ,127.018962039925,37.6423700166909
2020,영업,유치원,새삼선유치원,서울특별시 성북구 동소문동1가 140-75번지 ,127.006125840784,37.590026097838
2020,영업,유치원,수영유치원,서울특별시 양천구 목동 901번지 목동아파트1단지내 ,126.87931429985001,37.5395920461958
2020,영업,어린이집,이문어린이집,서울특별시 동대문구 이문동 428번지 상가동 어린이집 ,127.062982720126,37.6036955696044
2020,영업,어린이집,구립회기어린이집,서울특별시 동대문구 회기동 58-1번지 ,127.05455355650801,37.5906573561613
2020,영업,어린이집,구립용두희망어린이집,서울특별시 동대문구 용두동 763-10번지 구립용두희망어린이집 ,127.02631621101001,37.5797592189181
2020,영업,어린이집,은화어린이집,서울특별시 은평구 갈현동 419-14번지 ,126.918112941882,37.6251934124922
2020,영업,어린이집,햇살어린이집,서울특별시 은평구 신사동 20-5번지 ,126.910835388799,37.598640149251
2020,영업,어린이집,망원어린이집,서울특별시 마포구 망원동 338-61번지 ,126.90720212917499,37.5531019594455
2020,영업,유치원,한서유치원,서울특별시 양천구 목동 911번지 ,126.884791401455,37.5346310053371
2020,영업,유치원,한가람유치원,서울특별시 성북구 정릉동 247번지 ,127.00656527648701,37.6164180285497
2020,영업,유치원,사랑유치원,서울특별시 도봉구 방학동 720-1번지 대상현대아파트 단지내 ,127.048119441275,37.6650678610206
2020,영업,어린이집,나래유치원나래어린이집,서울특별시 도봉구 도봉동 641번지 ,127.048055639485,37.673427284464395
2020,영업,어린이집,리라어린이집,서울특별시 도봉구 방학동 663-13번지 ,127.033726166336,37.6639427617513
2020,영업,유치원,슬기유치원,서울특별시 도봉구 도봉동 30-1번지 ,127.048032701826,37.685727137974894
2020,영업,유치원,나래유치원나래어린이집,서울특별시 도봉구 도봉동 641번지 ,127.048055639485,37.673427284464395
2020,영업,유치원,사랑유치원,서울특별시 동작구 대방동 414-3번지 ,126.92117135216299,37.4983853719444
2020,영업,유치원,탑주유치원,서울특별시 성북구 하월곡동 22번지 ,127.04135776231199,37.6045083698856
2020,영업,어린이집,아람마주이야기어린이집,서울특별시 서초구 방배동 822-29번지 2층 ,126.986493701575,37.4907925893099
2020,영업,유치원,아란유치원,서울특별시 양천구 목동 903번지 목동아파트3단지내 ,126.87292427032301,37.5343476339283
2020,영업,어린이집,강서어린이집,서울특별시 강서구 화곡동 968-16번지 ,126.85088228908701,37.5489601395605
2020,영업,어린이집,꿈마루 어린이집,서울특별시 동대문구 전농동 103-53번지 ,127.054001762057,37.5854634035144
2020,영업,유치원,새보람유치원,서울특별시 은평구 불광동 239-10번지 ,126.932572319424,37.6162578557959
2020,영업,어린이집,구립초롱어린이집,서울특별시 동대문구 답십리동 557-1번지 ,127.045314205742,37.5739932030931
2020,영업,어린이집,구립별밭어린이집,서울특별시 동대문구 장안동 388번지 ,127.06853783277201,37.57233655365661
2020,영업,유치원,솔샘유치원,서울특별시 강북구 미아동 1354번지 벽산라이브파크 ,127.010800642327,37.621139778888
2020,영업,유치원,아랑유치원,서울특별시 중랑구 중화동 316-1번지 ,127.07662880194599,37.598122746913795
2020,영업,유치원,총신대부속유치원,서울특별시 동작구 사당동 200-1번지 ,126.966616016448,37.4891727454948
2020,영업,유치원,미림유치원,서울특별시 중랑구 묵동 162-1번지 ,127.079298024473,37.6164354942989
2020,영업,어린이집,구립은천어린이집,서울특별시 관악구 봉천동 635-308번지 ,126.942764070656,37.488236028348
2020,영업,어린이집,한마음어린이집,서울특별시 중랑구 면목동 1516번지 ,127.079559868806,37.57521027072049
2020,영업,어린이집,은혜어린이집(구립),서울특별시 양천구 신정동 998-22번지 ,126.862147934881,37.5240293282144
2020,영업,유치원,꿈동산유치원,서울특별시 강북구 번동 234-3번지 ,127.03834962486602,37.632156018971294
2020,영업,어린이집,으뜸어린이집,서울특별시 강서구 화곡동 802-2번지 ,126.860243371374,37.53366952191
2020,영업,유치원,수산유치원,서울특별시 중랑구 중화동 316-30번지 ,127.075787234614,37.5975593304111
2020,영업,어린이집,신광어린이집,서울특별시 강서구 등촌동 706-2번지 ,126.850584604641,37.5589514266493
2020,영업,어린이집,둥지어린이집,서울특별시 중랑구 묵동 159-33번지 ,127.080252664174,37.617709751764004
2020,영업,어린이집,유마어린이집,서울특별시 동대문구 청량리동 61번지 ,127.047337739344,37.588142806646296
2020,영업,유치원,신극동유치원,서울특별시 강북구 수유동 553-61번지 신극동유치원 ,127.01205388761801,37.64186190609529
2020,영업,어린이집,에덴어린이집,서울특별시 강동구 길동 341-26번지 ,127.14525369376001,37.5417299285587
2020,영업,어린이집,이솝어린이집,서울특별시 강서구 화곡동 95-94번지 (지상 4층) ,126.843942111712,37.546444871074
2020,영업,어린이집,구립해오름어린이집,서울특별시 동대문구 제기동 220번지 ,127.03416134336399,37.5840046962952
2020,영업,어린이집,구립태양어린이집,서울특별시 동대문구 답십리동 557-1번지 ,127.045314205742,37.5739932030931
2020,영업,어린이집,구립푸른하늘어린이집,서울특별시 동대문구 장안동 393-2번지 ,127.06696283831002,37.56899574538561
2020,영업,유치원,선한유치원,서울특별시 성북구 길음동 547-78번지 ,127.02056672714599,37.6039429850751
2020,영업,유치원,솔샘유치원,서울특별시 양천구 목동 904번지 ,126.87156669009501,37.5319202572043
2020,영업,유치원,해림유치원,서울특별시 양천구 목동 929번지 ,126.881629750645,37.541446626082895
2020,영업,어린이집,구립한아름어린이집,서울특별시 동대문구 장안동 329-3번지 ,127.075361945701,37.57395522795071
2020,영업,유치원,삼성유치원,서울특별시 송파구 문정동 1번지 ,127.13026956648301,37.4906131339923
2020,영업,어린이집,구립 목동어린이집,서울특별시 양천구 목동 903-3번지 ,126.871611576408,37.532928909914496
2020,영업,어린이집,한일어린이집,서울특별시 동대문구 이문동 115-46번지 ,127.065668991545,37.5980855621751
2020,영업,어린이집,한신어린이집,서울특별시 동대문구 청량리동 60번지 ,127.049175784799,37.587989961157
2020,영업,어린이집,꿈동산어린이집,서울특별시 노원구 중계동 361-1번지 지하1층 ,127.07280188355101,37.6468199595995
2020,영업,어린이집,장안현대어린이집,서울특별시 동대문구 장안동 336번지 ,127.07458084992399,37.5697165262476
2020,영업,어린이집,동화어린이집,서울특별시 동대문구 휘경동 282-6번지 ,127.06020748267001,37.5886728293547
2020,영업,어린이집,구립이문현대어린이집,서울특별시 동대문구 이문동 54번지 현대아파트 ,127.070165909915,37.601341618341706
2020,영업,어린이집,다솔어린이집,서울특별시 동대문구 휘경동 150-33번지 ,127.06494463160601,37.5947346258312
2020,영업,어린이집,구립 은하수어린이집,서울특별시 양천구 신월동 61-9번지 ,126.831413253655,37.5384939265927
2020,영업,어린이집,성은어린이집,서울특별시 동대문구 이문동 64-2번지 ,127.067955925176,37.5991759258451
2020,영업,어린이집,삼성어린이집,서울특별시 동대문구 장안동 389-4번지 ,127.068209847861,37.5712789802931
2020,영업,어린이집,재능어린이집,서울특별시 관악구 신림동 409-181번지 ,126.93131932290501,37.4774623528945
2020,영업,유치원,원유치원,서울특별시 관악구 봉천동 968-44번지 ,126.931960617839,37.4879607090228
2020,폐업,유치원,신지유치원,서울특별시 관악구 신림동 1433-55,126.928061783794,37.4847923293835
2020,영업,어린이집,창전어린이집,서울특별시 마포구 창전동 141-2번지 ,126.932434352105,37.548492351857
2020,영업,어린이집,유신어린이집,서울특별시 관악구 신림동 668-11번지 ,126.91939497666901,37.462855742639796
2020,폐업,어린이집,관인선민어린이집,서울특별시 관악구 신림동 256-7번지 ,126.935929598036,37.467603322407705
2020,영업,어린이집,신석어린이집,서울특별시 마포구 현석동 114-1번지 외4필지구립신석어린이집 ,126.93647930919902,37.5428132104623
2020,영업,어린이집,신덕어린이집,서울특별시 마포구 신공덕동 175번지 ,126.95537623541901,37.5443370685094
2020,영업,어린이집,조은어린이집,서울특별시 동대문구 답십리동 990-1번지 두산아파트 ,127.059314885114,37.5692366013608
2020,폐업,어린이집,나사렛어린이집,서울특별시 동대문구 전농동 209-15번지 ,127.053558597828,37.580391636051004
2020,영업,어린이집,구립샘물어린이집,서울특별시 마포구 망원동 450-2번지 ,126.897179350766,37.5588959211041
2020,영업,어린이집,성산어린이집,서울특별시 마포구 성산동 145-12번지 ,126.90878025168502,37.5685180683978
2020,영업,어린이집,동아어린이집,서울특별시 관악구 봉천동 1703-1번지 ,126.956156456735,37.487887998358296
2020,영업,어린이집,종인어린이집?유치원,서울특별시 관악구 봉천동 1690-17번지 ,126.96346025199101,37.4790506320612
2020,영업,유치원,종인어린이집?유치원,서울특별시 관악구 봉천동 1690-17번지 ,126.96346025199101,37.4790506320612
2020,폐업,어린이집,애일선교어린이집,서울특별시 동대문구 용두동 119-14,127.03099011258699,37.5765773397659
2020,영업,어린이집,인영 어린이집,서울특별시 동대문구 제기동 153번지 ,127.03188431917299,37.58344315341621
2020,영업,어린이집,파랑새어린이집,서울특별시 서대문구 홍제동 312-128번지 ,126.942621231581,37.5871558449958
2020,폐업,어린이집,새한어린이집,서울특별시 송파구 잠실동 302-0번지 ,127.078798460835,37.5039656204989
2020,영업,유치원,묘동유치원,서울특별시 강남구 대치동 1015-7번지 지하1층지상1층 ,127.05886012238301,37.4974223940583
2020,영업,어린이집,예일어린이집,서울특별시 강동구 성내동 441-3번지 ,127.13397486216101,37.522953604395795
2020,영업,어린이집,서강어린이집,서울특별시 마포구 창전동 3-199번지 ,126.928189462381,37.552010011127294
2020,폐업,어린이집,중흥리틀스쿨어린이집,서울특별시 강동구 성내동 445-7번지 ,127.13098046360001,37.5241034140118
2020,영업,유치원,혜림유치원,서울특별시 송파구 가락동 186-8번지 ,127.13519150961599,37.4943274328175
2020,영업,유치원,애림유치원,서울특별시 송파구 방이동 141-7번지 ,127.116508107765,37.5107651063552
2020,영업,유치원,석촌유치원,서울특별시 송파구 석촌동 281-6번지 ,127.106609176166,37.5028515758721
2020,영업,유치원,꿀벌유치원,서울특별시 송파구 거여동 290-0번지 ,127.14450237537599,37.4909266221166
2020,폐업,유치원,상아유치원,서울특별시 송파구 삼전동 177-6번지 ,127.095183862608,37.5009290237295
2020,영업,유치원,새세대육영회부속유치원,서울특별시 송파구 장지동 45-0번지 ,127.13511399071699,37.481555466174896
2020,영업,유치원,아주유치원,서울특별시 송파구 거여동 295-0번지 ,127.14661944757401,37.4885902862285
2020,영업,유치원,별나라유치원,서울특별시 송파구 문정동 72-3번지 ,127.125689341941,37.4816611265377
2020,영업,유치원,동화나라유치원/GKI어학원,서울특별시 송파구 풍납동 330-21번지 ,127.11530182331002,37.528562167763795
2020,영업,유치원,장미유치원,서울특별시 송파구 신천동 7-5번지 ,127.10082221749799,37.5179086096847
2020,영업,유치원,우일유치원,서울특별시 송파구 풍납동 508-0번지 ,127.112716734552,37.5294224679926
2020,영업,어린이집,구립이화어린이집,서울특별시 중랑구 면목동 715-1번지 ,127.080815686735,37.57397317167521
2020,영업,유치원,올림픽유치원,서울특별시 송파구 방이동 89-19번지 ,127.13046668246099,37.5130996376727
2020,영업,어린이집,상봉어린이집,서울특별시 중랑구 상봉동 287-1번지 ,127.09012498424299,37.6020258108653
2020,영업,유치원,슬기유치원,서울특별시 광진구 구의동 31-18번지 (3층) ,127.092584860977,37.552056793160894
2020,영업,어린이집,세화어린이집,서울특별시 중랑구 중화동 328-62번지 ,127.07376102314501,37.5999149698528
2020,영업,어린이집,한내들어린이집,서울특별시 중랑구 중화동 332-48번지 ,127.07490418343201,37.604292820557106
2020,영업,어린이집,혜성어린이집,서울특별시 중랑구 중화동 22-5번지 ,127.082414016075,37.6037078549814
2020,영업,어린이집,다정어린이집,서울특별시 노원구 상계동 138-154번지 ,127.071644445163,37.6653187168454
2020,영업,어린이집,이화어린이집,서울특별시 마포구 성산동 595번지 3층 ,126.901129191794,37.5642886842206
2020,영업,어린이집,파란나라 어린이집,서울특별시 서초구 방배동 1344 방배1차 현대아파트 단지내 상가 B동 201호,126.983877063198,37.4884287907116
2020,영업,어린이집,가회어린이집,서울특별시 종로구 가회동 11-101번지 지상1층 ,126.985872697333,37.5818553961508
2020,영업,유치원,동안유치원,서울특별시 동대문구 이문동 346-99번지 ,127.056677363106,37.5928748369621
2020,영업,유치원,색동유치원,서울특별시 은평구 갈현동 495-8번지 ,126.914211358799,37.616054609380996
2020,영업,유치원,유정유치원,서울특별시 은평구 녹번동 135-15번지 ,126.926801432749,37.606648851339
2020,영업,유치원,백합유치원,서울특별시 은평구 역촌동 12-6번지 ,126.91728280871901,37.6081934610955
2020,폐업,어린이집,꿈에바다 어린이집,서울특별시 은평구 응암동 197-11번지 ,126.92204409924999,37.59773786011571
2020,영업,어린이집,은혜어린이집,서울특별시 은평구 갈현동 513-5번지 ,126.912843189758,37.6167014343419
2020,영업,유치원,성희유치원,서울특별시 노원구 상계동 737-2번지 ,127.058506860851,37.651809403069
2020,영업,유치원,원암유치원,서울특별시 노원구 중계동 91-1번지 원암유치원 ,127.085059960701,37.6497337932473
2020,영업,어린이집,아기천국어린이집,서울특별시 강동구 천호동 166-78번지 ,127.13164547878799,37.5390312435982
2020,영업,어린이집,새누리어린이집,서울특별시 은평구 응암동 714번지 ,126.92033895774901,37.5832623059414
2020,영업,어린이집,꿈밭어린이집,서울특별시 마포구 연남동 487-432번지 ,126.917243707573,37.5663970884749
2020,영업,어린이집,꿈이있는어린이집,서울특별시 구로구 구로동 476-134번지 화원종합사회복지관 부설 ,126.880123848376,37.4973294971799
2020,폐업,유치원,보림유치원,서울특별시 은평구 갈현동 489-13번지 ,126.91353029681999,37.6135529155327
2020,영업,유치원,빛나라유치원,서울특별시 성북구 종암동 131-3번지 ,127.03295899693998,37.5973837419734
2020,영업,어린이집,구립배꽃어린이집,서울특별시 중랑구 망우동 467-3번지 ,127.09908266500099,37.597473289090004
2020,영업,어린이집,강북구청어린이집,서울특별시 강북구 수유동 192-59번지 ,127.025446224634,37.6395352075946
2020,폐업,어린이집,성심어린이집,서울특별시 강서구 화곡동 1042-5번지,126.83355340572399,37.5413896055328
2020,영업,어린이집,아현어린이집,서울특별시 마포구 아현동 677-1번지 ,126.948872752575,37.5566567252933
2020,영업,어린이집,서울검찰청 다솜어린이집,서울특별시 서초구 서초동 1724번지 서울중앙지방검찰청.서울고등검찰청 ,127.00823759417901,37.4950788589882
2020,영업,유치원,연유치원,서울특별시 서대문구 남가좌동 322-35번지 ,126.924071849117,37.581877409035
2020,영업,어린이집,한남어린이집,서울특별시 용산구 한남동 685-43번지 ,127.00046309496,37.5345620597999
2020,영업,유치원,토마토유치원,서울특별시 노원구 공릉동 408-6번지 ,127.07931503681101,37.6260384005217
2020,영업,유치원,돈보스꼬유치원,서울특별시 영등포구 도영로22길 22 (도림동),126.90138566511101,37.510545014377
2020,영업,유치원,신목유치원,서울특별시 양천구 목동 504-12번지 ,126.870174787229,37.546382074271705
2020,영업,유치원,보나유치원,서울특별시 도봉구 방학동 508번지 우성2차아파트 ,127.021714982418,37.656829783308794
2020,영업,유치원,관인)한사랑유치원,서울특별시 도봉구 창동 45번지 삼성아파트 단지내 유치원(2층) ,127.04851319290199,37.649073850811796
2020,영업,유치원,청아유치원,서울특별시 도봉구 창동 808번지 동아청솔아파트 단지내 ,127.04827686831001,37.6572410977676
2020,영업,어린이집,연신교회부설보듬손어린이집,서울특별시 은평구 불광동 297-14번지 ,126.92415509553801,37.6183834448397
2020,영업,어린이집,푸르내어린이집,서울특별시 광진구 중곡동 77-15번지 ,127.089497740118,37.5583585993924
2020,영업,유치원,예랑유치원,서울특별시 도봉구 창동 347-6번지 (지상2층) ,127.044070658571,37.6485596998935
2020,영업,유치원,영유유치원,서울특별시 서초구 방배동 1020-3번지 지하1층 ,127.00075137916299,37.4786479543461
2020,영업,어린이집,다온어린이집,서울특별시 송파구 거여동 8-2번지 ,127.14165157189699,37.49761565254021
2020,영업,어린이집,세진어린이집,서울특별시 양천구 신월동 226-7번지 ,126.83577187693001,37.5297066515813
2020,영업,어린이집,이화어린이집,서울특별시 종로구 충신동 136-16번지 1층호,127.005111306932,37.574945364099
2020,영업,유치원,샘터유치원,서울특별시 양천구 신월동 987-1번지 ,126.834075133615,37.5178949962062
2020,영업,어린이집,상명어린이집,서울특별시 광진구 중곡동 175-98번지 ,127.081393071863,37.5699331580752
2020,영업,어린이집,구립꿈마루어린이집,서울특별시 중랑구 면목동 67-26번지 ,127.09415979871001,37.585764310164706
2020,영업,어린이집,성애어린이집,서울특별시 중랑구 신내동 479-1번지 중앙하이츠아파트 ,127.097508741421,37.6020932847585
2020,영업,어린이집,유정 어린이집,서울특별시 도봉구 도봉동 603-19번지 ,127.043001680606,37.6738362175806
2020,영업,어린이집,서초연꽃 어린이집,서울특별시 서초구 서초동 1642-15번지 지하1층 ,127.018032698015,37.4917680771624
2020,영업,어린이집,성원어린이집,서울특별시 성동구 성수동1가 27-23번지 (지상1층) ,127.049628156244,37.5419868328705
2020,영업,어린이집,구립도곡어린이집,서울특별시 강남구 도곡동 527-6번지 지상123층 ,127.05353023906099,37.4942705820236
2020,영업,유치원,나나유치원,서울특별시 강서구 화곡동 471-9번지 ,126.85733918056499,37.5359322553662
2020,영업,어린이집,경동제일어린이집,서울특별시 중랑구 중화동 92-1번지 ,127.08472147981199,37.6025682795835
2020,영업,어린이집,창신어린이집,서울특별시 종로구 창신동 138-32번지 창신성결교회 ,127.01210997116002,37.5736853057783
2020,영업,어린이집,세종마을 어린이집,서울특별시 종로구 옥인동 184번지 옥인어린이집 ,126.96392745383699,37.5819466496892
2020,폐업,어린이집,한빛어린이집,서울특별시 종로구 숭인동 178-167번지 한빛어린이집 ,127.019951137997,37.5748690524786
2020,영업,어린이집,햇살어린이집,서울특별시 구로구 고척동 321번지 우성꿈동산아파트 우성상가 ,126.866288663962,37.5031469759993
2020,영업,어린이집,참솔어린이집,서울특별시 도봉구 방학동 345번지 ,127.029963538561,37.6670891220086
2020,영업,유치원,성균관유치원,서울특별시 은평구 갈현동 110-2번지 ,126.916898299801,37.6182932481939
2020,영업,어린이집,구립청운어린이집,서울특별시 종로구 청운동 6-3번지 구립청운어린이집 ,126.966437292943,37.588411487760794
2020,영업,유치원,동그라미유치원,서울특별시 강서구 화곡동 979-1번지 ,126.849067088889,37.5500020797274
2020,영업,어린이집,삼성아이마루어린이집,서울특별시 마포구 염리동 520번지 ,126.946772286059,37.5489538934928
2020,영업,어린이집,무궁어린이집,서울특별시 구로구 궁동 190-66번지 ,126.834356552352,37.4949229401152
2020,영업,어린이집,구립수유2동어린이집,서울특별시 강북구 수유동 696-6번지 ,127.01487194356702,37.6490422492745
2020,영업,어린이집,구립해다미어린이집,서울특별시 강서구 화곡동 871-3번지 ,126.853395794639,37.5316711706149
2020,영업,어린이집,남문어린이집,서울특별시 금천구 독산동 234-84번지 (장미2길 17) ,126.90578647565799,37.4740937322755
2020,영업,어린이집,제일성민어린이집,서울특별시 동작구 상도동 279-422번지 ,126.93794753062599,37.4952336801731
2020,영업,어린이집,구립예향어린이집,서울특별시 강남구 개포동 1273-0번지 포이교육문화관지상1층 ,127.05230001696,37.4755905417072
2020,영업,어린이집,해맑은어린이집,서울특별시 강남구 개포동 1210-4번지 ,127.051280115975,37.4785537195361
2020,영업,어린이집,노벨어린이집,서울특별시 성북구 정릉동 873번지 ,126.99706743642099,37.608430706319204
2020,영업,어린이집,동화나라어린이집,서울특별시 강북구 수유동 659-28번지 ,127.021537512184,37.64631009297271
2020,영업,어린이집,늘푸른어린이집,서울특별시 동대문구 답십리동 1002번지 청계한신휴플러스아파트 커뮤니티동 지상1층 ,127.04596074290001,37.572361681814996
2020,폐업,어린이집,자이젠 어린이집,서울특별시 강동구 길동 123-2번지 ,127.14785578277201,37.5377590425098
2020,영업,유치원,한별유치원,서울특별시 도봉구 창동 804번지 창동대우아파트 ,127.037504523186,37.6423610772001
2020,영업,어린이집,여의도순복음어린이집,서울특별시 영등포구 여의도동 11-17번지 비전센터 ,126.92371438756001,37.530086433891704
2020,폐업,유치원,자연유치원,서울특별시 도봉구 창동 807번지 쌍용아파트 단지내 ,127.048016027917,37.6597383402503
2020,영업,유치원,프라임유치원,서울특별시 광진구 구의동 631-1번지 ,127.09759623339701,37.5373888875162
2020,영업,유치원,광남유치원,서울특별시 광진구 광장동 484번지 ,127.09857940676599,37.5406120036438
2020,영업,어린이집,이림어린이집,서울특별시 강동구 성내동 386-58번지 ,127.134815721974,37.53163862584579
2020,영업,어린이집,한빛어린이집,서울특별시 성북구 성북동1가 117-1번지 ,127.00323195789,37.59094311183679
2020,영업,어린이집,늘푸른어린이집,서울특별시 구로구 오류동 23-46번지 ,126.842580081464,37.4970893058884
2020,영업,유치원,효림유치원,서울특별시 은평구 수색동 415-1번지 대림@한숲타운내 ,126.899996653101,37.586833164497
2020,영업,유치원,샬롬유치원,서울특별시 광진구 구의동 208-6번지 ,127.091693118899,37.5424471065402
2020,영업,어린이집,구립 천사어린이집,서울특별시 중랑구 면목동 528-7번지 ,127.091746559896,37.579895062059
2020,영업,어린이집,현경어린이집,서울특별시 구로구 궁동 282-1번지 ,126.82961015709999,37.4975763338414
2020,영업,어린이집,새싹그림마을어린이집,서울특별시 마포구 연남동 566-43번지 외 1필지 ,126.922178373713,37.561014490109294
2020,영업,유치원,은선유치원,서울특별시 송파구 가락동 125-10번지 ,127.126282609729,37.4921692209671
2020,영업,유치원,대건유치원,서울특별시 용산구 이촌동 301-110번지 ,126.977660578124,37.5207099649217
2020,영업,어린이집,다산어린이집,서울특별시 중구 신당동 432-24번지 외4필지 ,127.008261069524,37.5542502323972
2020,영업,어린이집,구립 하늘샘 어린이집,서울특별시 구로구 개봉동 259-33번지 ,126.856981049665,37.4914150024623
2020,영업,어린이집,이화젠어린이집,서울특별시 도봉구 창동 821번지 ,127.042528792477,37.6334235030516
2020,영업,유치원,성신유치원,서울특별시 성북구 동선동3가 249-1번지 ,127.02119329672199,37.5922443464122
2020,영업,어린이집,키즈랜드어린이집,서울특별시 강동구 성내동 507-6번지 ,127.129872640742,37.5322341682877
2020,폐업,어린이집,봉화어린이집,서울특별시 중랑구 상봉동 481번지 ,127.09111617271401,37.60535814362729
2020,영업,어린이집,푸른솔어린이집,서울특별시 금천구 독산동 201-3번지 ,126.900187968217,37.4705502858775
2020,영업,어린이집,쌍문3동어린이집,서울특별시 도봉구 쌍문동 138-156번지 (지하1층) ,127.03291911838801,37.650921045991396
2020,영업,유치원,정의유치원,서울특별시 도봉구 쌍문동 150-1번지 ,127.03177117634199,37.6529607742287
2020,영업,어린이집,강남구립청담어린이집,서울특별시 강남구 청담동 1-13번지 ,127.040149555632,37.5221286656571
2020,영업,어린이집,파아란어린이집,서울특별시 성북구 정릉동 1028번지 번지 e편한세상아파트 관리동 ,127.010178330862,37.6151849080704
2020,영업,유치원,바다의별 유치원,서울특별시 은평구 불광동 790-1번지 ,126.92980512465599,37.6217259421676
2020,영업,어린이집,푸른솔어린이집,서울특별시 관악구 봉천동 196-249번지 ,126.962664875725,37.475137305103395
2020,영업,어린이집,구립 창4동 어린이집,서울특별시 도봉구 창동 788번지 (지상3층) ,127.05324606563299,37.64228258920279
2020,폐업,유치원,티움유치원,서울특별시 송파구 송파동 180-18,127.115234779974,37.501114662571204
2020,영업,유치원,인왕유치원,서울특별시 서대문구 홍제동 105-88,126.949477446634,37.5854009248077
2020,영업,어린이집,수성어린이집,서울특별시 강서구 화곡동 367-14번지 ,126.84084670011002,37.5363407909386
2020,영업,어린이집,현대i어린이집,서울특별시 강서구 내발산동 657-0번지 우장산힐스테이트 관리동1층 ,126.84020552703899,37.556057009981714
2020,영업,어린이집,열린 창의 어린이집,서울특별시 중랑구 묵동 235-86번지 ,127.07311010479201,37.6136735962955
2020,영업,어린이집,예승아트스쿨어린이집,서울특별시 영등포구 신길동 232-4번지 ,126.91178603761499,37.5078261845111
2020,영업,어린이집,우리또래어린이집,서울특별시 양천구 신월동 932-7번지 지하1층1층2층 ,126.83234099836201,37.521983137307295
2020,폐업,유치원,예그린유치원,서울특별시 서대문구 홍제동 361-40번지 ,126.935842046079,37.5861458615511
2020,영업,어린이집,해아띠스쿨 어린이집,서울특별시 강서구 화곡동 100-29번지 ,126.84687529320699,37.5408120589002
2020,영업,유치원,이화여자대학교사범대학부속이화유치원,서울특별시 서대문구 대현동 11-1번지 ,126.947428078879,37.562550399325794
2020,영업,어린이집,유린어린이집,서울특별시 중랑구 신내동 572-2번지 ,127.095989814188,37.604190065608
2020,영업,유치원,선양유치원,서울특별시 광진구 군자동 127-17번지 ,127.071234181005,37.5541273004061
2020,영업,어린이집,신예랑어린이집,서울특별시 영등포구 신길동 158-26번지 ,126.91468347345301,37.510518153839705
2020,영업,어린이집,성광어린이집,서울특별시 노원구 상계동 176-26번지 ,127.06977629309999,37.6568549868204
2020,폐업,유치원,예은유치원,서울특별시 강서구 화곡동 102-320번지 ,126.847203221163,37.5389138108886
2020,영업,어린이집,룸비니어린이집,서울특별시 영등포구 신길동 3183-81번지 ,126.91420516524201,37.50360827186621
2020,영업,어린이집,바우솔어린이집,서울특별시 구로구 구로동 707-5번지 ,126.881892374374,37.4901575334833
2020,영업,어린이집,고려창의스쿨어린이집,서울특별시 양천구 신정동 979-32번지 ,126.85691389652399,37.5222474663664
2020,영업,어린이집,은행나무어린이집,서울특별시 성북구 길음동 1176번지 ,127.02183250691601,37.6091570683895
2020,영업,어린이집,썬에듀스쿨어린이집,서울특별시 강서구 화곡동 424-58,126.839686923226,37.531662915561206
2020,영업,어린이집,동화속의아이들어린이집,서울특별시 종로구 무악동 83번지 무악현대아파트단지내 ,126.95882392585101,37.5754014194249
2020,영업,어린이집,사과나무어린이집,서울특별시 강남구 논현동 139-1번지 ,127.02574527984699,37.5111080742815
2020,폐업,어린이집,신태양어린이집,서울특별시 강서구 화곡동 453-16번지 ,126.85261486797899,37.5336195241583
2020,영업,어린이집,푸른숲어린이집,서울특별시 영등포구 당산동2가 164번지 ,126.894855531054,37.5234957508875
2020,영업,어린이집,무지개영재어린이집,서울특별시 영등포구 당산동3가 475번지 4층 ,126.893715516875,37.5250923516088
2020,영업,어린이집,노벨어린이집,서울특별시 중랑구 망우동 418-21번지 ,127.10162321474701,37.592652097608706
2020,폐업,유치원,상원유치원,서울특별시 노원구 중계동 511-2 상원유치원,127.069629773167,37.6434450066513
2020,폐업,어린이집,큰나무 어린이집,서울특별시 은평구 녹번동 98-3 (지상1층),126.928539348647,37.605507702741896
2020,영업,유치원,화곡유치원,서울특별시 강서구 화곡동 24-268번지 A동 ,126.846562569596,37.5440003211822
2020,영업,어린이집,남서울교회부설 남서울어린이집,서울특별시 영등포구 당산동6가 121-98번지 ,126.90716335415199,37.532920134843295
2020,영업,유치원,옥인유치원,서울특별시 종로구 옥인동 18번지 2층호,126.970320930348,37.5822015782812
2020,영업,유치원,은평국제유치원,서울특별시 은평구 은평로3가길 32 (신사동 은평국제유치원),126.911466084911,37.59896020296861
2020,영업,어린이집,부렴어린이집,서울특별시 송파구 잠실동 294-29번지 ,127.07906061919901,37.5058999500064
2020,영업,유치원,선일유치원(선일중학교 공동관리),서울특별시 은평구 갈현동 240-1번지 (지상3층) ,126.912446528906,37.619724826658505
2020,영업,어린이집,햇님어린이집,서울특별시 송파구 삼전동 45-16번지 ,127.089708633624,37.502248566024896
2020,영업,어린이집,리더 어린이집,서울특별시 송파구 석촌동 259-16,127.103659948804,37.500912139263
2020,영업,유치원,동화나라유치원,서울특별시 노원구 상계동 1285번지 ,127.07966108458,37.66694774703871
2020,영업,어린이집,영재사관 어린이집,서울특별시 중랑구 면목동 173-117번지 ,127.07709484753201,37.584405579332596
2020,영업,어린이집,세라핌 어린이집,서울특별시 구로구 오류동 31-1번지 ,126.844994568899,37.4977138875225
2020,영업,어린이집,해맑은 어린이집,서울특별시 동대문구 장안동 93-104번지 3층 ,127.072273420529,37.5810861785512
2020,영업,어린이집,뉴솔로몬 어린이집,서울특별시 중랑구 망우동 405-26번지 ,127.10185664749099,37.5947238644534
2020,영업,어린이집,경찰청어린이집,서울특별시 서대문구 미근동 31-8번지 ,126.96691453084999,37.5641705904036
2020,영업,어린이집,요한어린이집,서울특별시 중랑구 면목동 655-33번지 ,127.084373255781,37.5794823796766
2020,영업,유치원,보성유치원,서울특별시 광진구 광장동 218-1번지 ,127.104163720231,37.5431499569007
2020,영업,유치원,큰나무유치원,서울특별시 영등포구 대림동 608-1번지 지하1층 ,126.895589146632,37.5055213337073
2020,영업,어린이집,강동아이슐레어린이집,서울특별시 강동구 암사동 437-1번지 ,127.13751469705099,37.5532351429336
2020,영업,유치원,대진유치원,서울특별시 마포구 성산동 13-15번지 1층 ,126.916352680898,37.562183669848
2020,영업,어린이집,향기나는어린이집,서울특별시 양천구 신정동 189-1번지 ,126.863574284133,37.5062811728005
2020,영업,어린이집,바다의 별 어린이집,서울특별시 중랑구 면목동 1165번지 ,127.088687163375,37.5870820449541
2020,영업,어린이집,지원어린이집,서울특별시 양천구 신월동 521-4번지 ,126.84003588545,37.520769016738896
2020,영업,어린이집,구립시흥4동어린이집,서울특별시 금천구 시흥동 812-38번지 ,126.90612540725,37.4589335621508
2020,영업,어린이집,예쁜튼튼어린이집,서울특별시 구로구 구로동 532-121번지 예쁜튼튼어린이집 ,126.887254392654,37.4981921581231
2020,폐업,어린이집,킨더아카데미 어린이집,서울특별시 서초구 서초동 1312-3번지 롯데캐슬클래식아파트 ,127.02141678680599,37.5000030302875
2020,영업,어린이집,동광어린이집,서울특별시 동작구 상도동 242-19번지 ,126.935141803586,37.50160372587421
2020,영업,어린이집,행복한어린이집,서울특별시 송파구 송파동 113-2번지 송파여성문화회관 지상2층 ,127.109755227034,37.505889074535396
2020,폐업,어린이집,다윗어린이집,서울특별시 성북구 동선동2가 1-2번지 ,127.017465324467,37.5902612345751
2020,영업,어린이집,아해뜰어린이집,서울특별시 영등포구 대림동 691-6번지 ,126.899282309352,37.497591607576396
2020,영업,유치원,홍신유치원,서울특별시 강서구 내발산동 714-3번지 ,126.832486885053,37.5481548401152
2020,폐업,유치원,까치유치원,서울특별시 노원구 중계동 445번지 염광아파트내 까치유치원 ,127.072918278426,37.6561721172139
2020,영업,어린이집,희망나래어린이집,서울특별시 노원구 공릉동 503-18번지 지하1층 ,127.07615375839701,37.625621421666295
2020,영업,어린이집,연동어린이집,서울특별시 종로구 연지동 136-25번지 ,127.001228529198,37.5740448403335
2020,영업,유치원,누리에유치원,서울특별시 중랑구 면목동 193-1번지 ,127.075439149606,37.5874952440214
2020,영업,어린이집,행복한삐아제어린이집,서울특별시 양천구 신월동 591-1번지 ,126.84741877276699,37.5165101879561
2020,영업,유치원,동은유치원,서울특별시 노원구 중계동 503번지 시영단지내상가 2층 ,127.06408163818399,37.6420171129139
2020,영업,어린이집,해달별아이사랑어린이집,서울특별시 영등포구 대림동 704-2번지 지상3층 ,126.89871460256701,37.4929690908546
2020,영업,유치원,성산유치원,서울특별시 광진구 자양동 658-1번지 성산유치원 ,127.084114497672,37.532885366874794
2020,영업,유치원,보고유치원,서울특별시 노원구 월계동 435-5번지 ,127.061395987134,37.619583771353604
2020,영업,유치원,성지유치원,서울특별시 영등포구 영등포동 647번지 1층 ,126.9023655285,37.5115222769095
2020,영업,유치원,구강사유치원,서울특별시 강동구 천호동 363번지 12층 ,127.128826592312,37.54484939779879
2020,영업,어린이집,태화어린이집,서울특별시 중랑구 신내동 661번지 ,127.09398250386002,37.607529156013605
2020,영업,유치원,서울경동유치원,서울특별시 성동구 성수동1가 19-1번지 지상1층 ,127.050415409352,37.543050935437996
2020,영업,유치원,진달래유치원,서울특별시 중랑구 상봉동 190-86번지 ,127.086821968946,37.5987469107147
2020,영업,유치원,새아랑유치원,서울특별시 중랑구 신내동 657번지 ,127.094700338812,37.6119766854761
2020,영업,유치원,석문유치원,서울특별시 서초구 서초동 1634-1 석문유치원,127.02176391996201,37.4926976788127
2020,영업,유치원,아랑유치원,서울특별시 성북구 돈암동 636번지 브라운스톤이수아파트 ,127.01776376985201,37.5978622586755
2020,영업,어린이집,구립 언북어린이집,서울특별시 강남구 청담동 27-0번지 언북초등학교내 교육문화회관 지상2층 ,127.045601950516,37.5199601252929
2020,영업,어린이집,어린왕자어린이집,서울특별시 강서구 화곡동 337-17번지 ,126.84627100741301,37.5350289495396
2020,영업,유치원,초안유치원,서울특별시 노원구 월계동 924번지 초안아파트 2단지내 ,127.04289401227699,37.6313121712825
2020,영업,유치원,성모유치원,서울특별시 영등포구 신길동 890번지 ,126.920992281483,37.50520141050721
2020,영업,유치원,예일유치원,서울특별시 강서구 내발산동 741-3번지 ,126.829169345618,37.5536834756333
2020,영업,유치원,우성유치원,서울특별시 영등포구 신길동 365번지 ,126.900392565391,37.5053164852512
2020,영업,유치원,평강유치원,서울특별시 영등포구 대림동 912번지 ,126.90816955855301,37.4958805588425
2020,영업,어린이집,방학3동 어린이집,서울특별시 도봉구 방학동 731-1번지 ,127.032410808753,37.6612403954817
2020,영업,어린이집,시온어린이집,서울특별시 중랑구 면목동 1285번지 ,127.088505505271,37.59214317754879
2020,영업,어린이집,미리내어린이집,서울특별시 노원구 공릉동 708번지 공릉1단지아파트 ,127.069403699559,37.6302649045774
2020,영업,어린이집,선화어린이집,서울특별시 강서구 등촌동 691-3번지 ,126.84361577449499,37.563546004184
2020,영업,유치원,성락유치원,서울특별시 영등포구 신길동 369번지 ,126.901130726716,37.503967408998
2020,폐업,유치원,은성유치원,서울특별시 중랑구 중화동 450번지 ,127.081881267972,37.59714058506629
2020,영업,유치원,윤경유치원,서울특별시 중랑구 묵동 13번지 ,127.084847714012,37.6164041172639
2020,영업,유치원,동성유치원,서울특별시 중랑구 신내동 618번지 ,127.096219999868,37.6085187029645
2020,영업,유치원,잠실밀알유치원,서울특별시 송파구 잠실동 35-3번지 ,127.089306920938,37.509305742539
2020,영업,유치원,상명사대부속유치원,서울특별시 종로구 홍지동 56번지 상명초등학교 ,126.956326108947,37.6007998147255
2020,영업,어린이집,푸른솔어린이집,서울특별시 강북구 수유동 246-3번지 ,127.019279509315,37.643924676129714
2020,영업,어린이집,짐랜드어린이집,서울특별시 성북구 정릉동 175-5번지 번지 ,127.015788356938,37.603914790222795
2020,영업,어린이집,청화어린이집,서울특별시 강북구 번동 148-7번지 ,127.037709746259,37.6281993919762
2020,영업,유치원,성요셉유치원,서울특별시 강남구 청담동 117-0번지 지상1층 ,127.048205783055,37.5267342227319
2020,영업,유치원,우리곰유치원,서울특별시 강서구 가양동 1460-0번지 한강타운 아파트단지내 ,126.84496188423599,37.5713729374833
2020,영업,유치원,선미유치원,서울특별시 강서구 화곡동 105-244번지 ,126.843608305356,37.5392971920537
2020,영업,유치원,영은유치원,서울특별시 중랑구 신내동 650번지 신내6단지 아파트내 ,127.090988042285,37.6152531258919
2020,영업,어린이집,서울시인재개발원 쑥쑥어린이집,서울특별시 서초구 서초동 391번지 서울시 인재개발원 직장어린이집 ,127.020596091716,37.4802272553304
2020,영업,어린이집,응암홍익어린이집,서울특별시 은평구 응암동 732-3번지 (지상1층) ,126.91836306588499,37.585667460366395
2020,영업,어린이집,서초구청 어린이집,서울특별시 서초구 서초동 1360-26번지 ,127.0313530762,37.486412537427505
2020,영업,어린이집,은평구청어린이집,서울특별시 은평구 녹번동 87-1번지 (별관동 지상1층) ,126.92957415286999,37.6025342747956
2020,영업,어린이집,예담어린이집,서울특별시 영등포구 양평동5가 71-2번지 (1층) ,126.89366586011299,37.5386999566837
2020,영업,어린이집,궁전어린이집,서울특별시 중랑구 면목동 172-34번지 ,127.078779559783,37.5843047260577
2020,영업,어린이집,구립신림어린이집,서울특별시 관악구 신림동 1735-5번지 ,126.91871708011001,37.46151692964111
2020,영업,어린이집,아이어린이집,서울특별시 중랑구 묵동 240-66번지 ,127.07534455814199,37.6110326825784
2020,영업,어린이집,파미유어린이집,서울특별시 도봉구 도봉동 613-20번지 ,127.04184697908701,37.67166430799421
2020,영업,어린이집,신영어린이집,서울특별시 동작구 신대방동 707번지 현대아파트 107동 12층호,126.912224311327,37.494554230491296
2020,영업,어린이집,구립노을어린이집,서울특별시 마포구 상암동 1674번지 ,126.882875143251,37.5775929999866
2020,영업,어린이집,상도복지관어린이집,서울특별시 동작구 상도1동 456번지 1층 ,126.949581122656,37.502470247635294
2020,폐업,어린이집,숲속반디어린이집,서울특별시 성북구 하월곡동 225 번지 월곡래미안아파트 관리동,127.03684704518601,37.610430843353896
2020,영업,어린이집,세화어린이집,서울특별시 강서구 화곡동 994-6번지 세화어린이집.6동 ,126.84663077597,37.5520298472364
2020,영업,어린이집,뉴제나어린이집,서울특별시 성북구 삼선동5가 80번지 번지 ,127.01410858693998,37.5882039708507
2020,영업,어린이집,푸른나라 어린이집,서울특별시 영등포구 당산동4가 37번지 (1층) ,126.89709775808998,37.5287685219666
2020,영업,어린이집,혜시의사과나무 어린이집,서울특별시 강서구 화곡동 1008-17번지 외 1필지 ,126.834085282986,37.547827422340795
2020,영업,어린이집,쁘띠아미 에꼴 어린이집,서울특별시 강서구 화곡동 468-13번지 ,126.855575387085,37.5366802473812
2020,영업,어린이집,건강한 어린이집,서울특별시 영등포구 대림동 784번지 외 1필지 2층 ,126.89582964760599,37.5033017411387
2020,영업,어린이집,건강한 현대어린이집,서울특별시 영등포구 대림동 608-1번지 (1층) ,126.895589146632,37.5055213337073
2020,영업,어린이집,영신어린이집,서울특별시 영등포구 신길동 239-1번지 (2층) ,126.910583154054,37.503943079306396
2020,영업,어린이집,다해어린이집,서울특별시 송파구 잠실동 35번지 트리지움 관리동 1층 ,127.08954570746799,37.5098787425949
2020,영업,어린이집,새예닮 어린이집,서울특별시 영등포구 신길동 186-134번지 (1층) ,126.913245927897,37.5137983715961
2020,폐업,유치원,성모유치원,서울특별시 동작구 상도동 204-89번지 ,126.93993952694099,37.5015686116077
2020,영업,어린이집,신이화 어린이집,서울특별시 영등포구 문래동5가 19-8번지 (2층) ,126.88529241629499,37.515880160171704
2020,폐업,어린이집,보혜어린이집,서울특별시 중랑구 망우동 499-4번지 ,127.094021066917,37.5936747616945
2020,영업,어린이집,아람어린이집,서울특별시 은평구 연서로27길 19-1 (갈현동),126.917138112873,37.6180032489926
2020,영업,어린이집,초록둘리어린이집,서울특별시 금천구 시흥동 835-30번지 금천제일교회 ,126.907109116499,37.452374710265104
2020,영업,어린이집,어깨동무어린이집,서울특별시 영등포구 영등포동 618-42번지 영일복지관내 ,126.90746414101999,37.5136062532232
2020,영업,어린이집,하정어린이집,서울특별시 영등포구 신길동 869번지 ,126.92216439048401,37.5058487252577
2020,영업,어린이집,신일어린이집,서울특별시 영등포구 신길동 465-1번지 ,126.92143141003099,37.5111472228526
2020,영업,어린이집,예님어린이집,서울특별시 영등포구 도림동 222-7번지 ,126.895966395744,37.5095249278708
2020,영업,어린이집,도림어린이집,서울특별시 영등포구 도림동 205-24번지 C동 ,126.89704650848999,37.5099335909061
2020,영업,어린이집,구립 양평2동어린이집,서울특별시 영등포구 양평동4가 243-1번지 (1층) ,126.89638255009199,37.5380782722746
2020,영업,어린이집,새연 어린이집,서울특별시 구로구 구로동 111-11번지 ,126.88857914775801,37.5010292821109
2020,영업,어린이집,새날어린이집,서울특별시 구로구 구로동 142-39번지 ,126.892073490218,37.4905648641291
2020,영업,어린이집,구립 대림2동어린이집,서울특별시 영등포구 대림동 705번지 (1층) ,126.89814736570801,37.4926687037455
2020,영업,어린이집,명신어린이집,서울특별시 영등포구 신길동 268-3 (1층),126.908083515168,37.5074296453234
2020,폐업,어린이집,코뿔소 어린이집,서울특별시 영등포구 양평동1가 13-6 (1층),126.889061583108,37.521588579996
2020,영업,유치원,파란나라유치원,서울특별시 영등포구 대림동 652번지 (2층) ,126.89725674424801,37.5031801086146
2020,영업,어린이집,뉴한가람어린이집,서울특별시 송파구 마천동 38번지 ,127.146339826618,37.499660368627204
2020,영업,유치원,벧엘유치원,서울특별시 동작구 노량진동 225-57번지 송학대교회내 ,126.942581797201,37.5089748161034
2020,영업,유치원,정일유치원,서울특별시 송파구 방이동 137-7번지 ,127.117354678694,37.510444540588296
2020,영업,유치원,행복한유치원,서울특별시 도봉구 쌍문동 54번지 ,127.03117371303001,37.6585545048336
2020,영업,유치원,한신 혜원유치원,서울특별시 영등포구 양평동5가 76번지 한신(아)내 3층 ,126.892078579806,37.5401031858902
2020,영업,어린이집,안동어린이집,서울특별시 종로구 가회동 132번지 안동교회 ,126.98433028607501,37.5797957325224
2020,영업,유치원,삼성그린유치원,서울특별시 마포구 도화동 550번지 지1층 삼성아파트단지내 ,126.95032269902201,37.5401025115421
2020,영업,유치원,노량진교회유치원,서울특별시 동작구 본동 11-11번지 ,126.955962969181,37.5121042193423
2020,영업,어린이집,자연어린이집,서울특별시 중랑구 망우동 365-6번지 ,127.101216272924,37.5988358858221
2020,폐업,유치원,무지개유치원,서울특별시 동작구 상도동 408-0번지 삼호아파트유치원 ,126.957407168921,37.4935189777321
2020,영업,유치원,밀알유치원,서울특별시 송파구 가락동 196-16번지 (3층) ,127.131631751347,37.4930462990882
2020,영업,유치원,열림유치원,서울특별시 동작구 대방동 503-1번지 ,126.92920335990699,37.5089498969299
2020,영업,유치원,송파예원유치원,서울특별시 송파구 방이동 215번지 지상3층 ,127.123450637689,37.508389195336704
2020,영업,유치원,신암유치원,서울특별시 성북구 보문동2가 30번지 ,127.017244591892,37.5866483555154
2020,영업,어린이집,구립하나푸르니신길어린이집,서울특별시 영등포구 신길동 232-20번지 지상1층 ,126.911647656286,37.5071470677036
2020,폐업,어린이집,가락아이뜰어린이집,서울특별시 송파구 가락동 119-13번지 ,127.124972174825,37.4919629456731
2020,영업,유치원,유안유치원,서울특별시 강북구 수유동 560-17번지 ,127.010457301998,37.645258808232995
2020,영업,유치원,새싹유치원,서울특별시 관악구 남현동 1071-25번지 ,126.972839709749,37.4745425060225
2020,영업,유치원,세종유치원,서울특별시 서대문구 북가좌동 449번지 (삼호아파트내) 2층 ,126.913145542703,37.576483104935605
2020,영업,유치원,학교법인 창가학원 행복유치원,서울특별시 동작구 상도동 210-486번지 ,126.94112830282499,37.4956569783082
2020,영업,유치원,성아유치원,서울특별시 은평구 응암동 335-19번지 ,126.91971947844101,37.589927267774
2020,영업,유치원,강서유치원,서울특별시 강서구 화곡동 969-10번지 ,126.850024847523,37.5481955298703
2020,영업,유치원,문성유치원,서울특별시 강서구 화곡동 94-1번지 ,126.844578946434,37.5470706971889
2020,폐업,유치원,신반포중앙유치원,서울특별시 서초구 잠원동 60-3번지 (지하1층) ,127.012351642908,37.5116438426304
2020,폐업,유치원,동명유치원,서울특별시 강북구 미아동 53-1번지 ,127.034231608729,37.6135861407885
2020,영업,유치원,메이플 유치원,서울특별시 동작구 신대방동 565번지 우성아파트단지내 ,126.911583085546,37.4922558234258
2020,영업,유치원,자양하나유치원,서울특별시 광진구 자양동 225-85번지 ,127.07857158213301,37.538806410899795
2020,영업,유치원,장미유치원,서울특별시 강서구 가양동 1475-0번지 강변아파트 상가동 ,126.855642304398,37.5652045065319
2020,영업,유치원,등촌이화유치원,서울특별시 강서구 등촌동 705-1번지 ,126.847931331343,37.5597495623863
2020,영업,유치원,꿈나라유치원,서울특별시 서초구 서초동 1336-1번지 ,127.027628750589,37.491825617612
2020,영업,유치원,하나 유치원,서울특별시 종로구 평창동 439-5번지 지하1층 지상2층 ,126.977432860974,37.6143462011204
2020,영업,유치원,반포성모유치원,서울특별시 서초구 반포동 4-1번지 ,126.994469318512,37.5048856095785
2020,영업,어린이집,강서구청어린이집,서울특별시 강서구 화곡동 980-29번지 강서구청어린이집 (지상 1층) ,126.850946581448,37.5497745942759
2020,영업,유치원,영생유치원,서울특별시 서초구 반포동 4-10번지 신반포교회 ,126.995664645343,37.50503488854911
2020,영업,어린이집,또래또어린이집,서울특별시 은평구 신사동 1-53번지 ,126.91353741196698,37.5999373037951
2020,영업,유치원,성요섭 유치원,서울특별시 영등포구 여의도동 50번지 시범아파트 단지내 성요섭유치원 2층 ,126.93708102978998,37.520682580279
2020,영업,유치원,새성민유치원,서울특별시 서초구 방배동 981-2번지 ,126.996095910161,37.480717546573
2020,영업,유치원,아란유치원,서울특별시 강남구 압구정동 456-0번지 ,127.02887990868,37.5299242266991
2020,폐업,유치원,대붕유치원,서울특별시 강서구 가양동 1482-0,126.857148450656,37.56208451943621
2020,영업,유치원,동우유치원,서울특별시 서초구 서초동 1514-2번지 ,127.005540976897,37.4863418154121
2020,영업,유치원,구룡유치원,서울특별시 서초구 양재동 399-1번지 ,127.049077018825,37.4711788243284
2020,폐업,유치원,미파유치원,서울특별시 광진구 중곡동 608-6,127.085858277725,37.5702253545033
2020,영업,유치원,우일유치원,서울특별시 강서구 화곡동 463-5번지 외2필지(617) ,126.85516458079701,37.5351763324958
2020,영업,유치원,유화유치원,서울특별시 도봉구 방학동 271-4번지 신동아아파트 내 유치원 ,127.02693344368,37.6594075696218
2020,영업,어린이집,해오름 어린이집,서울특별시 관악구 봉천동 1691-34번지 ,126.967825671651,37.4757783513803
2020,영업,유치원,경원유치원,서울특별시 광진구 구의동 16-10번지 ,127.09610006574499,37.5548734533912
2020,영업,유치원,한나유치원,서울특별시 강서구 방화동 814번지 ,126.8102273583,37.5771767124895
2020,영업,어린이집,잠실어린이집(구립),서울특별시 송파구 신천동 17번지 (1층) ,127.106126473146,37.5205278484687
2020,영업,유치원,성보유치원,서울특별시 양천구 목동 741-11번지 ,126.867807119104,37.539647552773
2020,영업,유치원,홍제성당유치원,서울특별시 서대문구 홍제동 301-6번지 ,126.943932876915,37.5900325164639
2020,영업,유치원,광장유치원,서울특별시 광진구 광장동 272-2번지 ,127.105195812704,37.548441096293296
2020,폐업,유치원,영산유치원,서울특별시 노원구 상계동 720 주공아파트 6단지내,127.064721624198,37.6537883390625
2020,영업,유치원,효천유치원,서울특별시 노원구 중계동 366번지 효천유치원 ,127.079516340172,37.6519227694515
2020,영업,어린이집,송파구푸른어린이집,서울특별시 송파구 잠실동 22번지 (250동 1층) ,127.08842986992902,37.514050235214704
2020,영업,유치원,진일유치원,서울특별시 강서구 가양동 1474번지 ,126.854005387117,37.56633552927371
2020,영업,유치원,신세기유치원,서울특별시 강서구 가양동 1461번지 ,126.847148985623,37.570483896811396
2020,영업,유치원,우리유치원,서울특별시 노원구 중계동 359-4번지 ,127.077700563214,37.652876130041896
2020,영업,유치원,아람유치원,서울특별시 강서구 방화동 817-0번지 동성아파트내 ,126.812156495888,37.5795906176078
2020,영업,유치원,우람유치원,서울특별시 강서구 방화동 875-0번지 외1필지(875-1) ,126.814950319777,37.5746902212455
2020,영업,유치원,국제유치원,서울특별시 강서구 마곡동 327-40번지 ,126.822873444341,37.5702030149934
2020,영업,유치원,해리유치원,서울특별시 강서구 가양동 1490-0번지 가양9단지아파트 ,126.86350760040001,37.5587094978151
2020,폐업,유치원,경기유치원,서울특별시 강남구 개포동 189-4번지 ,127.072060319239,37.485637405454796
2020,영업,유치원,이화유치원,서울특별시 강남구 개포동 12-0번지 ,127.075191406544,37.4941756707605
2020,영업,유치원,예지유치원,서울특별시 강서구 공항동 653-1번지 ,126.813193340187,37.5576616988566
2020,영업,유치원,윤서유치원,서울특별시 강서구 화곡동 1091-0번지 대우아파트내 ,126.831417771,37.5446099449502
2020,영업,유치원,하늘빛유치원,서울특별시 강남구 일원동 711번지 ,127.090259593712,37.492625329087794
2020,영업,어린이집,으뜸어린이집,서울특별시 양천구 신정동 911-6번지 ,126.85829000256099,37.526856645163996
2020,영업,유치원,돌샘유치원,서울특별시 강남구 개포동 185-1번지 ,127.071531513047,37.4883947139283
2020,영업,유치원,영동제일유치원,서울특별시 강남구 삼성동 63-10번지 ,127.05334355167,37.5174362279736
2020,영업,유치원,강남유치원,서울특별시 강남구 논현동 243-0번지 ,127.039072024951,37.5153663742354
2020,영업,유치원,신영유치원,서울특별시 강서구 화곡동 391-48번지 외 1필지 (지상 2층) ,126.849212014445,37.5309813952113
2020,영업,유치원,성실유치원,서울특별시 노원구 하계동 251번지 성실유치원 ,127.071528550989,37.6393796243759
2020,영업,유치원,일원유치원,서울특별시 강남구 일원동 611-1번지 ,127.07509740212,37.490891681319
2020,영업,유치원,연세유치원,서울특별시 노원구 중계동 505번지 연세유치원 ,127.06246117615,37.638776351274
2020,영업,어린이집,서초삼성어린이집,서울특별시 서초구 서초동 1320-10번지 ,127.026831208367,37.4966812509433
2020,영업,유치원,보라유치원,서울특별시 강서구 등촌동 694번지 ,126.84663039596,37.562634276795
2020,영업,어린이집,구립꿈나래어린이집,서울특별시 금천구 시흥동 118-90번지 ,126.897438834077,37.454873401937
2020,영업,유치원,한양유치원,서울특별시 동대문구 답십리동 41번지 동서울한양아파트내 ,127.060366087429,37.5714002988172
2020,영업,유치원,효자유치원,서울특별시 노원구 월계동 13번지 효자유치원 ,127.06538929190901,37.62458137813879
2020,영업,어린이집,피노키오어린이집,서울특별시 마포구 망원동 381-8번지 피노키오어린이집 1층 ,126.90789622118099,37.55437924610521
2020,영업,유치원,등촌유치원,서울특별시 양천구 목동 625-19번지 ,126.865001250667,37.54672721145771
2020,영업,어린이집,키즈용맹어린이집,서울특별시 광진구 중곡동 76-58번지 ,127.091071094203,37.5585772999422
2020,영업,유치원,남부유치원,서울특별시 강남구 도곡동 464-0번지 ,127.04887320138701,37.48688044611379
2020,폐업,유치원,이레유치원,서울특별시 노원구 월계동 320-9번지 사슴아파트 2단지내 ,127.0608904094,37.6325566507317
2020,영업,유치원,학여울유치원,서울특별시 노원구 하계동 354 학여울청구아파트,127.06131291022699,37.6363403795948
2020,영업,유치원,방화이화유치원,서울특별시 강서구 방화동 449-27번지 ,126.813474171894,37.574038689597
2020,영업,유치원,세화유치원,서울특별시 양천구 신정동 329번지 ,126.870313068312,37.51617934010649
2020,영업,유치원,예진유치원,서울특별시 노원구 공릉동 715번지 ,127.068586882048,37.6272575573384
2020,영업,유치원,사랑유치원,서울특별시 동대문구 청량리동 60번지 한신아파트 유치원120동 (지하1층) ,127.049175784799,37.587989961157
