년,상세영업상태명,학교종류,학교명,주소,경도,위도
2017,영업,어린이집,개미어린이집,서울특별시 금천구 독산동 993-30번지 개미어린이집 ,126.9058755,37.47302578
2017,영업,어린이집,숲속 어린이집,서울특별시 서대문구 홍제동 453번지 ,126.9520239,37.58190477
2017,폐업,어린이집,구립역마을어린이집,서울특별시 은평구 역촌동 73-29번지 ,126.9084848,37.60423984
2017,영업,어린이집,금융감독원어린이집,서울특별시 영등포구 여의도동 27번지 1층 ,126.9213059,37.52304737
2017,영업,어린이집,구립 밝은어린이집,서울특별시 구로구 가리봉동 2-10번지 ,126.88249240000002,37.48637371
2017,영업,어린이집,아름누리어린이집,서울특별시 금천구 시흥동 5-13번지 아름누리어린이집 지하1층 ,126.90942340000002,37.46326719
2017,영업,어린이집,KIST(키스트)숲속어린이집,서울특별시 성북구 하월곡동 39-1번지 ,127.0453148,37.60106522
2017,영업,어린이집,GKL행복어린이집 강남코엑스점,서울특별시 강남구 삼성동 63-6번지 ,127.05363909999998,37.51728155
2017,영업,어린이집,아뜰리에어린이집,서울특별시 성북구 보문동6가 198-45번지 ,127.0175633,37.58051635
2017,영업,유치원,한양유치원,서울특별시 노원구 월계동 18번지 한양유치원 ,127.0685417,37.61779372
2017,영업,어린이집,예원비전스쿨 어린이집,서울특별시 강서구 화곡동 102-64번지 예원비전스쿨어린이집 (지상 3층) ,126.8462798,37.53944974
2017,영업,어린이집,구립 신촌 어린이집,서울특별시 서대문구 창천동 4-63번지 구립 신촌 어린이집 ,126.939581,37.55756412
2017,영업,어린이집,허브리츠어린이집,서울특별시 동대문구 용두동 792번지 ,127.0360122,37.57533879
2017,영업,어린이집,금주어린이집,서울특별시 금천구 시흥동 881-25번지 금주어린이집 ,126.9016176,37.45640406
2017,영업,어린이집,구립대림1동어린이집,서울특별시 영등포구 대림동 899-2번지 지하1층 ,126.9059552,37.49544463
2017,영업,어린이집,대신어린이집,서울특별시 서대문구 신촌동 34-6번지 대신어린이집 ,126.9474811,37.56667971
2017,영업,어린이집,파크하비오 어린이집,서울특별시 송파구 문정동 618번지 ,127.1236425,37.48059620000001
2017,영업,어린이집,딩동댕어린이집,서울특별시 도봉구 창동 536-18번지 ,127.0395718,37.6359678
2017,영업,어린이집,구립해바라기어린이집,서울특별시 양천구 신정동 310-11번지 지상1층 ,126.8565353,37.51715873
2017,영업,유치원,란키즈 유치원,서울특별시 송파구 문정동 73-4번지 ,127.1262486,37.48076207
2017,영업,어린이집,서초구립 반포1동주민센터어린이집,서울특별시 서초구 반포동 20-48번지 1층 ,127.0133583,37.50509211
2017,영업,어린이집,국공립삼선교어린이집,서울특별시 성북구 삼선동3가 115-3번지 ,127.0120608,37.58450541
2017,영업,어린이집,구립 푸른빛어린이집,서울특별시 서대문구 북아현동 223-5,126.9513297,37.55757253
2017,영업,어린이집,구립 은빛어린이집,서울특별시 서대문구 북아현동 149-31번지 1층 ,126.9547721,37.55774997
2017,영업,어린이집,북성엘리트 어린이집,서울특별시 서대문구 북아현동 229-49번지 북성교회 부설 북성엘리트 어린이집 ,126.95061409999998,37.55864236
2017,영업,어린이집,서초1동 구립하은어린이집,서울특별시 서초구 서초동 1668-15번지 5층 ,127.0182733,37.49318999
2017,영업,어린이집,한그루어린이집,서울특별시 도봉구 쌍문동 174-18번지 ,127.0335434,37.65655397
2017,영업,어린이집,구립아이뜰어린이집,서울특별시 금천구 가산동 60-25번지 ,126.8860768,37.47598392
2017,영업,어린이집,IBK 참! 좋은 어린이집,서울특별시 중구 을지로2가 206번지 IBK파이낸스타워 4층 ,126.9870783,37.56574000000001
2017,영업,유치원,한마음유치원,서울특별시 성북구 장위동 219-48번지 ,127.0411708,37.61618970000001
2017,영업,어린이집,연초롱어린이집,서울특별시 구로구 천왕동 281번지 209동 1호,126.8392829,37.48456679
2017,영업,어린이집,서초구립 서초4동써밋1어린이집,서울특별시 서초구 서초동 1311번지 1층 ,127.0195454,37.50119695
2017,영업,어린이집,봄빛어린이집,서울특별시 강동구 강일동 673번지 ,127.176272,37.56729607
2017,영업,어린이집,청운어린이집,서울특별시 성북구 종암동 3-1250번지 ,127.0350749,37.59923955
2017,영업,어린이집,알지오어린이집,서울특별시 중랑구 묵동 236-20번지 ,127.07369950000002,37.61186264
2017,영업,어린이집,튼튼어린이집,서울특별시 강서구 등촌동 522-33번지 튼튼어린이집 (지상 3층) ,126.8613488,37.5468823
2017,영업,어린이집,행운어린이집,서울특별시 관악구 봉천동 28-55번지 ,126.9567623,37.48318931
2017,영업,어린이집,구립힐스 송파어린이집,서울특별시 송파구 장지동 883번지 ,127.142422,37.47955387
2017,영업,어린이집,서울경찰청 어린이집,서울특별시 종로구 내자동 201-11번지 2층 ,126.97203629999998,37.57501157
2017,영업,어린이집,구립양평3가어린이집,서울특별시 영등포구 양평동3가 36번지 지하1층 ,126.8874071,37.52686429
2017,영업,유치원,등촌제일유치원,서울특별시 강서구 등촌동 643-7번지 등촌제일교회 (지하 1층) ,126.85925659999998,37.55546961
2017,영업,어린이집,구립키즈어린이집,서울특별시 영등포구 대림동 1059-46번지 지하1층 ,126.8965412,37.49111024
2017,영업,어린이집,키드스쿨어린이집,서울특별시 영등포구 대림동 1116-49번지 1층 ,126.8963293,37.49111584
2017,영업,어린이집,구립서정어린이집,서울특별시 서초구 방배동 455-11번지 방배노인종합복지관 어린이집 1층 ,126.9827889,37.48079393
2017,영업,어린이집,국공립새롬어린이집,서울특별시 중랑구 면목동 619-1번지 ,127.0891254,37.57950819
2017,영업,어린이집,롯데금빛어린이집,서울특별시 금천구 독산동 448-1번지 ,126.892863,37.45867074
2017,영업,어린이집,메리츠어린이집,서울특별시 영등포구 여의도동 25-1번지 2층 ,126.9263446,37.52428085
2017,폐업,어린이집,서울북부지방법원어린이집,서울특별시 도봉구 도봉동 626번지 ,127.0469513,37.67736766
2017,영업,어린이집,보노어린이집,서울특별시 은평구 갈현동 241-20번지 ,126.9123137,37.62086843
2017,영업,유치원,꿈꾸는 유치원,서울특별시 강북구 미아동 3-29번지 ,127.035024,37.61654835
2017,영업,어린이집,구립해나어린이집,서울특별시 강동구 암사동 445-11번지 ,127.13474840000002,37.5558456
2017,영업,어린이집,청명어린이집,서울특별시 성북구 석관동 340-11번지 ,127.0564005,37.60742077
2017,영업,어린이집,구립 위례별마루 어린이집,서울특별시 송파구 장지동 885번지 ,127.1458483,37.48057299
2017,영업,어린이집,이삭 어린이집,서울특별시 은평구 불광동 436-29번지 ,126.9262876,37.62316839
2017,영업,어린이집,별산솔 어린이집,서울특별시 은평구 불광동 230-12번지 ,126.9314614,37.61742993
2017,영업,어린이집,위례꿈별어린이집,서울특별시 송파구 장지동 885번지 ,127.1458483,37.48057299
2017,영업,어린이집,신중앙어린이집,서울특별시 성북구 보문동2가 56-8번지 ,127.0176143,37.58619089
2017,영업,어린이집,유앤미슐레어린이집,서울특별시 양천구 신월동 99-8번지 지상2층 ,126.8325366,37.53453921
2017,영업,어린이집,송파푸르지오 어린이집,서울특별시 송파구 문정동 618번지 ,127.1236425,37.48059620000001
2017,영업,어린이집,아랑어린이집,서울특별시 성북구 종암동 78-78번지 ,127.0289485,37.599701
2017,영업,어린이집,구립보림어린이집,서울특별시 동대문구 이문동 120-1번지 ,127.06545590000002,37.59778513
2017,영업,어린이집,구립래미안에스티움어린이집,서울특별시 영등포구 신길동 2039번지 래미안에스티움아파트 관리동 ,126.9134825,37.50182792
2017,영업,어린이집,하늘한조각 어린이집,서울특별시 은평구 역촌동 56-12번지 1층 ,126.9120752,37.60528226
2017,영업,어린이집,새한 어린이집,서울특별시 송파구 잠실동 302번지 ,127.0787985,37.50396562
2017,영업,어린이집,은석어린이집,서울특별시 영등포구 신길동 4260번지 3층 ,126.9186881,37.49824252
2017,영업,어린이집,국공립구의1동아이터어린이집,서울특별시 광진구 구의동 634-13번지 3층 ,127.0837575,37.54384347
2017,영업,유치원,서울이문유치원,서울특별시 동대문구 이문동 164-26번지 ,127.0645098,37.60241965
2017,영업,일반대학,서경대학교,서울특별시 성북구 정릉동 서경로 124,127.0127841,37.61487212
2017,영업,일반대학,서강대학교,서울특별시 마포구 대흥동 백범로 35,126.9391434,37.55194459
2017,영업,일반대학,상명대학교,서울특별시 종로구 홍지동 홍지문2길 20,126.9546615,37.60333982
2017,영업,전문대학(3년제),삼육보건대학교,서울특별시 동대문구 휘경동 망우로 82,127.0625424,37.58972578
2017,영업,사이버대학(대학),사이버한국외국어대학교,서울특별시 동대문구 이문동 이문로 107,127.056986,37.5979456
2017,영업,일반대학,동국대학교,서울특별시 중구 필동로 1길30,126.998003,37.55817644
2017,영업,일반대학,국민대학교,서울특별시 성북구 정릉로 77,126.9976191,37.61079306
2017,영업,일반대학,고려대학교,서울특별시 성북구 안암동 안암로 145,127.0326852,37.58791907
2017,영업,일반대학,경희대학교,서울특별시 동대문구 회기동 경희대로 26,127.0561128,37.59379956
2017,영업,일반대학,건국대학교,서울특별시 광진구 자양동 능동로 120,127.0789125,37.54488231
2017,영업,일반대학,감리교신학대학교,서울특별시 서대문구 냉천동 31,126.9623049,37.56741796
2017,영업,일반대학,한국체육대학교,서울특별시 송파구 방이동 양재대로 1239,127.1313749,37.52067604
2017,영업,각종대학(대학),한국예술종합학교,서울특별시 성북구 석관동 화랑로32길,127.0359465,37.60310264
2017,영업,일반대학,한국성서대학교,서울특별시 노원구 상계6.7동 동일로214길 32,127.0637525,37.64896418
2017,영업,방송통신대학,한국방송통신대학교,서울특별시 종로구 이화동 대학로 86,127.00266090000002,37.57846638
2017,영업,일반대학,연세대학교,서울특별시 서대문구 신촌동 연세로 50,126.93962820000002,37.57083118
2017,영업,일반대학,세종대학교,서울특별시 광진구 군자동 능동로 209,127.075194,37.55146347
2017,영업,일반대학,성신여자대학교,서울특별시 성북구 돈암동 보문로34다길 2,127.0211814,37.59324948
2017,영업,일반대학,성균관대학교,서울특별시 종로구 명륜3가동 성균관로 25-2,126.9959362,37.58687602
2017,영업,사이버대학(대학),서울사이버대학교,서울 강북구 솔매로49길 60(미아동 193-15) 서울사이버대학교,127.0275159,37.62979963
2017,영업,사이버대학(대학),서울디지털대학교,서울 마포구 도화동 560번지,126.9478302,37.54295661
2017,영업,일반대학,서울대학교,서울 관악구 관악로 1 서울대학교,126.9502884,37.45425061
2017,영업,일반대학,서울기독대학교,서울 은평구 갈현로 4길 26-2호,126.9121925,37.60075749
2017,영업,교육대학,서울교육대학교,서울 서초구 서초중앙로 96(서초동 1650),127.0151788,37.48876279
2017,영업,일반대학,서울과학기술대학교,서울 노원구 공릉로 232 (공릉동 172),127.0809231,37.63380173
2017,영업,일반대학,삼육대학교,서울시 노원구 화랑로 815(공릉2동 26-21),127.1054211,37.6450008
2017,영업,전공대학,백석예술대학교,서울 서초구 방배로9길 23 백석예술대학교,126.9962913,37.48020197
2017,영업,전문대학(3년제),배화여자대학교,서울 종로구 필운대로 1길 34 배화여자대학교,126.9652634,37.57929545
2017,영업,전문대학(3년제),명지전문대학,서울 서대문구 가좌로 134 명지전문대학 ,126.9258148,37.58458239
2017,영업,전문대학(3년제),서울여자간호대학교,서울특별시 서대문구 간호대로 38,126.9477574,37.59756961
2017,영업,어린이집,서대문구청 직장어린이집,서울특별시 서대문구 연희동 170-8번지 1층 ,126.9331102,37.57833868
2017,영업,전문대학(2년제),서일대학교,서울특별시 중랑구 용마산로90길 28,127.0971986,37.58607474
2017,영업,일반대학,그리스도대학교,서울특별시 강서구 까치산로24길 47,126.854158,37.54868686
2017,영업,어린이집,예그랑어린이집,서울특별시 강동구 성내동 120-34번지 ,127.1237318,37.532014
2017,영업,어린이집,서울테크노파크 친친어린이집,서울특별시 노원구 공릉동 172번지 과기대 내 서울테크노파크 친친어린이집 ,127.0798534,37.63296538
2017,영업,어린이집,구립꿈마루어린이집,서울특별시 강동구 천호동 571번지 ,127.1319428,37.53722584
2017,영업,어린이집,해군바다마을어린이집,서울특별시 영등포구 신길동 4939번지 바다마을아파트 내 ,126.9152018,37.50281265
2017,영업,어린이집,마곡14아이마당 어린이집,서울특별시 강서구 마곡동 750-0 1층,126.8186028,37.57067323
2017,영업,어린이집,수표교 어린이집,서울특별시 서초구 서초동 1488-3번지 지하1층~3층 ,127.005292,37.4821282
2017,영업,어린이집,바이시클찰리스빅레드하우스,서울특별시 용산구 한남동 1-170 1층,127.012751,37.53769933
2017,영업,어린이집,구립동산어린이집,서울특별시 금천구 시흥동 246-9번지 2층 ,126.9119717,37.45177905
2017,영업,어린이집,구립역마을 어린이집,서울특별시 은평구 역촌동 73-29번지 ,126.9084848,37.60423984
2017,영업,어린이집,참사랑 어린이집,서울특별시 구로구 고척동 161-55번지 ,126.8546225,37.50440835
2017,영업,어린이집,꿈비어린이집,서울특별시 강서구 내발산동 756번지 마곡수명산파크7단지아파트 ,126.8226815,37.54813686
2017,영업,어린이집,하나유아스쿨어린이집,서울특별시 영등포구 영등포동7가 63-21번지 ,126.90441,37.52521435
2017,영업,어린이집,꿈나무어린이집,서울특별시 용산구 원효로1가 25번지 12층 ,126.9654814,37.53865125
2017,영업,어린이집,국공립 송파더샵 어린이집,서울특별시 송파구 장지동 895번지 송파와이즈더샵 ,127.143318,37.47636503
2017,영업,어린이집,서울북부지방법원어린이집,서울특별시 도봉구 도봉동 626번지 서울북부지방법원 ,127.0469513,37.67736766
2017,영업,어린이집,종암중앙어린이집,서울특별시 성북구 종암동 70-110번지 ,127.0336477,37.59862297
2017,영업,어린이집,구립 왕십리자이어린이집,서울특별시 성동구 하왕십리동 999-7번지 왕십리자이 주민공동시설동 어린이집호,127.0238215,37.56122245
2017,영업,어린이집,구립 송파아이별 어린이집,서울특별시 송파구 장지동 884번지 위례2차아이파크 ,127.1436847,37.47950202
2017,영업,어린이집,월계숲속어린이집,서울특별시 노원구 월계동 534-64번지 ,127.0542129,37.62339817
2017,영업,어린이집,혜윰어린이집,서울특별시 강동구 명일동 242-5번지 혜움어린이집 ,127.153806,37.54848546
2017,영업,어린이집,서초구립 서초3동 어린이집,서울특별시 서초구 서초동 1522-6번지 서초구립 서초3동어린이집 ,127.0075761,37.48520915
2017,영업,어린이집,서초구립 방배본동 신나는 어린이집,서울특별시 서초구 방배동 789-18번지 서초구립 방배본동 신나는 어린이집 ,126.9858414,37.49222466
2017,영업,어린이집,홍익어린이집,서울특별시 은평구 신사동 229-12번지 1층 ,126.9076022,37.59627883
2017,영업,유치원,시현유치원,서울특별시 동작구 노량진동 323번지 우성아파트 ,126.9477799,37.50961847
2017,영업,어린이집,아모레퍼시픽서울어린이집,서울특별시 용산구 한강로2가 181번지 아모레퍼시픽 2층 ,126.96803020000002,37.52925916
2017,영업,어린이집,마곡13하나어린이집,서울특별시 강서구 마곡동 748번지 마곡13단지힐스테이트마스터 (지상 1층),126.8186028,37.57067323
2017,영업,유치원,아이들이야기유치원,서울특별시 마포구 대흥동 549-1번지 ,126.94388229999998,37.54361672
2017,영업,고등학교,서일국제경영고등학교,서울특별시 종로구 창신동 13-80,127.0127598,37.5793799
2017,영업,일반대학,동덕여자대학교,서울특별시 성북구 화랑로13길 60,127.0440729,37.60670147
2017,영업,일반대학,성공회대학교,서울특별시 구로구 연동로 320,126.82566090000002,37.48811923
2017,영업,어린이집,구립 상일어린이집,서울특별시 강동구 상일동 121 구립상일어린이집,127.16860590000002,37.55517856
2017,영업,유치원,침례교회부설침례유치원,서울특별시 영등포구 여의도동 53-19번지 교육관 2층 ,126.9342116,37.51788104
2017,영업,유치원,세검정유치원,서울특별시 종로구 홍지동 94-3번지 ,126.9593562,37.60013141
2017,영업,어린이집,예쁜둥지 어린이집,서울특별시 중랑구 묵동 122-345번지 ,127.080773,37.6089484
2017,영업,어린이집,케이알엑스푸르니어린이집,서울특별시 영등포구 여의도동 33번지 2층 ,126.9279974,37.52303179
2017,영업,유치원,영천유치원,서울특별시 성북구 장위동 231-46번지 ,127.0404436,37.61410973
2017,영업,어린이집,구립해맞이어린이집,서울특별시 양천구 신월동 953-6번지 3층 ,126.8338952,37.52092105
2017,영업,어린이집,구립아람어린이집,서울특별시 금천구 독산동 468-1번지 구립아람어린이집 지상1층 ,126.8942748,37.46103669
2017,영업,어린이집,마곡11 나무햇살 어린이집,서울특별시 강서구 마곡동 746번지 (지상1층) ,126.8186028,37.57067323
2017,영업,어린이집,은도어린이집,서울특별시 강서구 화곡동 1077-0번지 은도어린이집 (지상 1층) ,126.8407127,37.54014048
2017,폐업,어린이집,아이세상어린이집,서울특별시 도봉구 방학동 602-4번지 ,127.0338403,37.66880657
2017,영업,어린이집,마곡10별솔어린이집,서울특별시 강서구 마곡동 747-0번지 마곡엠밸리10단지 (지상 1층) ,126.8186028,37.57067323
2017,영업,어린이집,마곡8열린숲어린이집,서울특별시 강서구 마곡동 741-0번지 마곡엠밸리8단지 (지상 1층) 어린이집동 ,126.8186028,37.57067323
2017,영업,어린이집,마곡12온새미어린이집,서울특별시 강서구 마곡동 746-1번지 마곡엠밸리12단지 (지상 1층) 어린이집동 ,126.8183857,37.57071999
2017,영업,어린이집,김&장(KIM&CHANG) 어린이집,서울특별시 종로구 신문로2가 1-158번지 썬타워빌딩 1층 ,126.9709906,37.57225223
2017,영업,어린이집,목동푸르니하나금융그룹어린이집,서울특별시 양천구 목동 905-20번지 지상3층 ,126.8771228,37.5329057
2017,영업,어린이집,대치팰리스 어린이집,서울특별시 강남구 대치동 1027번지 ,127.0579794,37.49428844
2017,영업,어린이집,꿈터어린이집,서울특별시 성북구 길음동 1284번지 ,127.0178408,37.60754531
2017,영업,어린이집,구립한아름어린이집,서울특별시 양천구 신월동 456-11번지 지상1층 ,126.84846170000002,37.52687298
2017,영업,어린이집,SH공사 으뜸어린이집,서울특별시 강남구 개포동 14-5번지 ,127.0786653,37.49414998
2017,영업,어린이집,키즈존어린이집,서울특별시 동대문구 장안동 440-15번지 ,127.071333,37.56282727
2017,영업,어린이집,구립모새미어린이집,서울특별시 양천구 목동 740-23번지 지상1층 ,126.8669952,37.53865769
2017,영업,어린이집,서유 어린이집,서울특별시 송파구 거여동 549-29번지 ,127.1483051,37.49191302
2017,영업,어린이집,구립도담어린이집,서울특별시 영등포구 당산동6가 110-43번지 1~3층 ,126.9050593,37.53310652
2017,영업,어린이집,한섬아이 어린이집,서울특별시 강남구 신사동 631-2번지 ,127.0338318,37.52283531
2017,영업,어린이집,구립독산본동어린이집,서울특별시 금천구 독산동 964-46번지 구립독산본동어린이집 지하1층 ,126.9024885,37.47739976
2017,영업,어린이집,구립 위례아이파크 어린이집,서울특별시 송파구 장지동 894,127.1420174,37.47640288
2017,영업,어린이집,햇살아래 보듬이나눔이 어린이집,서울특별시 중랑구 신내동 170-3번지 ,127.1127352,37.61472058
2017,영업,어린이집,행복어린이집원장,서울특별시 마포구 성암로 28 1층 (중동),126.9133009,37.56915413
2017,영업,어린이집,중곡1동자람터어린이집,서울특별시 광진구 중곡동 624-21번지 3층 ,127.0772012,37.56029424
2017,영업,어린이집,능동꿈맞이어린이집,서울특별시 광진구 능동 249-4번지 3층 ,127.0859398,37.55279657
2017,영업,어린이집,삼성GEC어린이집,서울특별시 강동구 상일동 500번지 ,127.1753022,37.5488613
2017,영업,유치원,백상유치원,서울특별시 금천구 시흥동 221번지 지상12층 ,126.9140867,37.45350258
2017,영업,어린이집,구립사당빛나어린이집,서울특별시 동작구 사당동 1137번지 ,126.9768429,37.49101284
2017,폐업,어린이집,예다미 어린이집,서울특별시 은평구 불광동 445-385번지 ,126.9252881,37.62600082
2017,영업,어린이집,금나래어린이집,서울특별시 금천구 시흥동 1020번지 금천구종합청사 지상2층 ,126.8953852,37.45680559
2017,영업,어린이집,신혜원어린이집,서울특별시 중랑구 망우동 523-51,127.0941642,37.59060888
2017,영업,유치원,창문유치원,서울특별시 강북구 미아동 8-6번지 ,127.0364949,37.6127756
2017,영업,유치원,정암유치원,서울특별시 중랑구 망우동 342-60번지 ,127.1036534,37.60127369
2017,영업,유치원,윤희유치원,서울특별시 강서구 화곡동 1165-4번지 강서힐스테이트 (지상 3층) ,126.8375834,37.54568287
2017,영업,어린이집,푸른아이 어린이집,서울특별시 은평구 녹번동 281번지 ,126.9364947,37.60677023
2017,영업,어린이집,예금보험공사 어린이집,서울특별시 중구 다동 33번지 예금보험공사 2층 어린이집 ,126.9807271,37.56851318
2017,영업,어린이집,초록햇살어린이집,서울특별시 동작구 상도1동 451번지 ,126.9499811,37.50203351
2017,영업,어린이집,가람어린이집,서울특별시 성북구 돈암동 593번지 1층 ,127.0072653,37.59837685
2017,영업,어린이집,자연과 아이들 어린이집,서울특별시 은평구 진관동 25번지 921동 101호 ,126.9233733,37.64198857
2017,영업,어린이집,시흥5동어린이집,서울특별시 금천구 시흥동 919-15번지 어린이집 청소년독서실 ,126.9072357,37.44994044
2017,영업,어린이집,호산나어린이집,서울특별시 구로구 가리봉동 1-2번지 ,126.8812392,37.48699163
2017,영업,어린이집,수락한옥어린이집,서울특별시 노원구 상계동 산 118-4번지 ,127.0622176,37.66836558
2017,영업,어린이집,은평한옥마을 성균관 어린이집,서울특별시 은평구 진관동 9994-9992번지 ,126.9512832,37.64226208
2017,영업,어린이집,순수빅스맘어린이집,서울특별시 영등포구 당산동3가 2-7번지 코레일유통 사옥 1층 ,126.9020273,37.52576969
2017,영업,어린이집,샘물어린이집,서울특별시 용산구 원효로4가 1-1번지 ,126.9540085,37.53432345
2017,영업,유치원,근화유치원,서울특별시 중구 신당동 406-4번지 3층 근화유치원 ,127.00900959999998,37.55917492
2017,영업,어린이집,성터 어린이집,서울특별시 종로구 창신동 640-244번지 ,127.0094226,37.57485871
2017,영업,유치원,보배유치원,서울특별시 노원구 월계동 322-1번지 ,127.0624873,37.62940651
2017,영업,어린이집,LG전자 강남센터어린이집,서울특별시 서초구 서초동 1365-8번지 3층 ,127.0310394,37.48465964
2017,폐업,어린이집,구산 클애들 어린이집,서울특별시 은평구 구산동 210-28번지 ,126.9104998,37.61229819
2017,영업,유치원,옥수삼성유치원,서울특별시 성동구 옥수동 250번지 ,127.0140129,37.5423522
2017,영업,어린이집,리틀리더 어린이집,서울특별시 은평구 구산동 147-17번지 ,126.9086303,37.61265933
2017,영업,어린이집,아이숲어린이집,서울특별시 강동구 암사동 453-17번지 ,127.1365929,37.55344346
2017,영업,어린이집,서초구립 잠원햇살 어린이집,서울특별시 서초구 잠원동 57번지 잠원래미안아파트 (데이케어센터내) ,127.0136386,37.51523901
2017,영업,어린이집,봄샘푸르지오어린이집,서울특별시 관악구 신림동 1730번지 ,126.9104606,37.47911075
2017,영업,유치원,우촌유치원,서울특별시 성북구 돈암동 609,127.0116864,37.59563942
2017,영업,어린이집,성산1동꼬마숲어린이집,서울특별시 마포구 성산동 209-4번지 ,126.916429,37.56082483
2017,영업,어린이집,서초구립 아크로해어린이집,서울특별시 서초구 반포동 2-1번지 아크로리버파크 106동 1층 ,126.9945271,37.50541088
2017,영업,어린이집,구립신정숲속마을어린이집,서울특별시 양천구 신정동 831번지 신정숲속마을어린이집 지상1층 ,126.8315706,37.50624584
2017,영업,어린이집,조은어린이집,서울특별시 강동구 명일동 28번지 ,127.1482202,37.55110423
2017,영업,어린이집,한국타이어 동그라미 어린이집,서울특별시 강남구 역삼동 632-7번지 ,127.0318183,37.50187493
2017,영업,어린이집,the KIDS 대방 어린이집,서울특별시 동작구 신대방동 395-68번지 ,126.9239282,37.49068054
2017,영업,어린이집,구립마루어린이집,서울특별시 관악구 봉천동 1718번지 ,126.94474309999998,37.48927721
2017,영업,어린이집,구립 센트라스아띠어린이집,서울특별시 성동구 하왕십리동 700번지 센트라스 101동 ,127.0285914,37.56690620000001
2017,영업,유치원,다우림 유치원,서울특별시 은평구 신사동 28-11번지 ,126.9123042,37.59622870000001
2017,영업,어린이집,강서힐스테이트 어린이집,서울특별시 강서구 화곡동 1165-0번지 강서힐스테이트 (지상 1층) 관리동 ,126.8400103,37.54672888
2017,영업,어린이집,구립 백련산힐2차어린이집,서울특별시 은평구 응암동 760번지 아파트관리동 ,126.923521,37.59081606
2017,영업,어린이집,무궁화 어린이집,서울특별시 종로구 궁정동 4-11번지 2층 ,126.9710866,37.58473022
2017,영업,어린이집,구립래미안힐스테이트어린이집,서울특별시 강동구 고덕동 670번지 ,127.1513297,37.56022804
2017,영업,어린이집,거암교회부설 거암어린이집,서울특별시 송파구 거여동 184-2번지 ,127.1478006,37.49663220000001
2017,영업,어린이집,새상아 어린이집,서울특별시 영등포구 신길동 4765번지 지하1층 ,126.9097231,37.49584128
2017,영업,어린이집,한양키움어린이집,서울특별시 성동구 마장동 767-8번지 1층 ,127.0444499,37.56884577
2017,영업,어린이집,보석어린이집,서울특별시 구로구 구로동 476-38번지 ,126.8812206,37.49788903
2017,영업,어린이집,명지어린이집,서울특별시 양천구 신월동 92-19번지 지상1층 ,126.832804,37.53572791
2017,영업,어린이집,구립용꿈어린이집,서울특별시 관악구 신림동 10-643번지 ,126.9336968,37.48237767
2017,영업,어린이집,숙명여자대학교어린이집,서울특별시 용산구 청파동2가 53-12번지 ,126.9649085,37.54612849
2017,영업,어린이집,구립은마루어린이집,서울특별시 은평구 진관동 7번지 701동 1층 ,126.92868490000002,37.64594278
2017,영업,유치원,동덕여자대학교부속유치원,서울특별시 성북구 상월곡동 86-1번지 ,127.0440792,37.60640367
2017,폐업,어린이집,삼선교어린이집,서울특별시 성북구 삼선동3가 115-3번지 ,127.0120608,37.58450541
2017,영업,어린이집,구립 파란하늘어린이집,서울특별시 은평구 불광동 643-2번지 ,126.9270086,37.61722402
2017,영업,어린이집,구립초롱별어린이집,서울특별시 관악구 신림동 763-68번지 ,126.9153588,37.47625535
2017,영업,어린이집,이베이코리아 베이트리 어린이집,서울특별시 강남구 역삼동 627-8번지,127.0341,37.50398052
2017,영업,어린이집,새가산어린이집,서울특별시 금천구 가산동 149-26번지 새가산어린이집 지상2층 ,126.8939635,37.47615994
2017,영업,유치원,동선유치원,서울특별시 성북구 보문동4가 4,127.0203127,37.58408889
2017,영업,어린이집,구립다솜어린이집,서울특별시 양천구 목동 131-3번지 지상1층 ,126.8820082,37.54515924
2017,영업,어린이집,구립)원정어린이집,서울특별시 성북구 정릉동 772-1번지 ,127.0054874,37.61649957
2017,영업,어린이집,바다의 별 어린이집,서울특별시 성북구 정릉동 643-1번지 ,127.00105759999998,37.60521435
2017,영업,어린이집,구립양천SOS어린이집,서울특별시 양천구 신월동 149-6번지 지상1층 ,126.824891,37.5311083
2017,영업,어린이집,구립 신금호 자이 어린이집,서울특별시 성동구 금호동2가 1번지 ,127.0185956,37.55543652
2017,영업,어린이집,마고정 어린이집,서울특별시 은평구 진관동 106번지 마고정 309동 1층 ,126.9259473,37.63203852
2017,영업,어린이집,아이플러스어린이집,서울특별시 강남구 율현동 336번지 ,127.1048729,37.46869577
2017,영업,어린이집,신길어린이집,서울특별시 영등포구 신길동 63-3번지 신길교회부설 신길어린이집 1층 ,126.9196481,37.51511258
2017,영업,어린이집,보미어린이집,서울특별시 강서구 화곡동 974-9번지 ,126.849088,37.54841908
2017,영업,유치원,꿈꾸는유치원,서울특별시 양천구 신월동 521-3번지 지상4층 ,126.8401988,37.52081416
2017,영업,어린이집,가산중앙어린이집,서울특별시 금천구 가산동 150-3번지 가산중앙어린이집 지하1층 ,126.893627,37.47584159
2017,영업,어린이집,푸른솔어린이집,서울특별시 송파구 문정동 649번지 ,127.1179138,37.48268034
2017,영업,유치원,운현유치원,서울특별시 종로구 운니동 114-7번지 ,126.9878479,37.575811
2017,영업,어린이집,구립푸른숲어린이집,서울특별시 구로구 구로동 642-63번지 ,126.8770504,37.49886911
2017,영업,유치원,한신유치원,서울특별시 서초구 잠원동 70-3번지 한신유치원 1층 ,127.0046713,37.5090318
2017,영업,어린이집,구립목3동어린이집,서울특별시 양천구 목동 720-8번지 지상3층 ,126.8645656,37.53975999
2017,영업,어린이집,국공립 아람어린이집,서울특별시 관악구 봉천동 42-11번지 ,126.9548755,37.48526288
2017,영업,어린이집,하얀돌어린이집,서울특별시 강서구 등촌동 516-6번지 하얀돌어린이집 (지상 3층) ,126.860018,37.5458489
2017,영업,유치원,이솔유치원,서울특별시 강서구 화곡동 872-10번지 (지상 5층) ,126.8522033,37.53125268
2017,영업,어린이집,교보생명 다솜이어린이집,서울특별시 종로구 신문로2가 1-183번지 교보생명 지하1층 지상2층 ,126.9693541,37.57205377
2017,영업,어린이집,구립 센트라스나래어린이집,서울특별시 성동구 하왕십리동 700번지 센트라스 123동 1층 ,127.0285914,37.56690620000001
2017,영업,어린이집,현대리틀 어린이집,서울특별시 양천구 신정동 743-2번지 현대아파트 지상1층 107동 ,126.8415647,37.5081171
2017,영업,어린이집,SKY어린이집,서울특별시 마포구 상암동 1610번지 ,126.892888,37.57844257
2017,영업,어린이집,서초구립 아크로 달 어린이집,서울특별시 서초구 반포동 2-12번지 아크로리버파크 104동 1층 ,126.9927477,37.50544701
2017,영업,어린이집,둥근마음어린이집,서울특별시 강서구 등촌동 687-0번지 등촌1단지영구임대아파트 (지상 1층) 사회복지관동 ,126.8424051,37.56496148
2017,영업,어린이집,미루나무어린이집,서울특별시 영등포구 도림동 81-2번지 미루나무어린이집 1층 ,126.9064393,37.50937326
2017,영업,일반대학,명지대학교 인문캠퍼스,서울 서대문구 남가좌동 50-3,126.9230947,37.5802157
2017,영업,어린이집,송파구립잠실 국민연금어린이집,서울특별시 송파구 신천동 7-16번지 ,127.10087959999998,37.51553335
2017,영업,어린이집,아이뜰어린이집,서울특별시 서대문구 북아현동 1011번지 아현역푸르지오아파트 103동 ,126.9520817,37.56019481
2017,영업,어린이집,사단법인대한불교삼보회부설연꽃어린이집,서울특별시 성북구 정릉동 266-441번지,127.0134074,37.61244598
2017,폐업,어린이집,아름다운 어린이집,서울특별시 동작구 사당동 208-3번지 ,126.9673795,37.48746246
2017,영업,유치원,영은유치원,서울특별시 영등포구 양평동3가 8-2번지 1층 ,126.8900578,37.52525404
2017,영업,어린이집,엠비시(MBC)푸르니어린이집원장,서울특별시 마포구 상암동 1603번지 ,126.8907519,37.58115528
2017,영업,유치원,새싹유치원,서울특별시 강서구 화곡동 837-12번지 새싹유치원 (지상 4층) ,126.858063,37.53221066
2017,영업,어린이집,구립 초롱별어린이집,서울특별시 강동구 명일동 338-19,127.1459007,37.54783302
2017,영업,어린이집,어울림어린이집,서울특별시 중랑구 망우동 349-9번지 ,127.1032152,37.60274035
2017,폐업,어린이집,한샘어린이집,서울특별시 서초구 방배동 757-1번지 한샘빌딩 2층 ,126.9866242,37.49791156
2017,영업,어린이집,한샘어린이집,서울특별시 마포구 상암동 1623번지 한샘상암 ,126.8986152,37.57611206
2017,영업,어린이집,코레일오류동어린이집,서울특별시 구로구 오류동 66번지 ,126.8449525,37.49525303
2017,영업,어린이집,영등포경찰서어린이집,서울특별시 영등포구 양평동6가 12-2번지 1층 ,126.8903913,37.54188333
2017,영업,어린이집,상상어린이집,서울특별시 도봉구 창동 674-50번지 ,127.0384343,37.64581891
2017,영업,어린이집,신일어린이집,서울특별시 관악구 신림동 419-56번지 ,126.92629309999998,37.47709476
2017,영업,어린이집,윤슬어린이집,서울특별시 강동구 천호동 233-11번지 ,127.1371362,37.54871593
2017,영업,어린이집,아리솔어린이집,서울특별시 관악구 신림동 1563-15번지 ,126.9143568,37.47419297
2017,영업,사이버대학(대학),디지털서울문화예술대학교,서울시 서대문구 통일로 37길 60 (홍제동 318-18),126.94388,37.58544521
2017,영업,일반대학,덕성여자대학교,서울특별시 도봉구 삼양로 144길 33,127.018341,37.65089321
2017,영업,고등학교,광영여자고등학교,서울특별시 양천구 신월동 43-3,126.82324640000002,37.537197
2017,영업,고등학교,목동고등학교,서울특별시 양천구 신정동 325-8,126.860143,37.5092145
2017,영업,고등학교,진명여자고등학교,서울특별시 양천구 목동 927-6,126.8658553,37.524048
2017,영업,고등학교,양천고등학교,서울특별시 양천구 신정동 산109-1,126.84520390000002,37.5083201
2017,영업,고등학교,광영고등학교,서울특별시 양천구 신월동 43-3,126.8232754,37.537197
2017,영업,고등학교,강서고등학교,서울특별시 양천구 목동 735,126.86576999370001,37.5363159
2017,영업,고등학교,신서고등학교,서울특별시 양천구 신정동 984-1,126.86020829999998,37.5239153
2017,영업,고등학교,신목고등학교,서울특별시 양천구 신정동 330-3,126.8736074,37.5129093
2017,영업,고등학교,금옥여자고등학교,서울특별시 양천구 신정동 729,126.84397240000001,37.5109638
2017,영업,고등학교,홍익대학교사범대학부속여자고등학교,서울특별시 마포구 성산동 산11-60,126.91320929999999,37.559645700000004
2017,영업,고등학교,경성고등학교,서울특별시 마포구 연남동 369-1,126.9191674,37.5635098
2017,영업,고등학교,광성고등학교,서울특별시 마포구 신수동 91-20,126.9359678,37.548696899999996
2017,영업,고등학교,명지고등학교,서울특별시 서대문구 홍은동 361-30,126.9270922,37.58491179999999
2017,영업,고등학교,중앙여자고등학교,서울특별시 서대문구 북아현동 190-1,126.95320929999998,37.5631498
2017,영업,고등학교,한성고등학교,서울특별시 서대문구 북아현동 170-1,126.9544615,37.5590958
2017,영업,고등학교,인창고등학교,서울특별시 서대문구 충정로2가 70,126.9640244,37.5648835
2017,영업,고등학교,선정고등학교,서울특별시 은평구 갈현동 227-5,126.90903130000001,37.6187044
2017,영업,고등학교,예일여자고등학교,서울특별시 은평구 구산동 8-3,126.9160959,37.6096421
2017,영업,고등학교,선일여자고등학교,서울특별시 은평구 갈현동 240-1,126.9127997,37.6197164
2017,영업,고등학교,동명여자고등학교,서울특별시 은평구 대조동 91-20,126.92504280000001,37.6144774
2017,영업,고등학교,숭실고등학교,서울특별시 은평구 신사동 300-88,126.9024048,37.5928732
2017,영업,고등학교,충암고등학교,서울특별시 은평구 응암동 272-113,126.9218074,37.5846417
2017,영업,고등학교,은평고등학교,서울특별시 은평구 구산동 164,126.9058084,37.609151399999995
2017,영업,고등학교,진관고등학교,서울특별시 은평구 진관동 17,126.9243837,37.6433374
2017,영업,고등학교,신도고등학교,서울특별시 은평구 진관동 242-38,126.91874750000001,37.6291341
2017,영업,고등학교,상명고등학교,서울특별시 노원구 중계동 515,127.068044,37.649547999999996
2017,영업,고등학교,염광고등학교,서울특별시 노원구 월계동 820,127.0492435,37.63025820000001
2017,영업,고등학교,한국삼육고등학교,서울특별시 노원구 공릉동 26-38,127.10885139999999,37.643358299999996
2017,영업,고등학교,대진여자고등학교,서울특별시 노원구 중계동 514-2,127.06719779999999,37.646173600000004
2017,영업,고등학교,백암고등학교,서울특별시 양천구 신정동 733,126.8433301,37.51090170000001
2017,영업,고등학교,용화여자고등학교,서울특별시 노원구 상계동 696,127.0582791,37.6591325
2017,영업,고등학교,공항고등학교,서울특별시 강서구 방화동 648-1,126.80632460000001,37.56929279999999
2017,영업,고등학교,세현고등학교,서울특별시 강서구 가양동 1491,126.8636216,37.5604314
2017,영업,고등학교,성남고등학교,서울특별시 동작구 대방동 375-1,126.92661319999999,37.50528120000001
2017,영업,고등학교,동작고등학교,서울특별시 동작구 사당동 236-23,126.96508600000001,37.482600700000006
2017,영업,고등학교,수도여자고등학교,서울특별시 동작구 신대방동 470-13,126.914906,37.49279979999999
2017,영업,고등학교,영등포고등학교,서울특별시 동작구 대방동 13-2,126.93473490000001,37.5090558
2017,영업,고등학교,선유고등학교,서울특별시 영등포구 양평동4가 10,126.89485149999999,37.5339019
2017,영업,고등학교,영신고등학교,서울특별시 영등포구 신길동 4656-2,126.9097387,37.4981011
2017,영업,고등학교,관악고등학교,서울특별시 영등포구 양평동2가 12-1,126.88295049999999,37.521792
2017,영업,고등학교,여의도여자고등학교,서울특별시 영등포구 여의도동 40-2,126.93508940000001,37.522888200000004
2017,영업,고등학교,영등포여자고등학교,서울특별시 영등포구 신길동 184-3,126.9153554,37.5153902
2017,영업,고등학교,여의도고등학교,서울특별시 영등포구 여의도동 30-1,126.93421869999999,37.5250501
2017,영업,고등학교,동일여자고등학교,서울특별시 금천구 시흥동 산100-4,126.91688740000001,37.4516719
2017,영업,고등학교,문일고등학교,서울특별시 금천구 시흥동 559-1,126.89851270000001,37.450331299999995
2017,영업,고등학교,독산고등학교,서울특별시 금천구 독산동 907-34,126.9109732,37.4762184
2017,영업,고등학교,오류고등학교,서울특별시 구로구 궁동 110-1,126.8273934,37.500089
2017,영업,고등학교,신도림고등학교,서울특별시 구로구 신도림동 270-2,126.8820842,37.51406420000001
2017,영업,고등학교,구일고등학교,서울특별시 구로구 구로동 685-194,126.87461709999998,37.4935064
2017,영업,고등학교,구로고등학교,서울특별시 구로구 구로동 105-1,126.89030929999998,37.4988415
2017,영업,고등학교,경인고등학교,서울특별시 구로구 고척동 66-28,126.86543059999998,37.4959939
2017,영업,고등학교,한광고등학교,서울특별시 강서구 화곡동 488-2,126.857922,37.538844
2017,영업,고등학교,한서고등학교,서울특별시 강서구 방화동 478-34,126.8081443,37.57479179999999
2017,영업,고등학교,명덕여자고등학교,서울특별시 강서구 내발산동 169-1,126.83481709999998,37.5532299
2017,영업,고등학교,덕원여자고등학교,서울특별시 강서구 내발산동 산59-2,126.8290243,37.5486229
2017,영업,고등학교,경복여자고등학교,서울특별시 강서구 등촌동 131,126.85059740000001,37.5578208
2017,영업,고등학교,영일고등학교,서울특별시 강서구 등촌동 525,126.8620613,37.5472858
2017,영업,고등학교,동양고등학교,서울특별시 강서구 가양동 1464,126.84707959999999,37.569021
2017,영업,고등학교,명덕고등학교,서울특별시 강서구 내발산동 169-1,126.83481709999998,37.5532299
2017,영업,고등학교,화곡고등학교,서울특별시 강서구 내발산동 산48-3,126.8315381,37.54793460000001
2017,영업,고등학교,마포고등학교,서울특별시 강서구 등촌동 82-1,126.8531328,37.5599899
2017,영업,고등학교,대일고등학교,서울특별시 강서구 등촌동 산88,126.86340179999999,37.539488299999995
2017,영업,고등학교,수명고등학교,서울특별시 강서구 내발산동 758,126.82476670000001,37.549762799999996
2017,영업,고등학교,숭의여자고등학교,서울특별시 동작구 대방동 20-114,126.9292442,37.5073623
2017,영업,고등학교,혜성여자고등학교,서울특별시 노원구 하계동 산16-47,127.07361929999999,37.6405492
2017,영업,고등학교,청원여자고등학교,서울특별시 노원구 상계동 641,127.06253190000001,37.665253299999996
2017,영업,고등학교,휘봉고등학교,서울특별시 동대문구 휘경동 43-138,127.0688515,37.5864773
2017,영업,고등학교,건국대학교사범대학부속고등학교,서울특별시 광진구 화양동 528,127.07470990000002,37.5391833
2017,영업,고등학교,대원여자고등학교,서울특별시 광진구 중곡동 176-124,127.08940520000002,37.56249620000001
2017,영업,고등학교,동국대학교사범대학부속여자고등학교,서울특별시 광진구 구의동 238-1,127.0874001,37.54258400000001
2017,영업,고등학교,대원고등학교,서울특별시 광진구 중곡동 176-124,127.08943799999999,37.5624945
2017,영업,고등학교,자양고등학교,서울특별시 광진구 자양동 524-11,127.0733399875,37.53607750000001
2017,영업,고등학교,광남고등학교,서울특별시 광진구 광장동 554-11,127.1012125,37.5415134
2017,영업,고등학교,성수고등학교,서울특별시 성동구 성수동1가 685-143,127.038253,37.5473422
2017,영업,고등학교,무학여자고등학교,서울특별시 성동구 행당동 322-1,127.03359950000001,37.556768
2017,영업,고등학교,성심여자고등학교,서울특별시 용산구 원효로4가 1-1,126.9545942,37.53421029999999
2017,영업,고등학교,신광여자고등학교,서울특별시 용산구 청파동3가 100,126.9694483,37.542900700000004
2017,영업,고등학교,보성여자고등학교,서울특별시 용산구 용산동2가 1-1123,126.9842996,37.54308020000001
2017,영업,고등학교,배문고등학교,서울특별시 용산구 서계동 259-3,126.96390490000002,37.54999779999999
2017,영업,고등학교,오산고등학교,서울특별시 용산구 보광동 168-73,127.0008688,37.523781799999995
2017,영업,고등학교,용산고등학교,서울특별시 용산구 용산동2가 1,126.98032849999998,37.54586550000001
2017,영업,고등학교,장충고등학교,서울특별시 중구 신당동 432-460,127.0064145,37.5535146
2017,영업,고등학교,상명대학교사범대학부속여자고등학교,서울특별시 종로구 홍지동 7-1,126.95515870000001,37.6041097
2017,영업,고등학교,덕성여자고등학교,서울특별시 종로구 안국동 37-1,126.9835578,37.5777613
2017,영업,고등학교,배화여자고등학교,서울특별시 종로구 누하동 149,126.96686580000001,37.5784966
2017,영업,고등학교,경신고등학교,서울특별시 종로구 혜화동 5-119,126.99952900000001,37.592225799999994
2017,영업,고등학교,대신고등학교,서울특별시 종로구 행촌동 171-1,126.96125390000002,37.5731249
2017,영업,고등학교,경복고등학교,서울특별시 종로구 청운동 89-9,126.9715094,37.5859472
2017,영업,고등학교,한영외국어고등학교,서울특별시 강동구 상일동 166,127.15777299999999,37.54914229999999
2017,영업,고등학교,서울체육고등학교,서울특별시 송파구 방이동 88-14,127.1298248,37.52233010000001
2017,영업,고등학교,수도전기공업고등학교,서울특별시 강남구 개포동 155,127.0644798,37.4849381
2017,영업,고등학교,국립국악고등학교,서울특별시 강남구 개포동 1272,127.0514757,37.4762299
2017,영업,고등학교,미림여자정보과학고등학교,서울특별시 관악구 신림동 1557-1,126.93331979999999,37.4672482
2017,영업,고등학교,국립전통예술고등학교,서울특별시 금천구 시흥동 산24-17,126.9067221,37.4467124
2017,영업,고등학교,서울공연예술고등학교,서울특별시 구로구 궁동 147-1,126.8321523,37.5000848
2017,영업,고등학교,동국대학교사범대학부속고등학교,서울특별시 동대문구 장안동 328,127.07513359999999,37.5780484
2017,영업,고등학교,영신여자고등학교,서울특별시 노원구 중계동 118,127.08328929999999,37.652453799999996
2017,영업,고등학교,해성여자고등학교,서울특별시 동대문구 전농동 90-3,127.056978,37.5818716
2017,영업,고등학교,휘경여자고등학교,서울특별시 동대문구 휘경동 43-7,127.06740459999999,37.5839456
2017,영업,고등학교,재현고등학교,서울특별시 노원구 중계동 175,127.080798,37.66128870000001
2017,영업,고등학교,대진고등학교,서울특별시 노원구 하계동 55-5,127.07609099999999,37.6378051
2017,영업,고등학교,서라벌고등학교,서울특별시 노원구 중계동 313,127.0758403,37.64525820000001
2017,영업,고등학교,청원고등학교,서울특별시 노원구 상계동 641,127.06253190000001,37.665253299999996
2017,영업,고등학교,월계고등학교,서울특별시 노원구 월계동 778,127.0487142,37.6317325
2017,영업,고등학교,노원고등학교,서울특별시 노원구 상계동 664,127.05401979999999,37.661801399999995
2017,영업,고등학교,불암고등학교,서울특별시 노원구 중계동 364-10,127.0803044,37.649158299999996
2017,영업,고등학교,상계고등학교,서울특별시 노원구 상계동 738,127.0554547,37.652726
2017,영업,고등학교,정의여자고등학교,서울특별시 도봉구 쌍문동 150-1,127.03242820000001,37.6533545
2017,영업,고등학교,창동고등학교,서울특별시 도봉구 창동 694-10,127.0388183,37.6510352
2017,영업,고등학교,자운고등학교,서울특별시 도봉구 창동 1,127.0506763,37.659020700000006
2017,영업,고등학교,효문고등학교,서울특별시 도봉구 쌍문동 468,127.01839879999999,37.652698
2017,영업,고등학교,누원고등학교,서울특별시 도봉구 도봉동 646,127.04993300000001,37.6855674
2017,영업,고등학교,영훈고등학교,서울특별시 강북구 미아동 471-2,127.02809380000001,37.61468170000001
2017,영업,고등학교,창문여자고등학교,서울특별시 강북구 미아동 8-16,127.03633719999999,37.6134973
2017,영업,고등학교,삼각산고등학교,서울특별시 강북구 미아동 812-4,127.02013329999998,37.6162871
2017,영업,고등학교,혜화여자고등학교,서울특별시 강북구 수유동 468-43,127.0132139,37.6313093
2017,영업,고등학교,성신여자고등학교,서울특별시 성북구 돈암동 산11-269,127.02240640000001,37.5942881
2017,영업,고등학교,한성여자고등학교,서울특별시 성북구 삼선동2가 392-2,127.0117841,37.5830633
2017,영업,고등학교,고려대학교사범대학부속고등학교,서울특별시 성북구 정릉동 660,127.001572,37.6098005
2017,영업,고등학교,홍익대학교사범대학부속고등학교,서울특별시 성북구 성북동 151,127.00280359999998,37.5936667
2017,영업,고등학교,석관고등학교,서울특별시 성북구 석관동 77-1,127.0667165,37.60958820000001
2017,영업,고등학교,서울대학교사범대학부설고등학교,서울특별시 성북구 종암동 7-10,127.0381187,37.5947238
2017,영업,고등학교,혜원여자고등학교,서울특별시 중랑구 망우동 519,127.0970432,37.5932809
2017,영업,고등학교,송곡여자고등학교,서울특별시 중랑구 망우동 252-1,127.10514669999999,37.6066879
2017,영업,고등학교,송곡고등학교,서울특별시 중랑구 망우동 239-1,127.1064637,37.605847
2017,영업,고등학교,중화고등학교,서울특별시 중랑구 중화동 21-4,127.08365409999999,37.604813
2017,영업,고등학교,신현고등학교,서울특별시 중랑구 상봉동 482,127.0929500477,37.6052493
2017,영업,고등학교,태릉고등학교,서울특별시 중랑구 묵동 6,127.0855595,37.619162599999996
2017,영업,고등학교,경희여자고등학교,서울특별시 동대문구 회기동 1-5,127.0548902,37.5939495
2017,영업,고등학교,구암고등학교,서울특별시 관악구 봉천동 1712-25,126.9496259,37.492441299999996
2017,영업,고등학교,신림고등학교,서울특별시 관악구 신림동 1566-42,126.9169655,37.4792105
2017,영업,고등학교,인헌고등학교,서울특별시 관악구 봉천동 174-5,126.9704855,37.472309
2017,영업,고등학교,보인고등학교,서울특별시 송파구 오금동 162,127.1395164,37.4975703
2017,영업,고등학교,현대고등학교,서울특별시 강남구 압구정동 425,127.0223767,37.5254808
2017,영업,고등학교,중동고등학교,서울특별시 강남구 일원동 618,127.08091110000001,37.493714600000004
2017,영업,고등학교,휘문고등학교,서울특별시 강남구 대치동 952-1,127.0619956,37.505287700000004
2017,영업,고등학교,세화여자고등학교,서울특별시 서초구 반포동 13,126.99422779999999,37.5019954
2017,영업,고등학교,세화고등학교,서울특별시 서초구 반포동 753,126.99422779999999,37.5019954
2017,영업,고등학교,미림여자고등학교,서울특별시 관악구 신림동 1557-1,126.93331979999999,37.4672482
2017,영업,고등학교,당곡고등학교,서울특별시 관악구 봉천동 677,126.9342479,37.4917598
2017,영업,고등학교,경문고등학교,서울특별시 동작구 동작동 산4-2,126.9822736,37.4934202
2017,영업,고등학교,장훈고등학교,서울특별시 영등포구 신길동 177-1,126.91623090000002,37.5133437
2017,영업,고등학교,대영고등학교,서울특별시 영등포구 신길동 336-2,126.90586409999999,37.50366270000001
2017,영업,고등학교,금천고등학교,서울특별시 금천구 시흥동 산24-4,126.9049027,37.4448067
2017,영업,고등학교,우신고등학교,서울특별시 구로구 궁동 230,126.82635149999999,37.494901299999995
2017,영업,고등학교,고척고등학교,서울특별시 구로구 고척동 287-29,126.84986880000001,37.5080486
2017,영업,고등학교,구현고등학교,서울특별시 구로구 구로동 620-30,126.87444579999999,37.5022028
2017,영업,고등학교,등촌고등학교,서울특별시 강서구 등촌동 691-2,126.8450457,37.56294570000001
2017,영업,고등학교,한가람고등학교,서울특별시 양천구 목동 909-12,126.8840071,37.5374633
2017,영업,고등학교,양정고등학교,서울특별시 양천구 목동 911-2,126.8866926,37.5333429
2017,영업,고등학교,숭문고등학교,서울특별시 마포구 대흥동 28-14,126.94575959999999,37.55087279999999
2017,영업,고등학교,상암고등학교,서울특별시 마포구 상암동 1659,126.8833956,37.58138320000001
2017,영업,고등학교,서울여자고등학교,서울특별시 마포구 염리동 128-2,126.9490682,37.547780700000004
2017,영업,고등학교,이화여자대학교사범대학부속이화금란고등학교,서울특별시 서대문구 대신동 47,126.94766100000001,37.5663658
2017,영업,고등학교,하나고등학교,서울특별시 은평구 진관동 134-2,126.93693049999999,37.6416365
2017,영업,고등학교,대성고등학교,서울특별시 은평구 갈현동 267-17,126.9093611,37.62316120000001
2017,영업,고등학교,수락고등학교,서울특별시 노원구 상계동 1253,127.0535726,37.68293170000001
2017,영업,고등학교,선덕고등학교,서울특별시 도봉구 쌍문동 263,127.02687649999999,37.65634710000001
2017,영업,고등학교,도봉고등학교,서울특별시 도봉구 도봉동 556,127.04257820000001,37.686756
2017,영업,고등학교,신일고등학교,서울특별시 강북구 미아동 193-1,127.0284024,37.6279658
2017,영업,고등학교,미양고등학교,서울특별시 강북구 미아동 837-734,127.0121354,37.6236655
2017,영업,고등학교,배재고등학교,서울특별시 강동구 고덕동 313,127.15024809999998,37.555059
2017,영업,고등학교,용문고등학교,서울특별시 성북구 안암동2가 96-1,127.0246601,37.5886907
2017,영업,고등학교,경복비즈니스고등학교,서울특별시 강서구 등촌동 131,126.8526703,37.5580254
2017,영업,고등학교,금호고등학교,서울특별시 성동구 금호동1가 1822,127.02343540000001,37.5536206
2017,영업,전공대학,국제예술대학,서울 강남구 논현동 79,127.0309799,37.51689674
2017,영업,일반대학,광운대학교,서울특별시 노원구 월계동 447-1,127.0596443,37.61969406
2017,영업,일반대학,경기대학교,서울 서대문구 경기대로9길 24 경기대학교,126.9622293,37.56447707
2017,영업,일반대학,가톨릭대학교,서울 종로구 창경궁로 296-12(혜화동) ,127.0046655,37.58562356
2017,영업,일반대학,가톨릭대학교,서울 서초구 반포동 505,127.0052227,37.50006958
2017,영업,일반대학,홍익대학교,서울특별시 마포구 와우산로 94(상수동),126.9272223,37.55147166
2017,영업,일반대학,한영신학대학교,서울 구로구 경인로 290-42  한영신학대학교,126.8517298,37.49661393
2017,영업,전문대학(2년제),한양여자대학교,서울 성동구 행당동 살곶이길 200,127.048996,37.55841379
2017,영업,일반대학,한양대학교,서울특별시 성동구 왕십리로 222 ,127.0482297,37.55827566
2017,영업,일반대학,한성대학교,서울 성북구 삼선동3가 389 한성대학교,127.0116176,37.5873022
2017,영업,기능대학,한국폴리텍Ⅰ대학 서울정수캠퍼스,서울 용산구 보광로 73(보광동 238),126.9971127,37.52923253
2017,영업,기능대학,한국폴리텍 I 대학 서울강서캠퍼스,서울 강서구 화곡동 산60-1,126.8435278,37.55038959
2017,영업,일반대학,한국외국어대학교,서울 동대문구 이문로 107,127.056986,37.5979456
2017,영업,일반대학,추계예술대학교,서울 서대문구 북아현동 190-1 추계예술대학교,126.9533017,37.56270264
2017,영업,일반대학,총신대학교,서울 동작구 사당동 산31-3,126.9671024,37.49075065
2017,영업,일반대학,중앙대학교 서울캠퍼스,서울 동작구 흑석로 84,126.9578565,37.50407107
2017,영업,일반대학,장로회신학대학교,서울 광진구 광장로 5길 25-1(광장동) 장로회신학대학교,127.1030015,37.54975194
2017,영업,전문대학(2년제),인덕대학교,서울 노원구 초안산로 12,127.05598290000002,37.63019529
2017,영업,일반대학,이화여자대학교,서울 서대문구 대현동 11-1 이화여자대학교,126.9474281,37.5625504
2017,영업,전문대학(2년제),숭의여자대학교,서울특별시 중구 소파로2길 10(예장동),126.987229,37.55677019
2017,영업,일반대학,숭실대학교,서울 동작구 상도동 511 숭실대학교,126.957198,37.49634372
2017,영업,일반대학,숙명여자대학교,서울 용산구 청파로47길 100 숙명여자대학교,126.9657682,37.54597494
2017,영업,일반대학,서울여자대학교,서울특별시 노원구 화랑로 621 서울여자대학교,127.0904758,37.62932172
2017,영업,일반대학,서울시립대학교,서울 동대문구 서울시립대로 163 (전농동 90번지) ,127.0608644,37.58301804
2017,영업,고등학교,풍문고등학교,서울특별시 강남구 자곡동 643,127.09996470000002,37.4713596
2017,영업,고등학교,대일관광고등학교,서울특별시 양천구 신정동 1318-3,126.83490479999999,37.511412799999995
2017,영업,고등학교,계성고등학교,서울특별시 성북구 길음동 1284-15,127.02018149999999,37.6074934
2017,영업,고등학교,환일고등학교,서울특별시 마포구 아현동 393-1,126.9622099714,37.553868
2017,영업,고등학교,도선고등학교,서울특별시 성동구 하왕십리동 1070-4,127.02699369999999,37.5668429
2017,영업,고등학교,가재울고등학교,서울특별시 서대문구 북가좌동 476,126.90941570000001,37.5744444
2017,영업,고등학교,경동고등학교,서울특별시 성북구 삼선동3가 43-1,127.01603200000001,37.5866019
2017,영업,고등학교,원묵고등학교,서울특별시 중랑구 묵동 23,127.0855097,37.61523070000001
2017,영업,고등학교,면목고등학교,서울특별시 중랑구 면목동 77,127.097272,37.5846636
2017,영업,고등학교,잠일고등학교,서울특별시 송파구 잠실동 19-2,127.0825533,37.5145195
2017,영업,고등학교,중앙대학교사범대학부속고등학교,서울특별시 강남구 도곡동 산21,127.05211059999999,37.49190720000001
2017,영업,고등학교,서울세종고등학교,서울특별시 강남구 수서동 711,127.10279879999999,37.4903891
2017,영업,고등학교,진선여자고등학교,서울특별시 강남구 역삼동 713,127.04828619999999,37.5023028
2017,영업,고등학교,은광여자고등학교,서울특별시 강남구 도곡동 938-10,127.03523329999999,37.488377899999996
2017,영업,고등학교,숙명여자고등학교,서울특별시 강남구 도곡동 91,127.0526124,37.4914745
2017,영업,고등학교,단국대학교사범대학부속고등학교,서울특별시 강남구 대치동 1013-3,127.0567133,37.4955055
2017,영업,고등학교,중산고등학교,서울특별시 강남구 일원동 714,127.0814271,37.4857421
2017,영업,고등학교,영동고등학교,서울특별시 강남구 청담동 23-4,127.04373740000001,37.5213878
2017,영업,고등학교,청담고등학교,서울특별시 강남구 압구정동 526,127.04370060000001,37.52800120000001
2017,영업,고등학교,압구정고등학교,서울특별시 강남구 압구정동 470,127.0327101,37.531133000000004
2017,영업,고등학교,개포고등학교,서울특별시 강남구 개포동 173,127.0594054,37.484952899999996
2017,영업,고등학교,경기여자고등학교,서울특별시 강남구 개포동 152,127.06545390000001,37.4869162
2017,영업,고등학교,경기고등학교,서울특별시 강남구 삼성동 74-4,127.0560739,37.517565999999995
2017,영업,고등학교,동덕여자고등학교,서울특별시 서초구 방배동 산82,126.99199579999998,37.4758367
2017,영업,고등학교,서문여자고등학교,서울특별시 서초구 방배동 1514,126.9845452,37.4889191
2017,영업,고등학교,상문고등학교,서울특별시 서초구 방배동 1000-2,127.00391640000001,37.479755
2017,영업,고등학교,언남고등학교,서울특별시 서초구 양재동 309,127.0430034,37.4723301
2017,영업,고등학교,서초고등학교,서울특별시 서초구 서초동 1504,127.00537779999999,37.489612
2017,영업,고등학교,양재고등학교,서울특별시 서초구 서초동 1376-4,127.03207830000001,37.4824213
2017,영업,고등학교,반포고등학교,서울특별시 서초구 반포동 30-19,127.0165603,37.5027044
2017,영업,고등학교,서울고등학교,서울특별시 서초구 서초동 1526-1,127.00490249999999,37.4842924
2017,영업,고등학교,영락고등학교,서울특별시 관악구 봉천동 1558-1,126.9444633,37.4764515
2017,영업,고등학교,광신고등학교,서울특별시 관악구 신림동 산87-6,126.9259388,37.4644759
2017,영업,고등학교,서울미술고등학교,서울특별시 관악구 봉천동 1690-133,126.96674840000001,37.4766977
2017,영업,고등학교,서울문영여자고등학교,서울특별시 관악구 봉천동 1695,126.95091869999999,37.4729044
2017,영업,고등학교,성보고등학교,서울특별시 관악구 신림동 1690,126.9209571,37.4807269
2017,영업,고등학교,남강고등학교,서울특별시 관악구 신림동 627-1,126.92461609999998,37.4713732
2017,영업,고등학교,삼성고등학교,서울특별시 관악구 신림동 222,126.9436438,37.4691385
2017,영업,고등학교,잠실고등학교,서울특별시 송파구 신천동 17-1,127.1065132,37.5229301
2017,영업,고등학교,창덕여자고등학교,서울특별시 송파구 방이동 89-6,127.1402751,37.516241799999996
2017,영업,고등학교,방산고등학교,서울특별시 송파구 방이동 220-5,127.1204675,37.5083132
2017,영업,고등학교,문정고등학교,서울특별시 송파구 문정동 90,127.1266941,37.4851797
2017,영업,고등학교,대광고등학교,서울특별시 동대문구 신설동 53-3,127.0243533,37.5784086
2017,영업,고등학교,경희고등학교,서울특별시 동대문구 이문동 1-3,127.0548902,37.5939495
2017,영업,고등학교,청량고등학교,서울특별시 동대문구 청량리동 7,127.0513131,37.5888875
2017,영업,고등학교,광양고등학교,서울특별시 광진구 자양동 668,127.08518079999999,37.5293805
2017,영업,고등학교,한양대학교사범대학부속고등학교,서울특별시 성동구 사근동 223,127.042326,37.5619189
2017,영업,고등학교,경일고등학교,서울특별시 성동구 성수동1가 22-27,127.04786940000001,37.543828399999995
2017,영업,고등학교,중경고등학교,서울특별시 용산구 이촌동 300-302,126.9756393,37.5176813
2017,영업,고등학교,이화여자고등학교,서울특별시 중구 순화동 1-1,126.9696428,37.5655771
2017,영업,고등학교,성동고등학교,서울특별시 중구 신당동 161,127.02238829999999,37.564116399999996
2017,영업,고등학교,중앙고등학교,서울특별시 종로구 계동 1,126.98747379999999,37.5837876
2017,영업,고등학교,동성고등학교,서울특별시 종로구 혜화동 90-7,127.00306189999999,37.584970299999995
2017,영업,고등학교,한영고등학교,서울특별시 강동구 상일동 166,127.15777299999999,37.5491315
2017,영업,고등학교,강동고등학교,서울특별시 강동구 상일동 267,127.16066709999998,37.54991679999999
2017,영업,고등학교,광문고등학교,서울특별시 강동구 고덕동 295,127.1585483,37.5604614
2017,영업,전문대학(3년제),동양미래대학교,서울시 구로구 경인로 445 동양미래대학교 (고척동 62-160),126.8681699,37.49999637
2017,영업,고등학교,상일여자고등학교,서울특별시 강동구 상일동 189,127.1702183,37.5479537
2017,영업,고등학교,선사고등학교,서울특별시 강동구 암사동 448,127.13579979999999,37.55631629999999
2017,영업,고등학교,강일고등학교,서울특별시 강동구 강일동 685-1,127.1779057,37.5638287
2017,영업,고등학교,둔촌고등학교,서울특별시 강동구 둔촌동 79-3,127.1438107,37.531432
2017,영업,고등학교,명일여자고등학교,서울특별시 강동구 명일동 40,127.14958119999999,37.5497764
2017,영업,고등학교,영동일고등학교,서울특별시 송파구 잠실동 35-1,127.08986850000001,37.510034499999996
2017,영업,고등학교,영파여자고등학교,서울특별시 송파구 풍납동 501,127.1197418,37.5327347
2017,영업,고등학교,정신여자고등학교,서울특별시 송파구 잠실동 50-4,127.07384779999998,37.5094544
2017,영업,고등학교,잠실여자고등학교,서울특별시 송파구 송파동 99-2,127.11452659999998,37.5019724
2017,영업,고등학교,배명고등학교,서울특별시 송파구 삼전동 172-1,127.0958111,37.4976895
2017,영업,고등학교,보성고등학교,서울특별시 송파구 방이동 89-22,127.1357303,37.520089
2017,영업,고등학교,문현고등학교,서울특별시 송파구 장지동 838,127.12876340000001,37.481313899999996
2017,영업,고등학교,잠신고등학교,서울특별시 송파구 잠실동 22-2,127.0882815,37.5147027
2017,영업,고등학교,오금고등학교,서울특별시 송파구 오금동 34-3,127.1289706,37.5045308
2017,영업,고등학교,가락고등학교,서울특별시 송파구 송파동 172,127.11642520000001,37.5010768
2017,영업,고등학교,동북고등학교,서울특별시 강동구 둔촌동 180-2,127.1412227,37.5197185
2017,영업,고등학교,세종과학고등학교,서울특별시 구로구 궁동 232,126.827354,37.4975698
2017,영업,어린이집,구립해태어린이집,서울특별시 영등포구 대림동 777번지 지하1층~2층 ,126.8947961,37.49802878
2017,영업,어린이집,kids-sure 어린이집,서울특별시 종로구 서린동 136번지 2층 ,126.9788357,37.56977562
2017,영업,어린이집,무궁화누리어린이집,서울특별시 송파구 방이동 119-20번지 ,127.1164884,37.51037686
2017,영업,어린이집,햇살마루어린이집,서울특별시 도봉구 쌍문동 25-87번지 지상1층 ,127.0363325,37.65946802
2017,영업,유치원,서울상도유치원,서울특별시 동작구 상도동 238-2번지 ,126.9372959,37.49984159
2017,영업,어린이집,SKT행복날개어린이집,서울특별시 중구 을지로2가 11번지 SKT타워  3층 ,126.9850856,37.56647286
2017,영업,유치원,삼성유치원,서울특별시 동대문구 전농동 440-9번지 1층 ,127.0507616,37.57731061
2017,영업,어린이집,정원어린이집,서울특별시 양천구 신월동 16-14번지 ,126.8277814,37.54010863
2017,영업,어린이집,방학동행복한어린이집,서울특별시 도봉구 방학동 265-3번지 ,127.0368864,37.66145011
2017,영업,어린이집,장위3동 어린이집,서울특별시 성북구 장위동 77-64번지 ,127.0534624,37.61681787
2017,영업,어린이집,국공립 새롬마을어린이집,서울특별시 구로구 오류동 13-46번지 ,126.84179009999998,37.49727482
2017,영업,어린이집,(재)천주교 서울대교구유지재단 천사어린이집,서울특별시 송파구 마천동 93-5번지 마천동 천주교회 지상2층 ,127.1489757,37.49952238
2017,영업,어린이집,서초구립 포레스타 7단지 어린이집,서울특별시 서초구 신원동 266번지 ,127.0572689,37.44882706
2017,영업,어린이집,양재복지관 어린이집,서울특별시 서초구 양재동 11-13번지 ,127.036171,37.48451952
2017,영업,어린이집,육영어린이집,서울특별시 관악구 신림동 751-10번지 ,126.9145261,37.47511407
2017,영업,어린이집,아이비케이 참 좋은 어린이집,서울특별시 강남구 대치동 921-3번지 중소기업은행 도곡동지점 지상2층 ,127.05173,37.49943183
2017,영업,어린이집,은영어린이집,서울특별시 성북구 보문동3가 168-2번지 ,127.0166167,37.5846258
2017,영업,어린이집,서초구립 서초3단지어린이집,서울특별시 서초구 우면동 784번지 ,127.0220888,37.45863329
2017,영업,어린이집,라온어린이집,서울특별시 양천구 신정동 117-37번지 ,126.8742242,37.52165016
2017,영업,유치원,예일유치원,서울특별시 광진구 중곡동 141-12번지 ,127.0827491,37.55827736
2017,영업,어린이집,곤지잼잼어린이집,서울특별시 성동구 성수동2가 289-27번지 ,127.0538159,37.54656817
2017,영업,어린이집,구립샤마임어린이집,서울특별시 양천구 신월동 103-23번지 ,126.8342154,37.53481712
2017,영업,어린이집,키즈윌어린이집,서울특별시 동대문구 전농동 212-10번지 1~3층 ,127.0522918,37.58027325
2017,영업,어린이집,청정원직장어린이집,서울특별시 동대문구 신설동 103-13번지 ,127.0251289,37.57413575
2017,영업,어린이집,구립 새솔어린이집,서울특별시 중랑구 신내동 817번지 ,127.0967146,37.60371361
2017,영업,어린이집,구립색동어린이집,서울특별시 관악구 봉천동 663-2번지 ,126.9315491,37.48851120000001
2017,영업,어린이집,구립 자람터어린이집,서울특별시 구로구 구로동 235-2번지 에이스하이엔등 1차 201호 ,126.8934112,37.48152399
2017,폐업,어린이집,SH공사 으뜸어린이집,서울특별시 강남구 개포동 14-5번지 SH공사 으뜸어린이집 ,127.0786653,37.49414998
2017,영업,어린이집,해피용마어린이집,서울특별시 광진구 중곡동 147-35번지 ,127.087791,37.56095266
2017,영업,어린이집,한강 어린이집,서울특별시 동작구 서달로 91 107동관리동 (흑석동 흑석한강센트레빌2차),126.9597379,37.50155246
2017,영업,어린이집,강남구립세곡나비어린이집,서울특별시 강남구 자곡로 230 (자곡동 세곡2 보금자리주택지구 3단지),127.1068126,37.47531693
2017,영업,어린이집,송파 리틀짐 어린이집,서울특별시 송파구 송파동 128-9번지 ,127.1137103,37.50701212
2017,영업,유치원,서울하늘숲유치원,서울특별시 구로구 천왕동 9-51번지 ,126.8430973,37.48506811
2017,영업,유치원,아랑유치원,서울특별시 노원구 공릉동 708번지 아랑유치원 ,127.0694037,37.6302649
2017,영업,어린이집,큰당성어린이집,서울특별시 영등포구 당산동1가 377-1번지 ,126.89726670000002,37.52313658
2017,영업,어린이집,구립대치도담 어린이집,서울특별시 강남구 대치동 924-10번지 도곡초등학교 내 구립대치도담어린이집 지상1층 ,127.0546464,37.49905185
2017,영업,어린이집,농심어린이집,서울특별시 동작구 신대방동 370-1번지 ,126.9193948,37.49668276
2017,영업,어린이집,가로수 어린이집(국공립),서울특별시 강남구 신사동 550-11번지 ,127.0241611,37.52310841
2017,영업,어린이집,송파위례22 어린이집,서울특별시 송파구 장지동 879번지 ,127.1401127,37.47918408
2017,폐업,어린이집,보석어린이집,서울특별시 구로구 구로동 476-38번지 보석어린이집 ,126.8812206,37.49788903
2017,영업,어린이집,아이들세상 어린이집,서울특별시 광진구 중곡동 150-236 (1층),127.0845739,37.56009696
2017,영업,어린이집,한화여의도어린이집,서울특별시 영등포구 여의도동 23-5번지 지상2층 ,126.92293329999998,37.52396362
2017,영업,유치원,서울솔가람유치원,서울특별시 송파구 장지동 900번지 ,127.1406106,37.4780258
2017,영업,어린이집,길음성가어린이집,서울특별시 성북구 길음동 1286번지 ,127.0194267,37.60377403
2017,영업,어린이집,을지로 푸르니 하나금융어린이집,서울특별시 중구 을지로2가 9-10번지 2층 ,126.9840073,37.56640452
2017,폐업,어린이집,세연어린이집,서울특별시 서대문구 남가좌동 226-3번지 ,126.9206734,37.57663054
2017,영업,어린이집,두꼬마 어린이집,서울특별시 송파구 방이동 219-8번지 ,127.1216519,37.50758003
2017,영업,어린이집,아이와나무 어린이집,서울특별시 광진구 중곡동 118-38번지 ,127.0871452,37.55522581
2017,영업,유치원,하늘유치원,서울특별시 은평구 진관1로 77-15 (진관동),126.92879779999998,37.6321842
2017,영업,어린이집,새롬어린이집,서울특별시 금천구 독산동 378-37번지 ,126.90724240000002,37.46581218
2017,폐업,어린이집,유앤미슐레어린이집,서울특별시 양천구 신월동 99-8번지 ,126.8325366,37.53453921
2017,영업,어린이집,구립 온새미어린이집,서울특별시 구로구 구로동 50-11번지 구립온새미어린이집 ,126.8922503,37.50128306
2017,영업,어린이집,샛별어린이집,서울특별시 서대문구 홍은동 204-27번지 ,126.9351423,37.59065935
2017,영업,유치원,동산유치원,서울특별시 금천구 독산동 955-12번지 ,126.900939,37.47691201
2017,영업,유치원,샛별유치원,서울특별시 동작구 상도동 134-160번지 ,126.95023940000002,37.49803037
2017,영업,유치원,빛나유치원,서울특별시 양천구 목동 925번지 목동아파트7단지내1층 ,126.8678158,37.52881168
2017,영업,어린이집,한국원자력의학원어린이집,서울특별시 노원구 공릉동 215-4번지 ,127.0822436,37.62838908
2017,영업,유치원,서울여자대학교부속유치원,서울특별시 노원구 공릉동 126번지 ,127.0904611,37.62776402
2017,영업,어린이집,하나몬테소리어린이집,서울특별시 은평구 증산로17길 25-1 (신사동),126.9104326,37.5903112
2017,영업,어린이집,착한나라어린이집,서울특별시 마포구 망원동 417-25번지 ,126.9015216,37.55591147
2017,영업,어린이집,송파위례24 어린이집,서울특별시 송파구 장지동 901번지 ,127.13934240000002,37.4759095
2017,영업,어린이집,구립 로미어린이집,서울특별시 동작구 노량진동 326번지 ,126.9424385,37.50637884
2017,영업,어린이집,구립 산모건강증진센터 어린이집,서울특별시 송파구 장지동 841-1번지 ,127.1271095,37.4779199
2017,영업,어린이집,광암어린이집,서울특별시 은평구 응암동 744-7번지 ,126.9174164,37.58347829
2017,영업,어린이집,구립응암새싹어린이집,서울특별시 은평구 응암동 98-74번지 ,126.9233775,37.5999805
2017,폐업,어린이집,숙명어린이집,서울특별시 용산구 청파동2가 53-6번지 ,126.9650949,37.54542139
2017,영업,어린이집,한울어린이집,서울특별시 관악구 남현동 산 100-14번지 ,126.9817219,37.46154310000001
2017,영업,어린이집,행복숲 어린이집,서울특별시 송파구 가락동 181-22번지 ,127.1353947,37.49447879
2017,영업,어린이집,예일어린이집,서울특별시 도봉구 창동 458-4번지 ,127.0415714,37.63805042
2017,영업,어린이집,용두동 어린이집,서울특별시 동대문구 용두동 140-2번지 1층 ,127.0314952,37.57929611
2017,영업,어린이집,신수어린이집,서울특별시 마포구 신수동 263번지 ,126.9359997,37.54538288
2017,영업,어린이집,동심영재어린이집,서울특별시 마포구 망원동 466-9번지 ,126.9007485,37.56029827
2017,영업,어린이집,세빛어린이집,서울특별시 은평구 갈현동 277-4번지 ,126.91409640000002,37.62135535
2017,영업,어린이집,은지어린이집,서울특별시 은평구 갈현로1길 18 (신사동),126.9082317,37.59942859
2017,영업,유치원,자연아이유치원,서울특별시 도봉구 방학동 263-58번지 ,127.03580890000002,37.66103186
2017,영업,어린이집,리버웰어린이집,서울특별시 마포구 용강동 502번지 용강삼성래미안 리버웰아파트단지내 1층 110동 ,126.9418439,37.54233207
2017,영업,유치원,서울새솔유치원,서울특별시 중랑구 신내동 242-1번지 ,127.1089541,37.6171287
2017,영업,어린이집,디딤돌어린이집,서울특별시 송파구 삼전동 16-7번지 3층 ,127.0918188,37.50624799
2017,영업,유치원,수정유치원,서울특별시 송파구 방이동 45-4번지 지하1층 ,127.1149594,37.51626334
2017,영업,어린이집,구립 예다움 보듬이 나눔이 어린이집,서울특별시 구로구 개봉동 403-82번지 ,126.8559538,37.48829675
2017,영업,어린이집,새솔어린이집,서울특별시 서대문구 홍제동 107-12번지 ,126.9487459,37.58579944
2017,영업,어린이집,새솔어린이집,서울특별시 은평구 신사동 350-39번지 1-3층 ,126.9125606,37.59150081
2017,영업,어린이집,구립 한빛어린이집,서울특별시 금천구 독산동 1017-21번지 ,126.9000663,37.46841851
2017,영업,어린이집,리라어린이집,서울특별시 강서구 화곡동 56-23번지 (지하 1층) ,126.8488467,37.54056482
2017,영업,어린이집,리틀예 어린이집,서울특별시 송파구 오금동 80-1번지 지상4층 ,127.1334017,37.50560583
2017,영업,어린이집,CJ키즈빌 어린이집,서울특별시 중구 쌍림동 292번지 2층 ,127.0032457,37.56386635
2017,영업,유치원,삼육대학교부속유치원,서울특별시 노원구 공릉동 26-21번지 ,127.1060033,37.64289288
2017,영업,어린이집,연봉어린이집,서울특별시 마포구 공덕동 4-57번지 ,126.9622497,37.55015921
2017,영업,어린이집,아람에듀어린이집,서울특별시 마포구 망원동 432-30번지 ,126.9006968,37.55856127
2017,영업,어린이집,구립드림어린이집,서울특별시 중랑구 면목동 20-22번지 ,127.09600159999998,37.58925959
2017,영업,어린이집,앙팡어린이집,서울특별시 강북구 수유동 332-10번지 ,127.0167499,37.64373973
2017,영업,어린이집,또래친구 어린이집,서울특별시 구로구 궁동 183번지 ,126.8308091,37.49759407
2017,영업,어린이집,사랑어린이집,서울특별시 동대문구 제기동 1212번지 제기동 한신아파트 관리동 보육시설 ,127.03912920000002,37.588915
2017,영업,어린이집,둥지어린이집,서울특별시 금천구 독산동 991-48번지 ,126.9035683,37.47241749
2017,영업,어린이집,가온누리어린이집,서울특별시 강서구 가양동 1500-0번지 강서한강자이타워 (지상 1층) 102동 ,126.84911909999998,37.56647504
2017,영업,어린이집,해돋는어린이집,서울특별시 강서구 화곡동 98-107번지 해돋는 어린이집 (지상 3층) ,126.8453665,37.54063072
2017,영업,어린이집,서초더샵포레어린이집,서울특별시 서초구 내곡동 77번지 서초더샵포레아파트 1층 104동 ,127.0644418,37.45105481
2017,영업,어린이집,창5동가인어린이집,서울특별시 도봉구 창동 320번지 행정지원센터 지상1층 ,127.044179,37.65261961
2017,영업,어린이집,산마루 어린이집,서울특별시 서대문구 북아현동 1-595번지 ,126.9511169,37.56571022
2017,영업,어린이집,조은어린이집,서울특별시 강북구 수유동 252-185번지 ,127.020648,37.64639261
2017,영업,어린이집,꼬마둥지어린이집,서울특별시 도봉구 창동 585-64번지 ,127.0348034,37.63947022
2017,영업,어린이집,세곡햇빛어린이집,서울특별시 강남구 자곡로 260 지상1층 (율현동 강남한양수자인 ),127.1127524,37.47680352
2017,폐업,어린이집,아랑어린이집,서울특별시 성북구 종암동 78-78번지 ,127.0289485,37.599701
2017,영업,어린이집,홀츠앤키즈맑은샘어린이집,서울특별시 은평구 불광동 641번지 북한산힐스테이트3차아파트관리동 ,126.9348781,37.6184693
2017,영업,어린이집,신촌사랑어린이집,서울특별시 마포구 염리동 518번지 1층 ,126.9472975,37.54992668
2017,영업,어린이집,오르다킨더가든어린이집,서울특별시 은평구 대조동 59-23번지 ,126.9228084,37.60819077
2017,영업,어린이집,케이티아이행복한어린이집,서울특별시 양천구 목동 924번지 ,126.8710932,37.52944593
2017,영업,어린이집,미래어린이집,서울특별시 용산구 후암동 244-104번지 ,126.9782988,37.5490102
2017,영업,어린이집,단이슬 어린이집,서울특별시 강서구 공항동 651-7번지 공항동청소년공부방 (지상 2층) ,126.8141056,37.5585335
2017,영업,어린이집,아이젤어린이집,서울특별시 은평구 응암동 427-90번지 ,126.9193068,37.59424042
2017,영업,어린이집,아이사랑어린이집,서울특별시 성북구 정릉동 307-4번지 ,127.0081691,37.61122947
2017,영업,어린이집,꿈나무키즈어린이집,서울특별시 강북구 번동 437-17번지 ,127.0301278,37.63443915
2017,영업,어린이집,우리두리어린이집,서울특별시 송파구 풍납동 395-1번지 지상3층 ,127.11475459999998,37.52776985
2017,폐업,어린이집,목동푸르니하나금융그룹어린이집,서울특별시 양천구 목동 905-20번지 한국외환은행 목동지점 3층 ,126.8771228,37.5329057
2017,영업,어린이집,종로생명숲어린이집,서울특별시 종로구 평창동 186-18번지 지상1층 ,126.9681605,37.60643077
2017,영업,어린이집,샤론어린이집,서울특별시 금천구 시흥동 492-24번지 ,126.9006359,37.44676826
2017,영업,어린이집,수피아 어린이집,서울특별시 강동구 암사동 462-12번지 ,127.1299412,37.55407874
2017,영업,어린이집,서울디지털 직장 어린이집,서울특별시 금천구 가산동 50-3번지 305호,126.8838936,37.48137517
2017,영업,어린이집,한울안어린이집,서울특별시 성북구 동선동3가 206번지 ,127.02057109999998,37.59375096
2017,영업,어린이집,구립극동그린어린이집,서울특별시 성동구 옥수동 436,127.0099624,37.54194648
2017,영업,어린이집,은송어린이집,서울특별시 송파구 가락동 131-12번지 지하1층 ,127.1262775,37.49383626
2017,영업,어린이집,두란노어린이집,서울특별시 서대문구 북가좌동 3-28번지 ,126.9207371,37.58185425
2017,영업,어린이집,은혜감사어린이집,서울특별시 서대문구 남가좌동 5-7번지 ,126.9226935,37.58201201
2017,영업,어린이집,방죽어린이집,서울특별시 강남구 율현동 318-11번지 12층 ,127.1046219,37.46993645
2017,폐업,어린이집,바다의별어린이집,서울특별시 성북구 정릉동 643-1번지 ,127.00105759999998,37.60521435
2017,영업,어린이집,자연숲어린이집,서울특별시 은평구 갈현동 487-16번지 ,126.9145947,37.61447273
2017,영업,어린이집,국회제3어린이집,서울특별시 영등포구 여의도동 1번지 국회제3어린이집 ,126.9153568,37.53104751
2017,영업,유치원,동일 유치원,서울특별시 중랑구 면목동 665-2번지 ,127.0846136,37.57818362
2017,영업,어린이집,거여동화나라어린이집,서울특별시 송파구 거여동 173-3번지 지상2층 ,127.14423909999998,37.49457726
2017,영업,어린이집,비네어린이집,서울특별시 강동구 길동 160번지 신동아아파트상가 2층 12호 ,127.148653,37.5391284
2017,영업,어린이집,온무리 교회 (어린이집),서울특별시 서초구 양재동 2-33번지 온무리교회 지하1층 ,127.0406848,37.48465594
2017,영업,어린이집,구립희망샘어린이집,서울특별시 광진구 중곡동 63-8번지 ,127.09019209999998,37.55929814
2017,영업,어린이집,세곡연두어린이집,서울특별시 강남구 자곡동 580-25번지 엘에이치강남3단지 1층 ,127.0888602,37.46921981
2017,영업,어린이집,구립 연지어린이집,서울특별시 구로구 오류동 173-1번지 연지타운 1단지 구립연지어린이집 104동 1호,126.8396438,37.48787087
2017,영업,어린이집,미소담어린이집,서울특별시 강서구 화곡동 926-4번지 미소담어린이집 (지상 1층) 101호,126.8422017,37.52878312
2017,영업,어린이집,키드윈아트어린이집,서울특별시 양천구 목동 724-7번지 ,126.86583290000002,37.53874308
2017,영업,어린이집,두산비쥬어린이집,서울특별시 성북구 하월곡동 222번지 두산위브@관리동1층 ,127.0383393,37.60702352
2017,영업,어린이집,두드림어린이집,서울특별시 관악구 신림동 537-28번지 ,126.9132905,37.48275707
2017,영업,유치원,하나유치원,서울특별시 은평구 진관동 5-4번지 (4층) ,126.9298323,37.64803207
2017,영업,어린이집,구립가온어린이집,서울특별시 강남구 세곡동 122-2번지 ,127.1065779,37.46456098
2017,영업,어린이집,세화어린이집,서울특별시 은평구 역촌동 39-35,126.9179621,37.60139301
2017,영업,어린이집,예다솜어린이집,서울특별시 강남구 세곡동 330번지 ,127.1037778,37.46671885
2017,영업,어린이집,구립 서초장미어린이집,서울특별시 서초구 서초동 1353-3번지 지하1층 ,127.0284258,37.48419658
2017,영업,어린이집,린아어린이집,서울특별시 동작구 상도동 430번지 sh-ville 관리동 1층 린아어린이집 ,126.9543426,37.50211849
2017,영업,어린이집,백호사랑어린이집,서울특별시 구로구 신도림동 393-26번지 ,126.8800478,37.50879294
2017,폐업,어린이집,밝은아이어린이집,서울특별시 양천구 목동 726-21번지 ,126.8660261,37.53760091
2017,영업,유치원,두산효자유치원,서울특별시 성북구 석관동 10번지 ,127.0686795,37.61264649
2017,영업,어린이집,별강서어린이집,서울특별시 강서구 화곡동 967-1번지 3층 ,126.8514872,37.54892483
2017,영업,어린이집,정원어린이집,서울특별시 성북구 정릉동 685-2번지 ,127.0071402,37.61049914
2017,영업,어린이집,우리세상어린이집,서울특별시 관악구 봉천동 1651-6번지 ,126.9689693,37.47345104
2017,영업,어린이집,물샘어린이집,서울특별시 은평구 갈현동 516-22번지 1층 ,126.9143647,37.61882814
2017,영업,어린이집,아이샘어린이집,서울특별시 강서구 화곡동 46-228번지 (지상 1층) ,126.84708909999998,37.54438467
2017,영업,어린이집,성일어린이집,서울특별시 성북구 동선동1가 85-16번지 ,127.0194519,37.591752
2017,영업,어린이집,헤브론어린이집,서울특별시 서초구 양재동 310번지 ,127.0442712,37.47212057
2017,영업,어린이집,꼬마대통령어린이집,서울특별시 은평구 진관동 28번지 구파발10단지 1009동 ,126.9236873,37.64494216
2017,영업,어린이집,강동리베라움 어린이집,서울특별시 강동구 고덕동 499번지 고덕아이파크 관리동 1층 ,127.1552152,37.55892216
2017,영업,어린이집,숲속천사어린이집,서울특별시 동작구 사당동 300-84번지 지하1층 ,126.97105390000002,37.4798872
2017,영업,어린이집,아음어린이집,서울특별시 양천구 목동 536-13번지 ,126.874101,37.54447635
2017,영업,어린이집,이화어린이집,서울특별시 동대문구 장안동 341-5번지 1층 ,127.0726777,37.5700465
2017,영업,어린이집,롯데어린이집,서울특별시 강서구 화곡동 1145번지 우장산롯데캐슬A단지내 ,126.8482123,37.55560809
2017,영업,어린이집,서울YMCA방화어린이집,서울특별시 강서구 방화동 851-0번지 도시개발공사아파트 사회복지관 1층 ,126.8054172,37.57014707
2017,영업,어린이집,스머프어린이집,서울특별시 중랑구 면목동 107-12번지 ,127.0914742,37.58645903
2017,영업,어린이집,상록어린이집,서울특별시 강서구 방화동 816-0번지 방화6단지복지관 1층 ,126.8109814,37.57843762
2017,영업,어린이집,지앤지어린이집,서울특별시 도봉구 쌍문동 505-11번지 지상1층 ,127.0139552,37.65437403
2017,영업,어린이집,숲속나라어린이집,서울특별시 강서구 화곡동 102-0번지 3층 ,126.845814,37.54024827
2017,영업,어린이집,아뜰어린이집,서울특별시 동대문구 신설동 53-3번지 ,127.0243872,37.57789235
2017,영업,어린이집,국민체육진흥공단 어린이집,서울특별시 송파구 방이동 88-2번지 올림픽공원내 ,127.1260195,37.51701108
2017,영업,어린이집,예쁜어린이집,서울특별시 성북구 정릉동 464-22번지 ,127.0112332,37.60404348
2017,영업,어린이집,봄내어린이집,서울특별시 중랑구 면목동 547-33번지 ,127.0853684,37.58611796
2017,영업,어린이집,파크빌어린이집,서울특별시 광진구 광장동 577번지 현대파크빌아파트 단지내 ,127.1015024,37.54413688
2017,영업,어린이집,새봄어린이집,서울특별시 중랑구 중화동 326-14번지 ,127.07309840000002,37.5971795
2017,영업,어린이집,하늘빛 어린이집,서울특별시 중랑구 중화동 87-5번지 ,127.0820786,37.60224197
2017,영업,어린이집,한길어린이집,서울특별시 동대문구 장안동 364-12 한길어린이집2층,127.0695422,37.56778652
2017,영업,어린이집,구립세움어린이집,서울특별시 동작구 상도동 454번지 1층 ,126.9358181,37.50647603
2017,영업,어린이집,쵸코렛어린이집,서울특별시 성동구 하왕십리동 966-17번지 지상1층 ,127.0330509,37.56219225
2017,영업,어린이집,은하어린이집,서울특별시 마포구 신수동 42-6번지 ,126.9389413,37.54637349
2017,영업,어린이집,해담어린이집,서울특별시 강서구 방화동 593-100번지 해담어린이집 (지하 1층) ,126.8103267,37.57001742
2017,영업,어린이집,구립우리어린이집,서울특별시 성동구 행당동 298-136번지 지상1층 ,127.0318647,37.56040635
2017,영업,어린이집,그리새몬테소리어린이집,서울특별시 은평구 갈현동 473-2번지 1층 ,126.9155156,37.61494482
2017,영업,어린이집,구립서부중앙어린이집,서울특별시 은평구 응암동 631-2번지 2층 ,126.922301,37.58891507
2017,영업,어린이집,아띠어린이집,서울특별시 도봉구 도봉동 576-25번지 1층 ,127.042996,37.68379829999999
2017,영업,어린이집,모모 어린이집,서울특별시 중랑구 신내동 796번지 ,127.0962137,37.60037578
2017,영업,어린이집,대은어린이집,서울특별시 강서구 화곡동 425-22번지 (지상 4층) ,126.839851,37.53045494
2017,영업,어린이집,사과나무어린이집,서울특별시 도봉구 창동 658-25번지 ,127.0366896,37.64864591
2017,영업,어린이집,하나린 어린이집,서울특별시 중랑구 면목동 154-87번지 ,127.0821105,37.58514029
2017,영업,어린이집,예은어린이집,서울특별시 관악구 봉천동 178-348번지 ,126.9691921,37.47100862
2017,영업,어린이집,성신어린이집,서울특별시 성북구 동소문동7가 87-3번지,127.01333429999998,37.59700183
2017,폐업,어린이집,별밭어린이집,서울특별시 마포구 성산동 642-2번지 ,126.9116994,37.55857827
2017,영업,어린이집,구립푸른빛어린이집,서울특별시 은평구 녹번동 1-53번지 2층 ,126.939464,37.60961183
2017,영업,어린이집,구립마들어린이집,서울특별시 노원구 중계동 515-3번지 ,127.0651688,37.64724484
2017,영업,어린이집,구립꿈나무마을어린이집,서울특별시 은평구 응암동 42-5번지 1층,126.9288333,37.59790985
2017,영업,어린이집,이삭어린이집,서울특별시 마포구 성산동 200-26번지 ,126.9094508,37.56694396
2017,영업,어린이집,서초꿈아이자람어린이집,서울특별시 서초구 서초동 1364-31번지 1층 ,127.0304883,37.48526125
2017,영업,어린이집,배화어린이집,서울특별시 서대문구 충정로2가 40번지 광산빌딩 1층 ,126.96477,37.56593658
2017,폐업,어린이집,다음세대어린이집,서울특별시 광진구 구의동 254-86번지 ,127.0843707,37.54374262
2017,영업,유치원,루이유치원,서울특별시 성북구 길음동 1284-2번지 ,127.0164102,37.6071335
2017,영업,어린이집,미파어린이집,서울특별시 광진구 중곡동 608-6번지 ,127.08585829999998,37.57022535
2017,영업,어린이집,드림어린이집,서울특별시 강서구 내발산동 748-4번지 강서구영유아플라자 (지상  1층) ,126.8262142,37.54947976
2017,영업,어린이집,삐아제에듀케어어린이집,서울특별시 양천구 신월동 161-13번지 ,126.8273219,37.53346526
2017,영업,어린이집,서울여자대학교부속어린이집,서울특별시 노원구 공릉동 126번지 ,127.0904611,37.62776402
2017,영업,어린이집,예지 어린이집,서울특별시 성동구 마장동 565 지상1층,127.035359,37.56691612
2017,영업,어린이집,구립한울어린이집,서울특별시 동작구 신대방동 344-281번지 구립한울어린이집 ,126.9263463,37.49432076
2017,영업,어린이집,은가람어린이집,서울특별시 구로구 신도림동 324-4번지 신도림생활체육관 1층 ,126.8832652,37.51373468
2017,영업,어린이집,오주어린이집,서울특별시 송파구 오금동 70-14번지 ,127.1347081,37.50367374
2017,영업,어린이집,자빈어린이집,서울특별시 강동구 명일동 305-23,127.1433417,37.55410201
2017,영업,어린이집,구립메꽃어린이집,서울특별시 동대문구 장안동 333-1번지 1층 ,127.0760368,37.57176272
2017,영업,어린이집,구립햇살어린이집,서울특별시 동대문구 용두동 696-9번지 1층 ,127.0369089,37.57280669
2017,영업,어린이집,캥거루 어린이집,서울특별시 송파구 풍납동 408-23번지 ,127.1175234,37.52974922
2017,영업,어린이집,평화어린이집,서울특별시 관악구 신림동 522-5번지 ,126.9138636,37.48381501
2017,영업,어린이집,중앙삐아제어린이집,서울특별시 동대문구 이문동 217-1번지 2층 ,127.0667903,37.60401559
2017,영업,어린이집,바이시클(주),서울특별시 용산구 한남동 60-61 1층,127.0112878,37.5382229
2017,영업,어린이집,우아세어린이집,서울특별시 동대문구 답십리동 50-35번지 ,127.0576784,37.57114302
2017,폐업,어린이집,단비어린이집,서울특별시 강남구 개포동 660-26번지 1층 ,127.0581178,37.47783868
2017,폐업,어린이집,김&장 (KIM&CHANG) 어린이집,서울특별시 종로구 신문로2가 1-158번지 지상1층 ,126.9709906,37.57225223
2017,폐업,유치원,은별유치원,서울특별시 구로구 개봉동 339-18번지 은별유치원 ,126.8522779,37.49080799
2017,폐업,어린이집,예담어린이집,서울특별시 강동구 성내동 514-12번지 예담어린이집 ,127.1307757,37.53100416
2017,영업,어린이집,주찬양어린이집,서울특별시 마포구 매봉산로 8 (상암동 월드컵파크아파트 3단지 관리동 1층),126.8899464,37.57417458
2017,영업,어린이집,나래어린이집,서울특별시 서초구 우면동 788번지 나래어린이집 1층 ,127.0236316,37.45845198
2017,영업,유치원,중앙대학교 사범대학 부속유치원,서울특별시 동작구 흑석동 211-32번지 ,126.95561770000002,37.50654644
2017,영업,어린이집,성북구청직장어린이집,서울특별시 성북구 삼선동5가 411번지 ,127.0168032,37.58943925
2017,영업,어린이집,하늘어린이집,서울특별시 마포구 상암동 1736번지 상암월드컵파크10단지내관리동 1층 ,126.88211499999998,37.58540174
2017,영업,어린이집,강동무지개어린이집,서울특별시 강동구 천호동 43-22 강동무지개어린이집,127.1406394,37.54460074
2017,영업,어린이집,바름이어린이집,서울특별시 서초구 서초동 1706-4번지 1층 ,127.0089176,37.49416313
2017,영업,어린이집,신사1 어린이집,서울특별시 은평구 은평로3가길 16 (신사동),126.9131906,37.59926173
2017,폐업,어린이집,연초롱어린이집,서울특별시 구로구 천왕동 281번지 연지타운 2단지 209동 1호,126.8392829,37.48456679
2017,영업,어린이집,GS건설 꿈과 희망의 어린이집,서울특별시 종로구 청진동 92번지 그랑서울타워 2  2층 ,126.9809632,37.57075414
2017,영업,어린이집,구립예본몬테소리어린이집,서울특별시 금천구 시흥동 219-3번지 ,126.9113779,37.45296795
2017,영업,어린이집,새꼬예미어린이집,서울특별시 강동구 천호동 39-24번지 ,127.1388167,37.54538857
2017,영업,어린이집,서초구립 서리풀어린이집,서울특별시 서초구 서초동 1541-1번지 지하1층 ,127.0073141,37.49131411
2017,영업,유치원,선덕유치원,서울특별시 노원구 하계동 273번지 ,127.0678387,37.63369294
2017,영업,어린이집,마천어린이집,서울특별시 송파구 마천동 183-56번지 지하1지상2층 ,127.1517999,37.49581321
2017,영업,어린이집,구립금삼어린이집,서울특별시 성동구 금호동3가 1265-51번지 지상1층 ,127.01978359999998,37.54952803
2017,영업,어린이집,구립성삼보듬이나눔이어린이집,서울특별시 성동구 성수동2가 289-138번지 지상2층 ,127.0566164,37.54872977
2017,영업,유치원,배영유치원,서울특별시 마포구 서교동 370-13번지 ,126.9198287,37.55249051
2017,영업,어린이집,양천구청직장어린이집,서울특별시 양천구 신정동 322-11번지 해누리타운 1층 ,126.8639114,37.51599286
2017,영업,어린이집,돈암교회어린이집,서울특별시 성북구 동선동5가 70-35번지 ,127.0178592,37.5958889
2017,영업,어린이집,대학로 어린이집,서울특별시 종로구 동숭동 192-19번지 ,127.00547790000002,37.57935047
2017,영업,어린이집,초동어린이집,서울특별시 종로구 돈의동 114-1번지 ,126.9912267,37.57175266
2017,영업,어린이집,장위1동어린이집,서울특별시 성북구 장위동 218-27번지 ,127.0447037,37.61886244
2017,영업,유치원,신길에덴유치원,서울특별시 영등포구 신길동 4916-14번지 신길에덴유치원 ,126.9133312,37.50558894
2017,영업,어린이집,믿음어린이집,서울특별시 금천구 독산동 1051-29번지 지하1층 ,126.8994568,37.46421108
2017,영업,어린이집,하늘빛어린이집,서울특별시 용산구 한남동 765-23번지 지상1층 ,127.0014357,37.53143707
2017,영업,어린이집,구립 새움터어린이집,서울특별시 구로구 구로동 170-5번지 우림이비지센터 1차 101호 ,126.895236,37.48688678
2017,영업,어린이집,구립은빛어린이집,서울특별시 강서구 방화동 183-0번지 우리교회 (지상 1층) ,126.818408,37.57118811
2017,폐업,어린이집,꿈비어린이집,서울특별시 강서구 내발산동 756-0번지 마곡수명산파크7단지 (지상 1층) ,126.8226815,37.54813686
2017,영업,어린이집,비손어린이집,서울특별시 은평구 갈현로5길 32 (신사동),126.9076847,37.60090512
2017,영업,어린이집,키즈랜드 어린이집,서울특별시 강남구 세곡동 290-0번지 리엔파크1단지관리동 ,127.1040433,37.46488538
2017,영업,어린이집,서초구립 포레스타3단지 어린이집,서울특별시 서초구 신원동 408번지 서초구립포레스타3단지 어린이집 ,127.0589364,37.45496903
2017,영업,어린이집,구립 아이누리 어린이집,서울특별시 강동구 길동 336-7번지 ,127.1423334,37.54248728
2017,영업,유치원,오누이 유치원,서울특별시 강북구 번동 242번지 주공1단지내 2층 ,127.0470876,37.62470012
2017,영업,어린이집,구립수연어린이집,서울특별시 강남구 삼성동 40-3번지 ,127.0455467,37.51240087
2017,영업,어린이집,아이세상어린이집,서울특별시 관악구 신림동 468-8번지 ,126.9220585,37.48614575
2017,영업,어린이집,꽃사슴어린이집,서울특별시 양천구 목동 230-25번지 ,126.8704376,37.53943007
2017,영업,유치원,서안유치원,서울특별시 중랑구 중화동 282-12번지 ,127.07995590000002,37.60440375
2017,영업,어린이집,구립솔지어린이집,서울특별시 금천구 독산동 940-5번지 ,126.9068135,37.46749354
2017,영업,어린이집,단비어린이집,서울특별시 송파구 문정동 6-7,127.12579270000002,37.49009984
2017,영업,어린이집,그린어린이집,서울특별시 동대문구 휘경동 29-1번지 12층 ,127.0644171,37.58931227
2017,영업,어린이집,노엘어린이집,서울특별시 도봉구 쌍문동 315-414번지 ,127.0289021,37.64837525
2017,영업,유치원,예닮유치원,서울특별시 관악구 신림동 1612-7번지 ,126.9252452,37.48251243
2017,영업,어린이집,예다미 어린이집,서울특별시 강동구 천호동 29-3 예다미 어린이집,127.1413657,37.54828774
2017,영업,어린이집,예쁜 새싹 어린이집,서울특별시 중랑구 면목동 466-9번지 ,127.0916223,37.58146351
2017,영업,어린이집,만나 어린이집,서울특별시 종로구 혜화동 6-32번지 1층 ,127.0004886,37.59014616
2017,영업,어린이집,개나리동산 어린이집,서울특별시 성동구 성수동1가 211-1번지 지상2층 ,127.0483302,37.53812726
2017,영업,어린이집,더크는어린이집,서울특별시 영등포구 대림동 973-48번지 더크는어린이집 ,126.90498,37.49100149
2017,영업,어린이집,라임어린이집,서울특별시 중랑구 묵동 234-35번지 ,127.075777,37.61452246
2017,영업,어린이집,석관임마누엘어린이집,서울특별시 성북구 석관동 340-11번지 ,127.0564005,37.60742077
2017,영업,어린이집,구립갈산어린이집,서울특별시 양천구 신정동 337-9번지 ,126.8673331,37.50888768
2017,영업,어린이집,창동어린이집,서울특별시 도봉구 창동 374번지 ,127.0454621,37.64483975
2017,영업,어린이집,구립양지어린이집,서울특별시 성동구 상왕십리동 346번지 ,127.0236245,37.56593708
2017,영업,어린이집,미성어린이집,서울특별시 은평구 응암동 227-64번지 지상 ,126.9249349,37.59519575
2017,영업,어린이집,중계행복어린이집,서울특별시 노원구 중계동 43-12번지 ,127.082923,37.64605566
2017,영업,어린이집,농협중앙회 어린이집,서울특별시 중구 충정로1가 75-1번지 1층 ,126.9684256,37.56639643
2017,영업,어린이집,구립 해든어린이집,서울특별시 강동구 암사동 489-8,127.1330995,37.54881998
2017,영업,어린이집,쌍문2동소라어린이집,서울특별시 도봉구 쌍문동 716-30번지 ,127.040206,37.6587134
2017,영업,어린이집,구립기자촌어린이집,서울특별시 은평구 진관동 150번지 1105동 1층 ,126.9346244,37.63630809
2017,영업,어린이집,삼성전자 서울R&D캠퍼스어린이집,서울특별시 서초구 우면동 685번지 3층 ,127.02140990000002,37.46598223
2017,영업,어린이집,구립송정햇살어린이집,서울특별시 성동구 송정동 73-851번지 ,127.0654564,37.55013544
2017,영업,어린이집,구립 은강어린이집,서울특별시 강동구 성내동 378-9번지 ,127.1363655,37.53334808
2017,영업,어린이집,구립 명일2동어린이집,서울특별시 강동구 명일동 237번지 ,127.1536023,37.5482753
2017,영업,어린이집,해담어린이집,서울특별시 구로구 천왕동 144번지 이펜하우스7단지 705동 ,126.83664640000002,37.48279511
2017,영업,어린이집,구립신정4동어린이집,서울특별시 양천구 신정동 949-5번지 신정4동어린이집 지상1층 ,126.8557759,37.5245537
2017,영업,어린이집,영등포구청직장어린이집,서울특별시 영등포구 당산동3가 560번지 1층 D동 ,126.8943198,37.52843770000001
2017,영업,어린이집,우리은행 어린이집,서울특별시 성동구 성수동2가 281-13,127.0657791,37.54793813
2017,영업,어린이집,현대해상 온마음 어린이집,서울특별시 종로구 신문로2가 1-124번지 ,126.9709932,37.57110712
2017,폐업,어린이집,무궁화어린이집,서울특별시 종로구 궁정동 4-11번지 2층 ,126.9710866,37.58473022
2017,영업,어린이집,구립 한마을어린이집,서울특별시 강동구 상일동 337-2번지 ,127.1677777,37.54633817
2017,영업,어린이집,서울성모병원어린이집,서울특별시 서초구 반포동 505번지 강남성모병원 병원동 ,127.0052227,37.50006958
2017,영업,어린이집,구립서현어린이집,서울특별시 마포구 서교동 379-5번지 2층일부 ,126.916108,37.55272503
2017,영업,어린이집,더키즈(THE KIDS)여의도2어린이집,서울특별시 영등포구 여의도동 28-1번지 전경련회관 4층 ,126.9202315,37.52217901
2017,영업,어린이집,IBK참!좋은어린이집,서울특별시 노원구 상계동 651-8번지 ,127.057358,37.66475392
2017,영업,어린이집,구립상도4동어린이집,서울특별시 동작구 상도동 197-11,126.93731499999998,37.50125099
2017,영업,어린이집,상계삼성어린이집,서울특별시 노원구 상계동 430-5번지 상계삼성어린이집 ,127.0658188,37.66124373
2017,영업,어린이집,아트어린이집,서울특별시 성북구 상월곡동 62번지 ,127.0448275,37.60605756
2017,영업,어린이집,구립 행복이든어린이집,서울특별시 강동구 강일동 689번지 ,127.1800959,37.56301259
2017,영업,어린이집,청솔창의어린이집,서울특별시 노원구 하계동 135-7번지 ,127.0709211,37.63406827
2017,영업,어린이집,새꿈어린이집,서울특별시 용산구 동자동 17-3번지 ,126.9735877,37.55238087
2017,영업,어린이집,국공립소리어린이집,서울특별시 성북구 하월곡동 77-214번지 ,127.03583,37.61121418
2017,영업,어린이집,구립 꽃초롱 어린이집,서울특별시 성동구 하왕십리동 722번지 ,127.0274545,37.56514415
2017,영업,어린이집,신당중앙어린이집,서울특별시 중구 신당동 338-16번지 1층 ,127.0121161,37.55840517
2017,영업,어린이집,구립동교어린이집,서울특별시 마포구 동교동 181-3번지 ,126.9300955,37.55626427
2017,영업,어린이집,서초에코리치어린이집,서울특별시 서초구 우면동 753번지 서초참누리에코리치아파트 106동 1호,127.0132287,37.45642618
2017,영업,어린이집,튼튼키즈어린이집,서울특별시 강서구 등촌동 522-41번지 (지상 3층) ,126.8611748,37.54680217
2017,영업,어린이집,강남구립 힐스어린이집,서울특별시 강남구 자곡동 619번지 ,127.0886641,37.47127065
2017,영업,어린이집,리라키즈스쿨어린이집,서울특별시 관악구 신림동 482-5번지 ,126.9197565,37.48522104
2017,영업,어린이집,중동어린이집,서울특별시 마포구 중동 64-27번지 ,126.9042289,37.57017344
2017,영업,어린이집,구립목5동어린이집,서울특별시 양천구 목동 908-32번지 ,126.8817055,37.53715347
2017,영업,어린이집,또래마을어린이집,서울특별시 금천구 가산동 151-16번지 ,126.8937377,37.4772746
2017,영업,어린이집,아르떼 어린이집,서울특별시 서초구 방배동 424-28번지 1층 방배롯데캐슬아르떼(아) 관리동 ,126.9844229,37.48361297
2017,영업,어린이집,오금 사임당 어린이집,서울특별시 송파구 오금동 71-12번지 1층 ,127.1342986,37.50381214
2017,영업,어린이집,경동어린이집,서울특별시 중구 장충동1가 26-6번지 경동교회  1층 ,127.0071907,37.56311755
2017,영업,어린이집,서초구립 포레스타6단지어린이집,서울특별시 서초구 신원동 285번지 서초포레스타6단지 605동 1층 ,127.0552293,37.45029968
2017,영업,어린이집,새동원어린이집,서울특별시 관악구 신림동 484-16번지 ,126.9211706,37.48455386
2017,영업,어린이집,예뜰창의어린이집,서울특별시 금천구 독산동 197-12번지 지상1층 ,126.9014913,37.4697949
2017,영업,어린이집,서초구립 포레스타2단지어린이집,서울특별시 서초구 내곡동 143번지 포레스타2단지 211동 1층 ,127.0632148,37.45501585
2017,영업,어린이집,IBK 참좋은어린이집,서울특별시 구로구 구로동 817번지 기업은행 ,126.8983577,37.48397063
2017,영업,어린이집,다솔어린이집,서울특별시 중랑구 묵동 23-1번지 ,127.0849575,37.61505806
2017,영업,어린이집,진선미어린이집,서울특별시 마포구 도화동 230번지 외1필지  진선미어린이집 ,126.9485749,37.53805607
2017,영업,유치원,홍익대학교사범대학부속유치원,서울특별시 마포구 연남동 369-1번지 홍익대학교사범대학부속유치원 ,126.9194361,37.56308593
2017,영업,어린이집,구립 한빛어린이집,서울특별시 강동구 암사동 478-39,127.1357628,37.5511538
2017,영업,어린이집,녹번어린이집,서울특별시 은평구 통일로62길 17 (녹번동),126.9352061,37.60699564
2017,영업,어린이집,아람 어린이집,서울특별시 서대문구 남가좌동 124-1 DMC파크뷰자이 2단지내 커뮤니티센터 1층,126.9197171,37.57118472
2017,영업,어린이집,예일어린이집,서울특별시 서대문구 북가좌동 324-19번지 1층 예일어린이집 ,126.9099321,37.58215589
2017,영업,어린이집,가람어린이집,서울특별시 서대문구 남가좌동 124-1번지 DMC 파크뷰자이 1단지내 ,126.9197171,37.57118472
2017,폐업,어린이집,교보생명 다솜이 어린이집,서울특별시 종로구 신문로2가 1-183번지 지상12층 ,126.9693541,37.57205377
2017,영업,어린이집,이랜드코코몽어린이집,서울특별시 금천구 가산동 371-12번지 지상1층 ,126.8814934,37.47949908
2017,영업,어린이집,다솜어린이집,서울특별시 은평구 응암동 93-6번지 다솜어린이집 ,126.927649,37.60102602
2017,영업,어린이집,해피엔젤어린이집,서울특별시 강서구 화곡동 50-3번지 1층 ,126.8488102,37.54286001
2017,영업,어린이집,은행나무어린이집,서울특별시 은평구 응암동 348-13번지 지상 ,126.9206317,37.59119113
2017,영업,어린이집,구립성분도어린이집,서울특별시 서초구 방배동 1023-3 서초여성회관 2층,126.9999618,37.47842036
2017,영업,어린이집,KB강서어린이집,서울특별시 강서구 염창동 244-9번지 (지상 2층) ,126.86984479999998,37.55398132
2017,영업,어린이집,꿈꾸는어린이집,서울특별시 강서구 방화동 357번지 1층 ,126.8151375,37.57904236
2017,영업,유치원,세신유치원,서울특별시 양천구 신정동 311-3번지 세신유치원 ,126.8568179,37.51767568
2017,폐업,어린이집,SK네트웍스 새싹어린이집,서울특별시 중구 남대문로2가 5-3번지 ,126.9828179,37.56508856
2017,영업,어린이집,구립프레비뉴어린이집,서울특별시 영등포구 신길동 329-94번지 레미안프레비뉴 1층 101동 ,126.91017990000002,37.50542017
2017,영업,어린이집,구립다원어린이집,서울특별시 관악구 신림동 733번지 ,126.9122652,37.47179176
2017,영업,어린이집,서울대학교어린이보육지원센터느티나무어린이집,서울특별시 관악구 봉천동 산 4-2번지 ,126.9608331,37.46043586
2017,영업,어린이집,떡잎어린이집,서울특별시 관악구 봉천동 1533-2번지 ,126.9397521,37.48045448
2017,영업,어린이집,청아어린이집,서울특별시 마포구 용강동 26-18번지 ,126.944671,37.54103167
2017,영업,유치원,행복한 유치원,서울특별시 강서구 등촌동 688-1번지 (등촌3동) ,126.84190890000002,37.56259359
2017,영업,어린이집,이글아이어린이집,서울특별시 양천구 신월동 36-1번지 신동아파밀리에아파트 지상1층 108동 ,126.8247979,37.53962801
2017,영업,어린이집,강일새롬어린이집,서울특별시 강동구 강일동 699번지 ,127.1788004,37.55984259
2017,영업,어린이집,하늘빛어린이집,서울특별시 은평구 응암동 85-56번지 ,126.9234994,37.60139415
2017,영업,유치원,행복한숲유치원,서울특별시 동작구 상도동 414번지 ,126.94975,37.50715756
2017,영업,유치원,태영유치원,서울특별시 마포구 대흥동 660번지 태영아파트단지내 ,126.9425457,37.54471987
2017,영업,유치원,린덴바움 유치원,서울특별시 종로구 무악동 82번지 ,126.9607788,37.57537108
2017,영업,어린이집,하나린어린이집,서울특별시 강서구 내발산동 740-1 (발산1동),126.8254811,37.55391364
2017,폐업,어린이집,강서힐스테이트 어린이집,서울특별시 강서구 화곡동 1165번지 (우장산동) 강서힐스테이트 관리동 ,126.8400103,37.54672888
2017,영업,유치원,새시대유치원,서울특별시 강북구 수유동 172-147번지 ,127.026989,37.64267996
2017,영업,어린이집,구립녹번복지관 어린이집,서울특별시 은평구 녹번동 산 28-6번지 1층 ,126.93183190000002,37.60273675
2017,영업,어린이집,자연과아이어린이집,서울특별시 영등포구 당산동3가 565번지 당산계룡리슈빌3단지내 어린이집 ,126.8991195,37.5245956
2017,영업,어린이집,서울발트킨더어린이집,서울특별시 서초구 신원동 412-5번지 힐스테이트서초젠트리스 107동,127.0563425,37.45549116
2017,영업,어린이집,구립대영 어린이집,서울특별시 은평구 녹번동 153-16번지 1층 ,126.9231884,37.60453819
2017,폐업,유치원,세나유치원,서울특별시 금천구 시흥동 870-27번지 ,126.9002251,37.45721091
2017,영업,어린이집,푸르지오 그린 어린이집,서울특별시 송파구 장지동 878번지 ,127.1407156,37.48085514
2017,영업,어린이집,동화어린이집,서울특별시 중구 신당동 852번지 청구 e편한세상 ,127.0167053,37.56043882
2017,영업,어린이집,삼성어린이집,서울특별시 성동구 용답동 72-17번지 ,127.0524329,37.56581479
2017,영업,어린이집,구립독산2동어린이집,서울특별시 금천구 독산동 1051-20번지 지상1층 ,126.9002432,37.46427915
2017,영업,유치원,영중유치원,서울특별시 영등포구 영등포동8가 84번지 지하1층 ,126.9052509,37.53089708
2017,영업,어린이집,피터팬 어린이집,서울특별시 서초구 반포동 612-118번지 ,126.9910678,37.4976753
2017,영업,어린이집,장위어린이집,서울특별시 성북구 장위동 258-18번지 ,127.0488745,37.60922202
2017,영업,어린이집,행복한 숲 어린이집,서울특별시 은평구 역촌동 211-2번지 ,126.9091884,37.60303185
2017,영업,어린이집,우리들어린이집,서울특별시 중랑구 묵동 173-23번지 ,127.0791666,37.61262343
2017,영업,유치원,모아유치원,서울특별시 동작구 사당동 127,126.9789732,37.48834407
2017,영업,어린이집,텐즈아이어린이집,서울특별시 성동구 하왕십리동 1066번지 ,127.02794070000002,37.568556
2017,영업,어린이집,창이어린이집,서울특별시 종로구 창신동 622-2번지 ,127.00856609999998,37.57853255
2017,영업,어린이집,아람어린이집,서울특별시 강동구 천호동 321-77,127.1241688,37.54713799
2017,영업,유치원,서울개포유치원,서울특별시 강남구 개포동 188번지 ,127.07067759999998,37.486561
2017,영업,어린이집,서초구립 방배열린어린이집,서울특별시 서초구 방배동 852-14번지 1층 ,126.9921567,37.48902455
2017,영업,어린이집,구로삼성어린이집,서울특별시 구로구 구로동 705-11번지 구로삼성어린이집 ,126.8823655,37.49123629
2017,영업,어린이집,구립둥근마음어린이집,서울특별시 영등포구 여의도동 56-1번지 1층 ,126.9307323,37.51812617
2017,영업,어린이집,예꿈어린이집,서울특별시 서대문구 현저동 204번지 1층 ,126.95863359999998,37.57235094
2017,영업,어린이집,광림어린이집,서울특별시 강남구 신사동 571-2번지 ,127.0253588,37.52439968
2017,영업,어린이집,아크로힐스 논현어린이집,서울특별시 강남구 논현동 276-1번지 ,127.0389305,37.50951563
2017,영업,어린이집,본심어린이집,서울특별시 성북구 상월곡동 산 1-1번지 ,127.044391,37.60987373
2017,영업,어린이집,구립나리어린이집,서울특별시 성북구 석관동 336-15번지 ,127.0566119,37.61014978
2017,영업,어린이집,구립연화어린이집,서울특별시 마포구 도화동 347-134번지 ,126.9504745,37.53828698
2017,영업,어린이집,한국은행어린이집,서울특별시 중구 남대문로2가 111-1번지 2층 ,126.9811469,37.56240275
2017,영업,어린이집,도담도담어린이집,서울특별시 마포구 상수동 398번지 래미안밤섬리베뉴 관리동 ,126.9271892,37.54659527
2017,영업,어린이집,거원어린이집,서울특별시 송파구 거여동 251-42번지 ,127.146163,37.491418
2017,영업,어린이집,우리누리 송파 어린이집,서울특별시 송파구 풍납동 388-6번지 ,127.1138244,37.5265975
2017,영업,어린이집,엔젤어린이집,서울특별시 금천구 독산동 961-13번지 지상1층 ,126.9040844,37.47675395
2017,영업,어린이집,재단법인 한국천주교살레시오회 요셉어린이집,서울특별시 구로구 구로동 787-70 재단법인 한국천주교살레시오회 요셉어린이집,126.8896993,37.48514892
2017,영업,어린이집,엘림어린이집,서울특별시 강남구 수서동 559번지 ,127.0912032,37.48094764
2017,영업,어린이집,구립해누리어린이집,서울특별시 구로구 천왕동 27번지 천왕이펜하우스 203동 1층 ,126.8419515,37.48255617
2017,영업,어린이집,삼성영재어린이집,서울특별시 동대문구 전농동 155번지 ,127.055568,37.58191951
2017,영업,유치원,서울위례별유치원,서울특별시 송파구 장지동 889-1번지 ,127.1455251,37.47773686
2017,영업,어린이집,마포리버파크지향 어린이집,서울특별시 마포구 용강동 508번지 ,126.9436925,37.54155211
2017,영업,유치원,재단법인 천주교서울대교구유지재단 개봉샛별유치원,서울특별시 구로구 개봉동 259-3번지 ,126.8568078,37.49157768
2017,영업,어린이집,서울청사 한빛어린이집,서울특별시 종로구 창성동 117-6번지 1층 ,126.9732028,37.57969677
2017,영업,어린이집,구립선재어린이집,서울특별시 영등포구 당산동3가 560번지 1~3층 ,126.8943198,37.52843770000001
2017,영업,어린이집,영재아이짐 어린이집,서울특별시 강동구 천호동 52-10,127.1404723,37.54240855
2017,영업,어린이집,신나는 어린이집,서울특별시 강서구 화곡동 29-187번지 (화곡본동) ,126.8491135,37.54636276
2017,영업,어린이집,구립동화어린이집,서울특별시 영등포구 당산동4가 80-5번지 1층 ,126.897289,37.53100268
2017,영업,유치원,한신유치원,서울특별시 금천구 독산동 1095번지 ,126.88932920000002,37.4555427
2017,영업,어린이집,롯데백화점 어린이집,서울특별시 종로구 재동 32-10번지 1층 ,126.9842182,37.57922343
2017,영업,어린이집,이화초록별어린이집,서울특별시 마포구 아현동 800번지 관리동 어린이집 ,126.9592452,37.55554614
2017,영업,어린이집,푸른꿈동산 어린이집,서울특별시 서대문구 홍제동 364-1번지 ,126.9380274,37.58442963
2017,영업,어린이집,한솔교육&CJ키즈빌 어린이집,서울특별시 마포구 상암동 1653번지 한솔교육빌딩 5층 ,126.89135520000002,37.57706049
2017,영업,어린이집,THE KIDS 여의도1어린이집,서울특별시 영등포구 여의도동 17-7번지 현대캐피탈3관1층 ,126.9175805,37.52714725
2017,영업,어린이집,워커힐행복어린이집,서울특별시 광진구 광장동 22-1번지 워커힐호텔 2층 ,127.1113915,37.55515954
2017,영업,어린이집,힐즈어린이집,서울특별시 강남구 자곡동 611번지 ,127.0940629,37.4741209
2017,영업,어린이집,오즈의마법사 어린이집,서울특별시 강서구 내발산동 753번지 (지상1층) ,126.8233261,37.55122274
2017,영업,어린이집,블루나인 어린이집,서울특별시 강서구 등촌동 645-24번지 ,126.8625972,37.55390352
2017,영업,어린이집,화곡동어린이집,서울특별시 강서구 화곡동 867-18번지 지층 ,126.8561293,37.53365954
2017,영업,어린이집,마곡5 해맑은어린이집,서울특별시 강서구 마곡동 740번지 (지상1층) 상가동 ,126.8186028,37.57067323
2017,영업,어린이집,삼육대학교부설어린이집,서울특별시 노원구 공릉동 26-61번지 삼육대학교내 ,127.1082014,37.64336858
2017,영업,어린이집,구립튼튼이 어린이집,서울특별시 금천구 시흥동 산 139-2번지 ,126.90606809999998,37.46314247
2017,영업,유치원,밤비니 유치원,서울특별시 강서구 공항동 67-10번지 (지상4층) ,126.8095917,37.55890371
2017,영업,어린이집,구립올고운어린이집,서울특별시 금천구 시흥동 244-1번지 ,126.9130685,37.45126893
2017,영업,어린이집,구립금하새빛어린이집,서울특별시 금천구 독산동 1121-3번지 구립금하새빛어린이집 ,126.8918165,37.45240796
2017,영업,어린이집,석촌동주민센터어린이집,서울특별시 송파구 석촌동 265번지 석촌동주민센터1층 ,127.1036422,37.50358683
2017,영업,어린이집,안암동 하나금융그룹 직장 어린이집,서울특별시 성북구 안암동5가 104-42번지 ,127.0291744,37.58328855
2017,영업,어린이집,SK건설 행복날개 어린이집,서울특별시 종로구 관훈동 192-18번지 지상2층 ,126.984357,37.57311836
2017,영업,유치원,서울은곡유치원,서울특별시 강남구 세곡동 601번지 ,127.0969512,37.46680117
2017,영업,어린이집,구립명인어린이집,서울특별시 중랑구 면목동 564-50번지 ,127.0844291,37.58406656
2017,영업,유치원,서울청계숲유치원,서울특별시 서초구 신원동 247번지 ,127.0575658,37.44776292
2017,영업,어린이집,창4동한내어린이집,서울특별시 도봉구 창동 827-1번지 2층 ,127.0450678,37.66144354
2017,영업,유치원,젬마유치원,서울특별시 동대문구 이문동 321-31번지 ,127.0593639,37.59303476
2017,영업,어린이집,구립동심어린이집,서울특별시 강동구 암사동 450-24,127.1373702,37.55613337
2017,영업,어린이집,지에스샵(GSSHOP)도담도담어린이집,서울특별시 영등포구 문래동6가 10번지 GS강서타워 2층 ,126.8889981,37.52078874
2017,영업,어린이집,성북생명숲어린이집,서울특별시 성북구 정릉동 1028-5번지 ,127.0092007,37.61595735
2017,영업,어린이집,구립신정2동어린이집,서울특별시 양천구 신정동 117-30번지 지상3층 ,126.874607,37.52200424
2017,영업,어린이집,구립도담어린이집,서울특별시 금천구 시흥동 807번지 ,126.9080026,37.45920091
2017,폐업,어린이집,원정어린이집,서울특별시 성북구 정릉동 772-1번지 ,127.0054874,37.61649957
2017,영업,어린이집,하늘어린이집,서울특별시 강서구 화곡동 56-369번지 1층 ,126.8514076,37.53899344
2017,영업,어린이집,구립 연우 어린이집,서울특별시 구로구 천왕동 산 25-8번지 천왕이펜하우스S ,126.8399163,37.48461348
2017,영업,어린이집,구립왕도어린이집,서울특별시 성동구 홍익동 373-1번지 ,127.0310991,37.56552468
2017,영업,어린이집,구립성이어린이집,서울특별시 성동구 성수동2가 667번지 ,127.0550348,37.53647226
2017,영업,어린이집,무궁화어린이집,서울특별시 종로구 궁정동 4-1번지 ,126.9714938,37.58475091
2017,영업,어린이집,시흥어린이집,서울특별시 금천구 시흥동 954-29번지 지상12층 ,126.9041627,37.44116723
2017,영업,어린이집,구립 새싹 어린이집,서울특별시 금천구 시흥동 943-5번지 ,126.9051109,37.44327373
2017,영업,어린이집,래미안위브 어린이집,서울특별시 동대문구 답십리동 178번지 ,127.0552261,37.57278942
2017,영업,어린이집,구립하람어린이집,서울특별시 중랑구 신내동 816번지 신내우디안아파트 104동 내 ,127.0967146,37.60371361
2017,영업,어린이집,구립오즈어린이집,서울특별시 마포구 아현동 635번지 마포래미안푸르지오 아파트 4단지 ,126.9563385,37.55385546
2017,영업,어린이집,구립 토리어린이집,서울특별시 마포구 아현동 635번지 마포래미안푸르지오 3단지 어린이집 ,126.9563385,37.55385546
2017,영업,어린이집,보미나 어린이집,서울특별시 강남구 논현동 133-13번지 ,127.02852649999998,37.51150643
2017,영업,어린이집,신원어린이집,서울특별시 강서구 염창동 255번지 무학아파트상가동 ,126.87653229999998,37.5513835
2017,영업,어린이집,아리솔어린이집,서울특별시 노원구 중계동 507-1번지 ,127.0654251,37.64080308
2017,영업,유치원,서울베네딕도유치원,서울특별시 성북구 돈암동 413-79번지 ,127.0161815,37.59914142
2017,영업,어린이집,노원구청직장어린이집,서울특별시 노원구 상계동 701-1번지 ,127.0566331,37.65415485
2017,영업,어린이집,솔샘숲어린이집,서울특별시 동대문구 답십리동 178번지 래미안위브아파트1단지1층 ,127.0552261,37.57278942
2017,영업,어린이집,강남구립 산들어린이집,서울특별시 강남구 자곡동 618번지 1층 ,127.0909683,37.47260266
2017,영업,어린이집,구립용강어린이집,서울특별시 마포구 용강동 44-3번지 외8필지 ,126.94284840000002,37.54064898
2017,영업,어린이집,열린비테에어린이집,서울특별시 서초구 양재동 334-2번지 1층 ,127.0436287,37.47011509
2017,영업,어린이집,구립 삼성아트어린이집,서울특별시 송파구 문정동 1 문정래미안아파트단지내,127.1302696,37.49061313
2017,영업,어린이집,구립 마엘향어린이집,서울특별시 관악구 신림동 715-24번지 ,126.9174229,37.47070112
2017,영업,어린이집,마곡15누리 어린이집,서울특별시 강서구 마곡동 751번지 발산1동 마곡엠밸리15단지 상가동 ,126.8186028,37.57067323
2017,영업,어린이집,연세 어린이집,서울특별시 동대문구 장안동 289-31번지 ,127.0704233,37.57607952
2017,영업,어린이집,선애어린이집,서울특별시 마포구 망원동 416-52번지 ,126.902924,37.5566347
2017,영업,어린이집,공립 푸른성북 어린이집,서울특별시 성북구 보문동2가 7-1번지 ,127.0174489,37.58727932
2017,영업,어린이집,강남구립 자곡어린이집,서울특별시 강남구 자곡동 602번지 ,127.10140859999998,37.47465285
2017,영업,어린이집,키즈네이션 어린이집,서울특별시 강서구 염창동 70-4번지 (지상 3층) ,126.870162,37.55650741
2017,영업,어린이집,컵스빌리지어학원,서울특별시 용산구 한남동 1-86번지 지하2층 ,127.01280520000002,37.53716538
2017,영업,어린이집,숲속어린이집,서울특별시 마포구 아현동 635번지 마포래미안푸르지오아파트 1단지 어린이집 지하2층 ,126.9563385,37.55385546
2017,영업,어린이집,양지1어린이집,서울특별시 서초구 내곡동 산 13-336번지 ,127.0704078,37.46336758
2017,영업,어린이집,양지2 어린이집,서울특별시 서초구 내곡동 산 13-336번지 양지어린이집 ,127.0704078,37.46336758
2017,영업,어린이집,미래나무 어린이집,서울특별시 강남구 역삼동 629-2번지 ,127.0336491,37.50328271
2017,영업,유치원,위례우일유치원,서울특별시 송파구 마천동 596번지 지상2층 ,127.15773459999998,37.49652394
2017,영업,어린이집,마곡7 미래꿈어린이집,서울특별시 강서구 마곡동 743-4번지 1층 707동 ,126.8189094,37.5707024
2017,폐업,어린이집,마곡14 아이마당 어린이집,서울특별시 강서구 마곡동 750번지 (지상 1층) ,126.8186028,37.57067323
2017,영업,어린이집,구립 개봉푸르지오어린이집,서울특별시 구로구 개봉동 492번지 개봉푸르지오아파트 ,126.8481077,37.50039834
2017,영업,어린이집,마곡6 마곡숲 어린이집,서울특별시 강서구 마곡동 743-0번지 마곡엠밸리6단지 (지상 1층) ,126.8186028,37.57067323
2017,영업,어린이집,순복음어린이집,서울특별시 성북구 하월곡동 80-2번지 ,127.0351292,37.60999977
2017,영업,어린이집,도란도란어린이집,서울특별시 마포구 용강동 504번지 외1필지 ,126.9430537,37.54255618
2017,영업,어린이집,지구촌어린이집,서울특별시 용산구 이태원동 211-9번지 ,126.9921503,37.53934667
2017,영업,유치원,애동유치원,서울특별시 관악구 신림동 612-32번지 ,126.9203252,37.47382578
2017,영업,어린이집,구립 갈현1어린이집,서울특별시 은평구 갈현동 430-22번지 ,126.9173616,37.62047942
2017,영업,어린이집,염리어린이집,서울특별시 마포구 염리동 518번지 ,126.9472975,37.54992668
2017,영업,어린이집,푸른숲 어린이집,서울특별시 노원구 공릉동 240-271번지 ,127.0827101,37.62022667
2017,영업,어린이집,화곡본어린이집,서울특별시 강서구 화곡동 50-76번지 지상4층,126.8495001,37.54347759
2017,영업,어린이집,사랑별어린이집,서울특별시 구로구 구로동 746-8번지 ,126.8865582,37.48705984
2017,폐업,어린이집,삼선교어린이집,서울특별시 성북구 삼선동3가 115-3번지 ,127.0120608,37.58450541
2017,영업,유치원,서울장충유치원,서울특별시 중구 신당동 386-86번지 서울장충초등학교 2층 ,127.0111557,37.55948473
2017,영업,어린이집,구립크니크니어린이집,서울특별시 마포구 합정동 472번지 마포한강푸르지오지하1층 PB101호 ,126.9121695,37.54998418
2017,영업,어린이집,아이빛어린이집,서울특별시 마포구 창전동 444번지 1층 ,126.9294145,37.54835170000001
2017,영업,어린이집,사랑스런어린이집,서울특별시 송파구 거여동 20-8번지 지상4층 ,127.1419997,37.49469387
2017,영업,어린이집,니꼴라오어린이집,서울특별시 서초구 양재동 396-2번지 ,127.0481545,37.47209456
2017,폐업,어린이집,종암중앙어린이집,서울특별시 성북구 종암동 70-110번지 ,127.0336477,37.59862297
2017,영업,유치원,운산유치원,서울특별시 강북구 수유동 52-21번지 ,127.0216727,37.6320507
2017,영업,어린이집,서머힐어린이집,서울특별시 노원구 상계동 393-12번지 서머힐어린이집 ,127.0669067,37.65958834
2017,영업,어린이집,어린왕자어린이집,서울특별시 동대문구 이문동 256-264번지 ,127.0629106,37.60244899
2017,영업,유치원,일신유치원,서울특별시 중구 남창동 202번지 4층 ,126.9788107,37.55668645
2017,영업,유치원,혜화유치원,서울특별시 종로구 혜화동 161-4번지 혜화유치원 ,127.0030934,37.58685081
2017,영업,어린이집,일광어린이집,서울특별시 금천구 시흥동 858-26번지 ,126.9030907,37.45930647
2017,영업,어린이집,현대양재어린이집,서울특별시 서초구 염곡동 106-1번지 2층 ,127.05213700000002,37.46232863
2017,영업,어린이집,구립대방보듬이나눔어린이집,서울특별시 동작구 대방동 379-9 구립대방보듬이나눔이,126.9243548,37.50294124
2017,영업,어린이집,행화어린이집,서울특별시 마포구 아현동 767번지 마포래미안푸르지오2단지 어린이집 ,126.951425,37.55390057
2017,영업,어린이집,구립태성어린이집,서울특별시 동작구 신대방동 385-2,126.91718229999998,37.49583035
2017,영업,어린이집,현대 다솜 어린이집,서울특별시 종로구 원서동 181번지 1층 ,126.9885923,37.57838151
2017,영업,어린이집,서울청사 푸르미 어린이집,서울특별시 종로구 세종로 77-6번지 ,126.9753957,37.57483547
2017,영업,어린이집,자양도담어린이집,서울특별시 광진구 자양동 231-51번지 2층 자양도담어린이집 ,127.0798768,37.53620134
2017,영업,어린이집,아트자이어린이집,서울특별시 영등포구 도림동 821번지 1층 ,126.900249,37.51018454
2017,영업,유치원,송이유치원,서울특별시 관악구 신림동 412-234번지 ,126.9301244,37.47527095
2017,영업,유치원,덕성여자대학교부속유치원,서울특별시 도봉구 쌍문동 419번지 ,127.0165457,37.65128821
2017,영업,어린이집,구립한가람어린이집,서울특별시 광진구 자양동 593-2번지 1층 ,127.0766482,37.53006378
2017,영업,어린이집,태영어린이집,서울특별시 도봉구 창동 819번지 태영아파트 단지(관리사무소방향) ,127.033363,37.6429168
2017,영업,어린이집,대흥어린이집,서울특별시 마포구 대흥동 804-3번지 ,126.9406982,37.54866546
2017,영업,어린이집,느티나무어린이집,서울특별시 성북구 돈암동 595번지 흥천사 내 ,127.0091313,37.59822164
2017,영업,어린이집,이태원어린이집,서울특별시 용산구 이태원동 392-4번지 ,126.9888915,37.53631272
2017,영업,어린이집,은솔어린이집,서울특별시 구로구 신도림동 693번지 ,126.8883042,37.51121803
2017,영업,유치원,와우랩유치원,서울특별시 은평구 응암로28길 34 (응암동),126.921568,37.59403259
2017,영업,어린이집,구립 위례 새솔 어린이집,서울특별시 송파구 장지동 900-2번지 지상1층 ,127.1409421,37.47755529
2017,영업,어린이집,구립명륜어린이집,서울특별시 종로구 명륜1가 1-43번지 1층 ,126.99513190000002,37.59129952
2017,영업,유치원,서울노일유치원,서울특별시 노원구 상계동 1044번지 노일유치원 ,127.0538428,37.67296835
2017,영업,어린이집,구립대조어린이집,서울특별시 은평구 역말로 121 1층 (대조동),126.9214218,37.61007787
2017,영업,어린이집,서초구립 반포복지관어린이집,서울특별시 서초구 반포동 724-12번지 ,127.02124,37.50787302
2017,영업,유치원,햇살유치원,서울특별시 도봉구 쌍문동 358번지 ,127.0252915,37.64926769
2017,영업,어린이집,엘프랜드 어린이집,서울특별시 송파구 가락동 196-13번지 지상1층 ,127.1313575,37.49282038
2017,영업,어린이집,풀무원어린이집,서울특별시 강남구 수서동 724번지 ,127.1031164,37.48731827
2017,영업,유치원,예원유치원,서울특별시 서초구 우면동 731번지 ,127.0249524,37.46179674
2017,영업,어린이집,성복어린이집,서울특별시 성북구 종암동 28-1번지 ,127.0365915,37.59259037
2017,영업,어린이집,구립상도3동어린이집,서울특별시 동작구 성대로6가길 5 (상도동),126.9329368,37.498644
2017,영업,어린이집,보라어린이집,서울특별시 관악구 신림동 639-20번지 ,126.9210095,37.46962801
2017,영업,어린이집,구립 신대방1동 어린이집,서울특별시 동작구 신대방1길 44 (신대방동),126.9091439,37.48653369
2017,영업,어린이집,하늘꿈어린이집,서울특별시 도봉구 창동 262-13번지 ,127.0441487,37.65413532
2017,영업,어린이집,보문제일어린이집,서울특별시 성북구 보문동6가 175-1번지 ,127.0202549,37.57985084
2017,영업,유치원,서울마곡유치원,서울특별시 강서구 마곡동 734-4번지 ,126.8189094,37.5707024
2017,영업,어린이집,SK행복어린이집,서울특별시 종로구 서린동 99번지 ,126.9803418,37.56960547
2017,영업,어린이집,구립신서어린이집,서울특별시 양천구 신정동 1152-30번지 구립신서어린이집 ,126.8536413,37.51602013
2017,영업,어린이집,구립목3동보듬이어린이집,서울특별시 양천구 목동 655-16번지 구립목3동보듬이어린이집 지상2층 ,126.8636343,37.54529535
2017,영업,어린이집,구립 해여울어린이집,서울특별시 강동구 상일동 483번지 ,127.1741647,37.55529012
2017,영업,어린이집,구립 기리울어린이집,서울특별시 강동구 길동 244-3번지 ,127.1409181,37.53456638
2017,영업,어린이집,구립 천마어린이집,서울특별시 송파구 마천동 211-86번지 지상1층 ,127.1563939,37.49282253
2017,영업,어린이집,구립아름꿈노아어린이집,서울특별시 관악구 신림동 538-16번지 ,126.9123808,37.48189332
2017,영업,어린이집,아트성광어린이집,서울특별시 노원구 상계동 389-621번지 ,127.06970459999998,37.66020022
2017,영업,어린이집,구립 사당4동 어린이집,서울특별시 동작구 사당로22나길 70 (사당동),126.9731603,37.48069491
2017,영업,유치원,목동유치원,서울특별시 양천구 신정동 1000-3번지 목동유치원 지상2층 ,126.860524,37.52438327
2017,영업,어린이집,신일교회어린이집,서울특별시 중구 신당동 369-52번지 신일교회1층 ,127.01150459999998,37.55503636
2017,영업,유치원,새순유치원,서울특별시 서초구 방배동 831-12번지 ,126.9885396,37.48896289
2017,영업,고등학교,덕원예술고등학교,서울특별시 강서구 내발산동 산59-2,126.8290243,37.5486229
2017,영업,고등학교,명덕외국어고등학교,서울특별시 강서구 내발산동 169-1,126.83481709999998,37.5532299
2017,영업,고등학교,한성과학고등학교,서울특별시 서대문구 현저동 산5-47,126.952373,37.575435399999996
2017,영업,중학교,신현중학교,서울특별시 중랑구 상봉동 483,127.09153119999999,37.6044135
2017,영업,중학교,중랑중학교,서울특별시 중랑구 중화동 276-1,127.0807918,37.605352
2017,영업,중학교,장안중학교,서울특별시 중랑구 중화동 288-26,127.0809952,37.600774799999996
2017,영업,중학교,송곡여자중학교,서울특별시 중랑구 망우동 252-1,127.10514669999999,37.6066879
2017,영업,중학교,영란여자중학교,서울특별시 중랑구 망우동 220,127.10434120000001,37.604043299999994
2017,영업,중학교,혜원여자중학교,서울특별시 중랑구 망우동 519,127.0970432,37.5932809
2017,영업,중학교,구산중학교,서울특별시 은평구 구산동 182-45,126.9094905,37.609871500000004
2017,영업,중학교,증산중학교,서울특별시 은평구 증산동 산24-4,126.90493909999998,37.5838149
2017,영업,중학교,신도중학교,서울특별시 은평구 진관동 208,126.930879,37.632983700000004
2017,영업,중학교,진관중학교,서울특별시 은평구 진관동 16,126.92572890000001,37.6442573
2017,영업,중학교,은평중학교,서울특별시 은평구 구산동 182-44,126.908348,37.6106187
2017,영업,중학교,불광중학교,서울특별시 은평구 불광동 173,126.93212959999998,37.6232033
2017,영업,중학교,연신중학교,서울특별시 은평구 불광동 400-4,126.92428600000001,37.6235409
2017,영업,중학교,연천중학교,서울특별시 은평구 불광동 441-1,126.92581799999999,37.6275458
2017,영업,중학교,상신중학교,서울특별시 은평구 신사동 141,126.90642609999999,37.5897842
2017,영업,중학교,덕산중학교,서울특별시 은평구 신사동 265-4,126.90467549999998,37.6022561
2017,영업,중학교,연서중학교,서울특별시 은평구 증산동 193-21,126.90927820000002,37.5870445
2017,영업,중학교,대성중학교,서울특별시 은평구 갈현동 267-17,126.9093902,37.6231699693
2017,영업,중학교,숭실중학교,서울특별시 은평구 신사동 300-88,126.9024048,37.5928732
2017,영업,중학교,선일여자중학교,서울특별시 은평구 갈현동 240-1,126.9127997,37.6197088
2017,영업,중학교,예일여자중학교,서울특별시 은평구 구산동 8-3,126.91600790000001,37.6096421
2017,영업,중학교,선정중학교,서울특별시 은평구 갈현동 227-5,126.90903130000001,37.6187044
2017,영업,중학교,영락중학교,서울특별시 은평구 응암동 226-13,126.9251334,37.59695870000001
2017,영업,중학교,충암중학교,서울특별시 은평구 응암동 272-113,126.9218074,37.5846417
2017,영업,중학교,연희중학교,서울특별시 서대문구 남가좌동 368-1,126.91879229999999,37.5795869
2017,영업,중학교,신연중학교,서울특별시 서대문구 연희동 1-107,126.9398378,37.582716999999995
2017,영업,중학교,연북중학교,서울특별시 서대문구 연희동 141,126.9384789,37.577581
2017,영업,중학교,서연중학교,서울특별시 서대문구 연희동 267-1,126.9273348,37.5682255
2017,영업,중학교,홍은중학교,서울특별시 서대문구 홍은동 183,126.9357541,37.59189050000001
2017,영업,중학교,상봉중학교,서울특별시 중랑구 상봉동 282,127.09012340000001,37.6015286
2017,영업,중학교,인왕중학교,서울특별시 서대문구 홍제동 9-27,126.9517777,37.5927352
2017,영업,중학교,태릉중학교,서울특별시 중랑구 묵동 121-278,127.08319979999999,37.6117581
2017,영업,중학교,용마중학교,서울특별시 중랑구 면목동 378-2,127.08626909999998,37.5745089
2017,영업,초등학교,서울강솔초등학교,서울특별시 강동구 강일동 694,127.1802689,37.561868200000006
2017,영업,초등학교,서울우솔초등학교,서울특별시 서초구 우면동 774,127.01893829999999,37.456529100000004
2017,영업,초등학교,서울금나래초등학교,서울특별시 금천구 독산동 1153,126.89624170000002,37.4582294
2017,영업,초등학교,서울자곡초등학교,서울특별시 강남구 자곡동 642,127.09959950000001,37.4721914
2017,영업,초등학교,서울율현초등학교,서울특별시 강남구 자곡동 56-89,127.10828479999999,37.4745155
2017,영업,초등학교,서울새솔초등학교,서울특별시 중랑구 신내동 241,127.1113289,37.6179891
2017,영업,초등학교,서울송례초등학교,서울특별시 송파구 장지동 898,127.1384397,37.4778899
2017,영업,초등학교,서울위례별초등학교,서울특별시 송파구 장지동 886,127.1450416,37.47908579999999
2017,영업,초등학교,서울언남초등학교,서울특별시 서초구 내곡동 121,127.06188529999999,37.45389779999999
2017,영업,초등학교,서울숭신초등학교,서울특별시 성동구 하왕십리동 1068,127.0278905,37.5678193
2017,영업,중학교,숭인중학교,서울특별시 동대문구 답십리동 463-1,127.04408889999999,37.573919599999996
2017,영업,중학교,장평중학교,서울특별시 동대문구 장안동 352,127.070477,37.566860999999996
2017,영업,중학교,전일중학교,서울특별시 동대문구 전농동 60-1,127.05837779999999,37.5825016
2017,영업,중학교,전농중학교,서울특별시 동대문구 전농동 58-1,127.05927859999998,37.5820435
2017,영업,중학교,동대문중학교,서울특별시 동대문구 전농동 322-17,127.051996,37.5745218
2017,영업,중학교,성일중학교,서울특별시 동대문구 제기동 271-41,127.03382909999999,37.58185170000001
2017,영업,중학교,청량중학교,서울특별시 동대문구 청량리동 14,127.05062420000002,37.5882175
2017,영업,중학교,전동중학교,서울특별시 동대문구 휘경동 49-295,127.070929992,37.5861924
2017,영업,중학교,휘경중학교,서울특별시 동대문구 휘경동 286-66,127.0617463,37.5870914
2017,영업,중학교,경희중학교,서울특별시 동대문구 이문동 1-3,127.0548902,37.5939495
2017,영업,중학교,동국대학교사범대학부속중학교,서울특별시 동대문구 장안동 328,127.07517050000001,37.5780484
2017,영업,중학교,정화여자중학교,서울특별시 동대문구 제기동 293,127.0410078,37.5857064
2017,영업,중학교,휘경여자중학교,서울특별시 동대문구 휘경동 43-7,127.06740459999999,37.5839456
2017,영업,중학교,경희여자중학교,서울특별시 동대문구 회기동 1-5,127.0548902,37.5939495
2017,영업,중학교,대광중학교,서울특별시 동대문구 신설동 53-3,127.0243533,37.5784086
2017,영업,중학교,동원중학교,서울특별시 중랑구 망우동 85-3,127.1095004,37.6038073
2017,영업,중학교,봉화중학교,서울특별시 중랑구 망우동 122-1,127.10431609999999,37.5958263
2017,영업,중학교,중화중학교,서울특별시 중랑구 면목동 83,127.0945591,37.58450360000001
2017,영업,중학교,면목중학교,서울특별시 중랑구 면목동 490,127.0963055,37.5832156
2017,영업,중학교,원묵중학교,서울특별시 중랑구 묵동 12,127.0843709,37.6177721
2017,영업,초등학교,서울가재울초등학교,서울특별시 서대문구 남가좌동 385-1,126.91838909999998,37.5737662
2017,영업,중학교,인창중학교,서울특별시 서대문구 충정로2가 70,126.9640244,37.5648835
2017,영업,중학교,동명여자중학교,서울특별시 서대문구 천연동 31-1,126.9622523,37.5686167
2017,영업,중학교,가산중학교,서울특별시 금천구 독산동 300-21,126.8942659,37.467818
2017,영업,중학교,난곡중학교,서울특별시 금천구 독산동 906-41,126.9107939,37.4780455
2017,영업,중학교,안천중학교,서울특별시 금천구 독산동 1089,126.8875004,37.4595225
2017,영업,중학교,문일중학교,서울특별시 금천구 시흥동 559-1,126.89851270000001,37.450331299999995
2017,영업,중학교,동일중학교,서울특별시 금천구 시흥동 산100-4,126.91688740000001,37.4516719
2017,영업,중학교,영원중학교,서울특별시 영등포구 영등포동 576-6,126.9136456,37.5149745
2017,영업,중학교,당산중학교,서울특별시 영등포구 당산동 121,126.90761609999998,37.5320313
2017,영업,중학교,당산서중학교,서울특별시 영등포구 당산동5가 5,126.8988269,37.5324854
2017,영업,중학교,문래중학교,서울특별시 영등포구 문래동6가 44,126.88414209999999,37.520416499999996
2017,영업,중학교,선유중학교,서울특별시 영등포구 양평동3가 82,126.89432930000001,37.5332851
2017,영업,중학교,영남중학교,서울특별시 영등포구 대림동 735,126.8958384,37.4978734
2017,영업,중학교,대림중학교,서울특별시 영등포구 대림동 959,126.90746599999999,37.4923185
2017,영업,중학교,양화중학교,서울특별시 영등포구 문래동3가 48,126.8959936,37.5196599
2017,영업,중학교,대영중학교,서울특별시 영등포구 신길동 342-49,126.9052085,37.503438700000004
2017,영업,중학교,윤중중학교,서울특별시 영등포구 여의도동 38-2,126.92412490000001,37.518978499999996
2017,영업,중학교,여의도중학교,서울특별시 영등포구 여의도동 40-1,126.93575359999998,37.5239806
2017,영업,중학교,북서울중학교,서울특별시 도봉구 도봉동 585,127.0428337,37.681540999999996
2017,영업,중학교,도봉중학교,서울특별시 도봉구 도봉동 622-40,127.04586979999999,37.6708831
2017,영업,중학교,신방학중학교,서울특별시 도봉구 방학동 307-1,127.0289012,37.664142
2017,영업,중학교,방학중학교,서울특별시 도봉구 방학동 313,127.03086029999999,37.6654696
2017,영업,중학교,창동중학교,서울특별시 도봉구 방학동 722-27,127.0489978,37.6632307
2017,영업,중학교,백운중학교,서울특별시 도봉구 쌍문동 68-2,127.0359041,37.656406
2017,영업,중학교,신도봉중학교,서울특별시 도봉구 쌍문동 94-1,127.03320169999999,37.649595399999995
2017,영업,중학교,효문중학교,서울특별시 도봉구 쌍문동 468,127.01837739999999,37.652698
2017,영업,중학교,노곡중학교,서울특별시 도봉구 창동 32,127.053743,37.6488021
2017,영업,중학교,창일중학교,서울특별시 도봉구 창동 369,127.0469125,37.6489889
2017,영업,중학교,창북중학교,서울특별시 도봉구 창동 683-15,127.03883540000001,37.6491143
2017,영업,중학교,정의여자중학교,서울특별시 도봉구 쌍문동 150-1,127.03242820000001,37.6533545
2017,영업,중학교,선덕중학교,서울특별시 도봉구 쌍문동 263,127.02687649999999,37.65634710000001
2017,영업,중학교,세일중학교,서울특별시 금천구 독산동 147-2,126.89536869999999,37.474594599999996
2017,영업,중학교,한성중학교,서울특별시 서대문구 북아현동 170-1,126.9544568,37.5590958
2017,영업,중학교,문성중학교,서울특별시 금천구 독산동 61,126.9084952,37.4754669
2017,영업,중학교,우신중학교,서울특별시 구로구 궁동 230,126.82635149999999,37.494901299999995
2017,영업,중학교,중앙여자중학교,서울특별시 서대문구 북아현동 190-1,126.95320929999998,37.5631498
2017,영업,중학교,정원여자중학교,서울특별시 서대문구 홍은동 산11-141,126.93334140000002,37.5853804
2017,영업,중학교,이화여자대학교사범대학부속이화금란중학교,서울특별시 서대문구 대신동 47,126.9443854,37.5631244
2017,영업,중학교,명지중학교,서울특별시 서대문구 홍은동 323-9,126.9270922,37.58491179999999
2017,영업,중학교,서울여자중학교,서울특별시 마포구 염리동 128-2,126.9490682,37.547780700000004
2017,영업,중학교,성사중학교,서울특별시 마포구 성산동 124,126.91268329999998,37.5680895
2017,영업,중학교,창천중학교,서울특별시 마포구 노고산동 33-1,126.9392942,37.5549896
2017,영업,중학교,성서중학교,서울특별시 마포구 성산동 588-9,126.90795390000001,37.562788
2017,영업,중학교,신수중학교,서울특별시 마포구 신수동 371-1,126.9341324,37.545924400000004
2017,영업,중학교,아현중학교,서울특별시 마포구 아현동 267-1,126.9565001,37.5564008
2017,영업,중학교,중암중학교,서울특별시 마포구 중동 63,126.9035861,37.5724324
2017,영업,중학교,성산중학교,서울특별시 마포구 합정동 365-1,126.91656409999999,37.5473153
2017,영업,중학교,상암중학교,서울특별시 마포구 상암동 1657,126.8875517,37.5790567
2017,영업,중학교,숭문중학교,서울특별시 마포구 대흥동 28-16,126.9457706,37.550889500000004
2017,영업,중학교,광성중학교,서울특별시 마포구 신수동 91-20,126.9359678,37.548696899999996
2017,영업,중학교,경성중학교,서울특별시 마포구 연남동 369-1,126.9191674,37.5635098
2017,영업,중학교,홍익대학교사범대학부속여자중학교,서울특별시 마포구 성산동 산11-31,126.91320929999999,37.559645700000004
2017,영업,중학교,동도중학교,서울특별시 마포구 염리동 150,126.94690530000001,37.5467021
2017,영업,중학교,구일중학교,서울특별시 구로구 구로동 685-161,126.8737683,37.4953003
2017,영업,중학교,신도림중학교,서울특별시 구로구 신도림동 311-1,126.88480849999999,37.510740399999996
2017,영업,중학교,경인중학교,서울특별시 구로구 개봉동 143-4,126.85367409999999,37.4984667
2017,영업,중학교,오남중학교,서울특별시 구로구 오류동 산39-40,126.83724690000001,37.487060049899995
2017,영업,중학교,개봉중학교,서울특별시 구로구 개봉동 24-2,126.8423999828,37.5035302
2017,영업,중학교,개웅중학교,서울특별시 구로구 개봉동 273-15,126.8510722,37.4875252
2017,영업,중학교,고척중학교,서울특별시 구로구 고척동 76-2,126.8613436,37.4997409
2017,영업,중학교,오류중학교,서울특별시 구로구 고척동 243,126.84620919999999,37.5078637
2017,영업,중학교,구로중학교,서울특별시 구로구 구로동 90,126.8911022,37.4948598
2017,영업,중학교,영림중학교,서울특별시 구로구 구로동 105-2,126.8906916,37.4972201
2017,영업,중학교,영서중학교,서울특별시 구로구 구로동 145-20,126.89561540000001,37.489115500000004
2017,영업,중학교,시흥중학교,서울특별시 금천구 시흥동 산24-15,126.90508170000001,37.446296600000004
2017,영업,초등학교,서울상현초등학교,서울특별시 동작구 상도동 531-1,126.95268840000001,37.4948753
2017,영업,초등학교,서울공항초등학교,서울특별시 강서구 마곡동 397-2,126.8216478,37.5630217
2017,영업,초등학교,서울공진초등학교,서울특별시 강서구 마곡동 730-676,126.82261100000001,37.55780479999999
2017,영업,초등학교,서울사당초등학교,서울특별시 관악구 남현동 1080-1,126.97335179999999,37.4738378
2017,영업,초등학교,서울인헌초등학교,서울특별시 관악구 봉천동 212-3,126.9598656,37.4767533
2017,영업,초등학교,서울당곡초등학교,서울특별시 관악구 봉천동 692-8,126.9303685,37.49016820000001
2017,영업,초등학교,서울신봉초등학교,서울특별시 관악구 봉천동 458,126.9493908,37.4855755
2017,영업,초등학교,서울구암초등학교,서울특별시 관악구 봉천동 482-1,126.94739799999999,37.48966160000001
2017,영업,초등학교,서울은천초등학교,서울특별시 관악구 봉천동 622-1,126.94267830000001,37.4865852
2017,영업,초등학교,서울관악초등학교,서울특별시 관악구 봉천동 920,126.94255600000001,37.481024100000006
2017,영업,초등학교,서울난우초등학교,서울특별시 관악구 신림동 589-1,126.9176507,37.477117
2017,영업,초등학교,서울난향초등학교,서울특별시 관악구 신림동 672,126.9183355,37.4628203
2017,영업,초등학교,서울신성초등학교,서울특별시 관악구 신림동 118-1,126.93675220000002,37.4720039
2017,영업,초등학교,서울행당초등학교,서울특별시 성동구 행당동 320-60,127.0348717,37.55701989999999
2017,영업,초등학교,서울동호초등학교,서울특별시 성동구 옥수동 556-1,127.0100328,37.5464614
2017,영업,초등학교,서울경동초등학교,서울특별시 성동구 성수동1가 19-1,127.0500737,37.5438239
2017,영업,초등학교,서울경수초등학교,서울특별시 성동구 성수동2가 268,127.0580689,37.540436
2017,영업,초등학교,서울금북초등학교,서울특별시 성동구 금호동1가 48-2,127.0235067,37.557494899999995
2017,영업,초등학교,서울금호초등학교,서울특별시 성동구 금호동2가 511,127.02075500000001,37.5518984
2017,영업,초등학교,서울옥수초등학교,서울특별시 성동구 금호동4가 440-12,127.0218712,37.5455299
2017,영업,초등학교,서울금옥초등학교,서울특별시 성동구 금호동4가 999-4,127.01760120000002,37.54632150000001
2017,영업,초등학교,서울동명초등학교,서울특별시 성동구 마장동 556,127.03510779999999,37.568123799999995
2017,영업,초등학교,서울마장초등학교,서울특별시 성동구 마장동 766-49,127.0421258,37.5683089
2017,영업,초등학교,서울사근초등학교,서울특별시 성동구 사근동 291-5,127.047545,37.562684999999995
2017,영업,초등학교,서울경일초등학교,서울특별시 성동구 성수동1가 656-32,127.0466048,37.5409421
2017,영업,초등학교,서울성수초등학교,서울특별시 성동구 성수동2가 277-32,127.0631685,37.5443361
2017,영업,초등학교,서울송원초등학교,서울특별시 성동구 송정동 72-8,127.069528,37.5541575
2017,영업,초등학교,서울옥정초등학교,서울특별시 성동구 옥수동 233-16,127.01578719999999,37.542308899999995
2017,영업,초등학교,서울용답초등학교,서울특별시 성동구 용답동 29,127.0537611,37.5607301
2017,영업,초등학교,서울응봉초등학교,서울특별시 성동구 응봉동 193,127.03382739999999,37.5502519
2017,영업,초등학교,서울무학초등학교,서울특별시 성동구 하왕십리동 950-1,127.0296135,37.563274299999996
2017,영업,초등학교,서울행현초등학교,서울특별시 성동구 행당동 317-18,127.02936709999999,37.5577098
2017,영업,초등학교,서울원당초등학교,서울특별시 관악구 봉천동 1669-1,126.9562498,37.481278700000004
2017,영업,초등학교,한양초등학교,서울특별시 성동구 사근동 110,127.05026399999998,37.5576199
2017,영업,초등학교,서울봉천초등학교,서울특별시 관악구 봉천동 28-6,126.9581888,37.4832688
2017,영업,초등학교,서울봉현초등학교,서울특별시 관악구 봉천동 1704,126.9555881,37.4912399617
2017,영업,초등학교,서울포이초등학교,서울특별시 강남구 개포동 1273,127.0514162,37.4752929
2017,영업,초등학교,서울신상도초등학교,서울특별시 동작구 상도동 204-333,126.9446175,37.5003463
2017,영업,초등학교,서울강남초등학교,서울특별시 동작구 상도1동 501-1,126.95335800000001,37.506192799999994
2017,영업,초등학교,서울노량진초등학교,서울특별시 동작구 노량진동 237,126.94082220000001,37.511751200000006
2017,영업,초등학교,서울본동초등학교,서울특별시 동작구 본동 133,126.9538533,37.5099262
2017,영업,초등학교,서울은로초등학교,서울특별시 동작구 흑석동 245-1,126.96000079999999,37.5031492
2017,영업,초등학교,서울동작초등학교,서울특별시 동작구 사당동 산9-1,126.97651090000002,37.4941016
2017,영업,초등학교,서울삼일초등학교,서울특별시 동작구 사당동 산18-38,126.97510159999999,37.488235499999995
2017,영업,초등학교,서울행림초등학교,서울특별시 동작구 사당동 산32-114,126.9649638,37.4828061
2017,영업,초등학교,서울신남성초등학교,서울특별시 동작구 사당동 199-1,126.96487090000001,37.4881508
2017,영업,초등학교,서울영화초등학교,서울특별시 동작구 대방동 13-2,126.9329751,37.508907
2017,영업,초등학교,서울신길초등학교,서울특별시 동작구 대방동 351-6,126.9262919,37.510078
2017,영업,초등학교,서울대림초등학교,서울특별시 동작구 대방동 391-62,126.92488529999999,37.5006148
2017,영업,초등학교,서울영본초등학교,서울특별시 동작구 본동 441-11,126.9486722,37.5112972
2017,영업,초등학교,서울남성초등학교,서울특별시 동작구 사당동 324-22,126.9754872,37.4845963
2017,영업,초등학교,서울남사초등학교,서울특별시 동작구 사당동 1011-1,126.97823319999999,37.481944299999995
2017,영업,초등학교,서울상도초등학교,서울특별시 동작구 상도동 238-2,126.9372288,37.5003462
2017,영업,초등학교,서울보라매초등학교,서울특별시 동작구 신대방동 488-1,126.91614640000002,37.4958533
2017,영업,초등학교,서울문창초등학교,서울특별시 동작구 신대방동 640,126.9148425,37.4889831
2017,영업,초등학교,서울흑석초등학교,서울특별시 동작구 흑석동 7-1,126.9651701,37.5082938
2017,영업,초등학교,중앙대학교사범대학부속초등학교,서울특별시 동작구 흑석동 233-2,126.9596784,37.5054521
2017,영업,초등학교,서울원신초등학교,서울특별시 관악구 신림동 336,126.9272428,37.467197799999994
2017,영업,초등학교,서울남부초등학교,서울특별시 관악구 신림동 467,126.92218259999999,37.4851211
2017,영업,초등학교,서울신우초등학교,서울특별시 관악구 신림동 315,126.93253659999999,37.463265299999996
2017,영업,초등학교,서울신림초등학교,서울특별시 관악구 신림동 418-20,126.92687590000001,37.4771195
2017,영업,초등학교,서울조원초등학교,서울특별시 관악구 신림동 548-2,126.909581,37.4841778
2017,영업,초등학교,서울난곡초등학교,서울특별시 관악구 신림동 711-136,126.9163436,37.4691296
2017,영업,초등학교,서울삼성초등학교,서울특별시 관악구 신림동 233-1,126.9404946,37.468520700000006
2017,영업,초등학교,서울미성초등학교,서울특별시 관악구 신림동 768-23,126.91239440000001,37.4783386
2017,영업,초등학교,서울청룡초등학교,서울특별시 관악구 봉천동 390-3,126.9512057,37.4767248
2017,영업,초등학교,서울양진초등학교,서울특별시 광진구 광장동 414-1,127.09832490000001,37.5445756
2017,영업,초등학교,서울광남초등학교,서울특별시 광진구 광장동 554,127.1006638,37.540789399999994
2017,영업,초등학교,서울광장초등학교,서울특별시 광진구 광장동 389-1,127.1018014,37.5485479
2017,영업,초등학교,서울성북초등학교,서울특별시 성북구 성북동 66-1,126.9987771,37.594052399999995
2017,영업,초등학교,서울장위초등학교,서울특별시 성북구 장위동 68-8,127.0500057,37.6114417
2017,영업,초등학교,서울장곡초등학교,서울특별시 성북구 장위동 235,127.0481563,37.6168304
2017,영업,초등학교,서울정수초등학교,서울특별시 성북구 정릉동 431-62,127.0077189,37.6037756
2017,영업,초등학교,서울정릉초등학교,서울특별시 성북구 정릉동 798-1,127.0052558,37.6197953
2017,영업,초등학교,서울청덕초등학교,서울특별시 성북구 정릉동 847,127.0003352,37.6120317
2017,영업,초등학교,서울일신초등학교,서울특별시 성북구 종암동 1-79,127.0401072,37.5988136
2017,영업,초등학교,서울숭례초등학교,서울특별시 성북구 종암동 22-1,127.03529679999998,37.59452279999999
2017,영업,초등학교,서울숭인초등학교,서울특별시 성북구 하월곡동 222-4,127.0382348,37.6091612
2017,영업,초등학교,성신초등학교,서울특별시 성북구 돈암동 산11-269,127.02325320000001,37.5938951
2017,영업,초등학교,우촌초등학교,서울특별시 성북구 돈암동 609,127.0121206,37.5955942
2017,영업,초등학교,대광초등학교,서울특별시 성북구 보문동7가 111,127.02344790000001,37.57915120000001
2017,영업,초등학교,광운초등학교,서울특별시 성북구 장위동 130,127.0550899,37.61905820000001
2017,영업,초등학교,매원초등학교,서울특별시 성북구 돈암동 45-88,127.01998400000001,37.5974096
2017,영업,초등학교,서울번동초등학교,서울특별시 강북구 번동 236,127.04003940000001,37.6290001
2017,영업,초등학교,서울오현초등학교,서울특별시 강북구 번동 248,127.0465747,37.623419
2017,영업,초등학교,서울삼양초등학교,서울특별시 강북구 미아동 791-1932,127.01614860000001,37.6232938
2017,영업,초등학교,서울삼각산초등학교,서울특별시 강북구 미아동 1353-10,127.01545390000001,37.616082399999996
2017,영업,초등학교,서울송천초등학교,서울특별시 강북구 미아동 438,127.0237355,37.6149061
2017,영업,초등학교,서울송중초등학교,서울특별시 강북구 미아동 94-1,127.0314655,37.6170018
2017,영업,초등학교,서울화계초등학교,서울특별시 강북구 미아동 127-2,127.02971480000001,37.6238858
2017,영업,초등학교,서울미양초등학교,서울특별시 강북구 미아동 837-687,127.014132,37.62153170000001
2017,영업,초등학교,서울수송초등학교,서울특별시 강북구 번동 456,127.03320520000001,37.637324
2017,영업,초등학교,서울수유초등학교,서울특별시 강북구 수유동 55-5,127.0202922,37.6312506
2017,영업,초등학교,서울인수초등학교,서울특별시 강북구 수유동 551-19,127.00913700000001,37.643051299999996
2017,영업,초등학교,서울우이초등학교,서울특별시 강북구 수유동 409-6,127.0150054,37.6387116
2017,영업,초등학교,서울유현초등학교,서울특별시 강북구 수유동 466-52,127.0114196,37.6323474
2017,영업,초등학교,영훈초등학교,서울특별시 강북구 미아동 471-2,127.02809380000001,37.61468170000001
2017,영업,초등학교,서울세명초등학교,서울특별시 강남구 세곡동 529,127.09105729999999,37.4688574
2017,영업,초등학교,서울석관초등학교,서울특별시 성북구 석관동 205,127.05835479999999,37.6110234
2017,영업,초등학교,서울석계초등학교,서울특별시 성북구 석관동 27-3,127.06973290000002,37.6088152
2017,영업,초등학교,서울개운초등학교,서울특별시 성북구 돈암동 2-8,127.02759520000001,37.6018373
2017,영업,초등학교,서울미아초등학교,서울특별시 성북구 길음동 1168,127.0216457,37.610589000000004
2017,영업,초등학교,서울동의초등학교,서울특별시 광진구 구의동 4-5,127.09904660000001,37.55342279999999
2017,영업,초등학교,서울광진초등학교,서울특별시 광진구 구의동 60-44,127.09133490000002,37.5476122
2017,영업,초등학교,서울구남초등학교,서울특별시 광진구 구의동 587-95,127.0922906,37.537095
2017,영업,초등학교,서울장안초등학교,서울특별시 광진구 군자동 365,127.07240290000001,37.5498778
2017,영업,초등학교,서울자양초등학교,서울특별시 광진구 자양동 222-6,127.0797404,37.536988799999996
2017,영업,초등학교,서울동자초등학교,서울특별시 광진구 자양동 518-1,127.0721804,37.535058299999996
2017,영업,초등학교,서울신양초등학교,서울특별시 광진구 자양동 504,127.06999409999999,37.534624
2017,영업,초등학교,서울신자초등학교,서울특별시 광진구 자양동 591,127.0755879,37.53027879999999
2017,영업,초등학교,서울성자초등학교,서울특별시 광진구 자양동 662,127.08340919999999,37.5314938
2017,영업,초등학교,서울양남초등학교,서울특별시 광진구 자양동 692,127.0892331,37.531121899999995
2017,영업,초등학교,서울용마초등학교,서울특별시 광진구 중곡동 135-1,127.08352909999999,37.5578281
2017,영업,초등학교,서울중광초등학교,서울특별시 광진구 중곡동 220-22,127.0826953,37.565242100000006
2017,영업,초등학교,서울중마초등학교,서울특별시 광진구 중곡동 191-69,127.079024,37.5657924
2017,영업,초등학교,서울용곡초등학교,서울특별시 광진구 중곡동 176-1,127.088452,37.5671083
2017,영업,중학교,상원중학교,서울특별시 노원구 상계동 632,127.0595044,37.67176720000001
2017,영업,초등학교,서울화양초등학교,서울특별시 광진구 화양동 12-2,127.07158270000001,37.54422720000001
2017,영업,초등학교,세종초등학교,서울특별시 광진구 군자동 98,127.0728767,37.55302020000001
2017,영업,초등학교,경복초등학교,서울특별시 광진구 능동 25,127.0867929,37.5498296
2017,영업,초등학교,성동초등학교,서울특별시 광진구 자양동 694-1,127.0892809,37.53328060000001
2017,영업,초등학교,서울돈암초등학교,서울특별시 성북구 동소문동6가 27-1,127.0131031,37.593714399999996
2017,영업,초등학교,서울정덕초등학교,서울특별시 성북구 동소문동7가 118-1,127.013421,37.5982394
2017,영업,초등학교,서울삼선초등학교,서울특별시 성북구 삼선동3가 30-4,127.0126717,37.5871429
2017,영업,초등학교,서울안암초등학교,서울특별시 성북구 안암동2가 93,127.02210079999999,37.5871595
2017,영업,초등학교,서울동신초등학교,서울특별시 성북구 보문동3가 228,127.01705929999999,37.5832861
2017,영업,초등학교,서울숭덕초등학교,서울특별시 성북구 정릉동 173-1,127.01329059999999,37.6038184
2017,영업,초등학교,서울길원초등학교,서울특별시 성북구 길음동 1280-4,127.0167979,37.6090653
2017,영업,초등학교,서울숭곡초등학교,서울특별시 성북구 하월곡동 84-86,127.03281640000002,37.60843120000001
2017,영업,초등학교,서울장월초등학교,서울특별시 성북구 장위동 316,127.04716280000001,37.6219412
2017,영업,초등학교,서울월곡초등학교,서울특별시 성북구 장위동 246-194,127.0460816,37.610023299999995
2017,영업,초등학교,서울길음초등학교,서울특별시 성북구 길음동 635-7,127.01665849999999,37.6136315
2017,영업,초등학교,서울구의초등학교,서울특별시 광진구 화양동 303-9,127.0803126,37.54300900000001
2017,영업,초등학교,서울청담초등학교,서울특별시 강남구 청담동 142,127.0451534,37.528281799999995
2017,영업,중학교,상경중학교,서울특별시 노원구 상계동 653,127.0537063,37.6671498
2017,영업,중학교,불암중학교,서울특별시 노원구 하계동 288-3,127.07345670000001,37.6457354
2017,영업,중학교,강남중학교,서울특별시 동작구 대방동 390-6,126.923345,37.5027635
2017,영업,중학교,상현중학교,서울특별시 동작구 상도동 111-52,126.96034499999999,37.4939896
2017,영업,중학교,국사봉중학교,서울특별시 동작구 상도동 214-437,126.9440571,37.493530799999995
2017,영업,중학교,동작중학교,서울특별시 동작구 동작동 59-1,126.9778041,37.49546289999999
2017,영업,중학교,상도중학교,서울특별시 동작구 사당동 181-20,126.9614773,37.4909213
2017,영업,중학교,영등포중학교,서울특별시 동작구 대방동 13-2,126.93473490000001,37.5090558
2017,영업,중학교,사당중학교,서울특별시 동작구 사당동 209-16,126.96853909999999,37.487762599999996
2017,영업,중학교,남성중학교,서울특별시 동작구 사당동 304-45,126.972489,37.479009399999995
2017,영업,중학교,장승중학교,서울특별시 동작구 상도동 175-1,126.94083359999999,37.5031484
2017,영업,중학교,강현중학교,서울특별시 동작구 상도동 335-5,126.93075459999999,37.5031141
2017,영업,중학교,문창중학교,서울특별시 동작구 신대방동 364-58,126.92240670000001,37.4958029
2017,영업,중학교,대방중학교,서울특별시 동작구 신대방동 492-200,126.91433290000002,37.4955925
2017,영업,중학교,동양중학교,서울특별시 동작구 흑석동 198-90,126.957477,37.51022310000001
2017,영업,중학교,성남중학교,서울특별시 동작구 대방동 375-1,126.92661319999999,37.50528120000001
2017,영업,중학교,숭의여자중학교,서울특별시 동작구 대방동 20-114,126.9292442,37.5073623
2017,영업,중학교,중앙대학교사범대학부속중학교,서울특별시 동작구 흑석동 86,126.9617331,37.50362910000001
2017,영업,중학교,봉림중학교,서울특별시 관악구 봉천동 1531-38,126.93770320000002,37.481198299999996
2017,영업,중학교,당곡중학교,서울특별시 관악구 봉천동 682,126.9326778,37.49235720000001
2017,영업,중학교,구암중학교,서울특별시 관악구 봉천동 1712-5,126.94860349999999,37.4927753
2017,영업,중학교,봉원중학교,서울특별시 관악구 봉천동 25-19,126.95823100000001,37.4839175
2017,영업,중학교,관악중학교,서울특별시 관악구 봉천동 100-569,126.96191189999999,37.481259
2017,영업,중학교,인헌중학교,서울특별시 관악구 봉천동 1647,126.9688393,37.47269779999999
2017,영업,중학교,신관중학교,서울특별시 관악구 신림동 산168-10,126.93445249999999,37.480201799999996
2017,영업,중학교,신림중학교,서울특별시 관악구 신림동 133,126.94600520000002,37.470329
2017,영업,중학교,삼성중학교,서울특별시 관악구 신림동 220-1,126.94251200000001,37.4676063
2017,영업,중학교,난우중학교,서울특별시 관악구 신림동 652-156,126.9228301,37.466805799999996
2017,영업,중학교,미성중학교,서울특별시 관악구 신림동 745-24,126.913026,37.4757658
2017,영업,중학교,남서울중학교,서울특별시 관악구 신림동 1690-3,126.92103700000001,37.4821362
2017,영업,중학교,남강중학교,서울특별시 관악구 신림동 627-1,126.9246992,37.4713732
2017,영업,중학교,은성중학교,서울특별시 강남구 도곡동 938-10,127.03523329999999,37.488377899999996
2017,영업,중학교,서울문영여자중학교,서울특별시 관악구 봉천동 1695,126.95091869999999,37.4729044
2017,영업,중학교,진선여자중학교,서울특별시 강남구 역삼동 713,127.04828619999999,37.502323
2017,영업,중학교,중동중학교,서울특별시 강남구 일원동 692,127.07861240000001,37.48851550000001
2017,영업,중학교,원촌중학교,서울특별시 서초구 반포동 22,127.01469840000001,37.5063266
2017,영업,중학교,신반포중학교,서울특별시 서초구 반포동 3-1,126.9961146,37.5062662
2017,영업,중학교,방배중학교,서울특별시 서초구 반포동 586-1,126.9978288,37.4948667
2017,영업,중학교,서일중학교,서울특별시 서초구 서초동 1313,127.02321909999999,37.49852979999999
2017,영업,중학교,서운중학교,서울특별시 서초구 서초동 1325-1,127.0245385,37.4939488
2017,영업,중학교,서초중학교,서울특별시 서초구 서초동 1741-13,127.00852079999999,37.48553920000001
2017,영업,중학교,언남중학교,서울특별시 서초구 양재동 310,127.04428130000001,37.472401700000006
2017,영업,중학교,신동중학교,서울특별시 서초구 잠원동 54-6,127.01291770000002,37.516915399999995
2017,영업,중학교,세화여자중학교,서울특별시 서초구 반포동 13,126.99422779999999,37.5019828
2017,영업,중학교,동덕여자중학교,서울특별시 서초구 방배동 산81-5,126.99199579999998,37.475876799999995
2017,영업,중학교,서문여자중학교,서울특별시 서초구 방배동 1514,126.9845622,37.4889191
2017,영업,중학교,언북중학교,서울특별시 강남구 논현동 69,127.0331257,37.5194271
2017,영업,중학교,신사중학교,서울특별시 강남구 압구정동 410,127.0211909,37.5246989
2017,영업,중학교,대왕중학교,서울특별시 강남구 수서동 750,127.0873402,37.4834601
2017,영업,중학교,대청중학교,서울특별시 강남구 대치동 502,127.0583513,37.49043020000001
2017,영업,중학교,구룡중학교,서울특별시 강남구 개포동 650,127.05612279999998,37.4861533
2017,영업,중학교,대명중학교,서울특별시 강남구 대치동 952,127.0609831,37.506337
2017,영업,중학교,대치중학교,서울특별시 강남구 도곡동 460,127.0470673,37.4845787
2017,영업,중학교,도곡중학교,서울특별시 강남구 도곡동 541-2,127.0452176,37.492306400000004
2017,영업,중학교,언주중학교,서울특별시 강남구 삼성동 28,127.0466835,37.5146544
2017,영업,중학교,봉은중학교,서울특별시 강남구 삼성동 82-7,127.0623915,37.5189756
2017,영업,중학교,수서중학교,서울특별시 강남구 수서동 710,127.10237930000001,37.4912039
2017,영업,중학교,신구중학교,서울특별시 강남구 신사동 621,127.0316722,37.527442799999996
2017,영업,중학교,압구정중학교,서울특별시 강남구 압구정동 471,127.03300379999999,37.530242799999996
2017,영업,중학교,역삼중학교,서울특별시 강남구 역삼동 767-20,127.04884440000001,37.4959342
2017,영업,중학교,청담중학교,서울특별시 강남구 청담동 143,127.0448097,37.52866029999999
2017,영업,중학교,개원중학교,서울특별시 강남구 개포동 184,127.0714149,37.491641200000004
2017,영업,중학교,휘문중학교,서울특별시 강남구 대치동 952-1,127.0619841,37.505287700000004
2017,영업,중학교,단국대학교사범대학부속중학교,서울특별시 강남구 대치동 1013-2,127.0567133,37.4955055
2017,영업,중학교,숙명여자중학교,서울특별시 강남구 도곡동 91,127.0526124,37.4914745
2017,영업,중학교,경원중학교,서울특별시 서초구 잠원동 66-1,127.0090169,37.511581899999996
2017,영업,중학교,광신중학교,서울특별시 관악구 신림동 산87-6,126.9259388,37.4644759
2017,영업,중학교,무학중학교,서울특별시 성동구 행당동 322-1,127.03197469999999,37.5576839
