"관리기관명",소재지도로명주소,소재지지번주소,설치목적구분,카메라대수,카메라화소수,촬영방면정보,보관일수,설치년월,관리기관전화번호,위도,경도,데이터기준일자
"서울특별시동작구청",서울특별시 동작구 장승배기로23길 10,,생활방범,3,,,,,02-820-2906,37.5101034617,126.9394527078,2020-03-24
"서울특별시동작구청",서울특별시 동작구 노량진로8길 40,,생활방범,3,,,,,02-820-2906,37.5124234129,126.9374646512,2020-03-24
"서울특별시동작구청",서울특별시 동작구 장승배기로18길 27,,생활방범,3,,,,,02-820-2906,37.5077079281,126.9417166673,2020-03-24
"서울특별시동작구청",서울특별시 동작구 만양로14다길 7,,생활방범,1,,,,,02-820-2906,37.5112812874,126.945437359,2020-03-24
"서울특별시동작구청",서울특별시 동작구 장승배기로22길 44(,,생활방범,1,,,,,02-820-2906,37.5084359977,126.9418337277,2020-03-24
"서울특별시동작구청",서울특별시 동작구 장승배기로19다길 24(노량진2동 302-27),,생활방범,1,,,,,02-820-2906,37.5092195171,126.9376075725,2020-03-24
"서울특별시동작구청",서울특별시 동작구 장승배기로24가길 39(노량진1동 232-52),,생활방범,1,,,,,02-820-2906,37.5112471818,126.9419356043,2020-03-24
"서울특별시동작구청",서울특별시 동작구 노량진로26길 65(노량진1동 485-2),,생활방범,1,,,,,02-820-2906,37.5097790685,126.9556087967,2020-03-24
"서울특별시동작구청",서울특별시 동작구 노량진로18길 20(노량진1동 408-1),,생활방범,3,,,,,02-820-2906,37.5119972506,126.9508298133,2020-03-24
"서울특별시동작구청",서울특별시 동작구 상도로60길 35(상도1동 126-65),,생활방범,3,,,,,02-820-2906,37.4921478264,126.954664857,2020-03-24
"서울특별시동작구청",서울특별시 동작구 상도로67길 20(상도1동 504-13),,생활방범,4,,,,,02-820-2906,37.4944876386,126.9567938944,2020-03-24
"서울특별시동작구청",서울특별시 동작구 상도로41가길 6(상도1동 465),,생활방범,4,,,,,02-820-2906,37.5026446254,126.950365478,2020-03-24
"서울특별시동작구청",서울특별시 동작구 상도로 41길 50(상도1동 440),,생활방범,4,,,,,02-820-2906,37.5024830142,126.9517408001,2020-03-24
"서울특별시동작구청",서울특별시 동작구 상도로47다길 32(상도1동 319-1),,생활방범,4,,,,,02-820-2906,37.5015537752,126.9532296883,2020-03-24
"서울특별시동작구청",서울특별시 동작구 상도로56길 6(상도1동 473-7),,생활방범,4,,,,,02-820-2906,37.4961186437,126.9525726689,2020-03-24
"서울특별시동작구청",서울특별시 동작구 상도로15마길 22(상도2동 356-85),,생활방범,4,,,,,02-820-2906,37.5034761385,126.9336178422,2020-03-24
"서울특별시동작구청",서울특별시 동작구 상도로15아길 18(상도2동 361-52),,생활방범,3,,,,,02-820-2906,37.5043524728,126.9346168365,2020-03-24
"서울특별시동작구청",서울특별시 동작구 상도로26가길 8(상도2동 183-22),,생활방범,3,,,,,02-820-2906,37.50353636,126.9383361097,2020-03-24
"서울특별시동작구청",서울특별시 동작구 만양로1길 18(상도2동 22-43),,생활방범,3,,,,,02-820-2906,37.5065281402,126.9466487208,2020-03-24
"서울특별시동작구청",서울특별시 동작구 대방동2길 38,,생활방범,3,,,,,02-820-2906,37.5029319291,126.9274841043,2020-03-24
"서울특별시동작구청",서울특별시 동작구 국사봉10길 20(상도3동 299-109),,생활방범,3,,,,,02-820-2906,37.4952466996,126.9310830338,2020-03-24
"서울특별시동작구청",서울특별시 동작구 성대로6가길 41(상도3동 256-219),,생활방범,4,,,,,02-820-2906,37.4971149559,126.9334742008,2020-03-24
"서울특별시동작구청",서울특별시 동작구 국사봉5길 1(상도3동 304-6),,생활방범,4,,,,,02-820-2906,37.4977690786,126.9303343467,2020-03-24
"서울특별시동작구청",서울특별시 동작구 성대로21가길 29(상도4동 244-47),,생활방범,3,,,,,02-820-2906,37.4993107367,126.9351459636,2020-03-24
"서울특별시동작구청",서울특별시 동작구 성대로10길 55(상도4동 279-52),,생활방범,4,,,,,02-820-2906,37.4960353896,126.9364560428,2020-03-24
"서울특별시동작구청",서울특별시 동작구 성대로31길 33(상도4동 202-221),,생활방범,4,,,,,02-820-2906,37.5002101094,126.9388409644,2020-03-24
"서울특별시동작구청",서울특별시 동작구 양녕로28길 54(상도4동 211-132),,생활방범,5,,,,,02-820-2906,37.4980586814,126.9466366529,2020-03-24
"서울특별시동작구청",서울특별시 동작구 서달로8가길2(흑석동 93-147),,생활방범,3,,,,,02-820-2906,37.5058096326,126.9618903691,2020-03-24
"서울특별시동작구청",서울특별시 동작구 서달로10길 64(흑석동 84-10),,생활방범,1,,,,,02-820-2906,37.5042097458,126.9628276169,2020-03-24
"서울특별시동작구청",서울특별시 동작구 흑석로3길 38-1(흑석동 200-12),,생활방범,3,,,,,02-820-2906,37.508716081,126.9561387471,2020-03-24
"서울특별시동작구청",서울특별시 동작구 서달로6길 19(흑석동 79-24),,생활방범,3,,,,,02-820-2906,37.5033265015,126.9620137734,2020-03-24
"서울특별시동작구청",서울특별시 동작구 대방동3길 39,,생활방범,4,,,,,02-820-2906,37.5012258489,126.9252736856,2020-03-24
"서울특별시동작구청",서울특별시 동작구 대방동2길 22,,생활방범,2,,,,,02-820-2906,37.5017036525,126.9286252613,2020-03-24
"서울특별시동작구청",서울특별시 동작구 등용로4길 43(대방동 13-4),,생활방범,4,,,,,02-820-2906,37.5073692312,126.9349670797,2020-03-24
"서울특별시동작구청",서울특별시 동작구 여의대방로62길 14(대방동 101-5),,생활방범,4,,,,,02-820-2906,37.5139029865,126.9281793006,2020-03-24
"서울특별시동작구청",서울특별시 동작구 대방동 9길 14(대방동 391-249),,생활방범,3,,,,,02-820-2906,37.5020842622,126.9263178071,2020-03-24
"서울특별시동작구청",서울특별시 동작구 여의대방로24라길 13(대방동 415-47),,생활방범,3,,,,,02-820-2906,37.4985930287,126.922354129,2020-03-24
"서울특별시동작구청",서울특별시 동작구 신대방2나길 1(신대방1동 621-1),,생활방범,3,,,,,02-820-2906,37.4889816989,126.9128930857,2020-03-24
"서울특별시동작구청",서울특별시 동작구 신대방1길 72(신대방1동 696-4),,생활방범,3,,,,,02-820-2906,37.4860045645,126.9078717789,2020-03-24
"서울특별시동작구청",,서울특별시 동작구 신대방1동 631-38,생활방범,3,,,,,02-820-2906,37.488202,126.913845,2020-03-24
"서울특별시동작구청",,서울특별시 동작구 신대방1동 459-6,생활방범,2,,,,,02-820-2906,37.489168,126.915635,2020-03-24
"서울특별시동작구청",서울특별시 동작구 신대방14길 15(신대방1동 600-57),,생활방범,4,,,,,02-820-2906,37.4897768751,126.9111282052,2020-03-24
"서울특별시동작구청",서울특별시 동작구 신대방14가길 47(신대방1동 632-58),,생활방범,3,,,,,02-820-2906,37.4899984533,126.9134618006,2020-03-24
"서울특별시동작구청",서울특별시 동작구 여의대방로22카길 47(신대방2동 360-186),,생활방범,3,,,,,02-820-2906,37.4962671246,126.9259299904,2020-03-24
"서울특별시동작구청",서울특별시 동작구 국사봉2길 29(신대방동 339-21),,생활방범,3,,,,,02-820-2906,37.4972778725,126.9285616224,2020-03-24
"서울특별시동작구청",서울특별시 동작구 보라매로9길 12(신대방2동 344-88),,생활방범,4,,,,,02-820-2906,37.495063683,126.9264151706,2020-03-24
"서울특별시동작구청",서울특별시 동작구 여의대방로22라길 23(신대방2동 366-131),,생활방범,5,,,,,02-820-2906,37.4954221236,126.9233299231,2020-03-24
"서울특별시동작구청",서울특별시 동작구 동작대로29가길 18(사당2동 89-52),,생활방범,3,,,,,02-820-2906,37.4887420697,126.9815646356,2020-03-24
"서울특별시동작구청",서울특별시 동작구 동작대로 43길 35 (사당2동 102-7),,생활방범,4,,,,,02-820-2906,37.4970383783,126.9805312597,2020-03-24
"서울특별시동작구청",서울특별시 동작구 동작대로35가길 56(사당2동 68-18),,생활방범,3,,,,,02-820-2906,37.4914446427,126.9788772685,2020-03-24
"서울특별시동작구청",서울특별시 동작구 동작대로27길 38(사당2동 129-11),,생활방범,4,,,,,02-820-2906,37.487667813,126.9799954737,2020-03-24
"서울특별시동작구청",서울특별시 동작구 동작대로29길 63-1(사당2동 127-40),,생활방범,3,,,,,02-820-2906,37.4885866117,126.9786835887,2020-03-24
"서울특별시동작구청",서울특별시 동작구 남부순환로257가길 32(사당1동 419-24),,생활방범,1,,,,,02-820-2906,37.4787361951,126.9756293105,2020-03-24
"서울특별시동작구청",서울특별시 동작구 남부순환로259길 10(사당1동 1050-2),,생활방범,3,,,,,02-820-2906,37.4765910984,126.9724690079,2020-03-24
"서울특별시동작구청",서울특별시 동작구 사당로20길 63(사당1동 431-4),,생활방범,1,,,,,02-820-2906,37.4803255976,126.9757373319,2020-03-24
"서울특별시동작구청",서울특별시 동작구 남부순환로265길 21(사당1동 1048-19),,생활방범,4,,,,,02-820-2906,37.4772042668,126.974621355,2020-03-24
"서울특별시동작구청",서울특별시 동작구 사당로29길 26(사당3동 141-97),,생활방범,3,,,,,02-820-2906,37.4855952042,126.9783497577,2020-03-24
"서울특별시동작구청",서울특별시 동작구 동작대로35길 43(사당2동 69-13),,생활방범,1,,,,,02-820-2906,37.4916358645,126.9800758309,2020-03-24
"서울특별시동작구청",서울특별시 동작구 사당로27길 12(사당3동 141-160),,생활방범,5,,,,,02-820-2906,37.4850979174,126.9787343295,2020-03-24
"서울특별시동작구청",서울특별시 동작구 사당로9나길7(사당3동 220-38),,생활방범,4,,,,,02-820-2906,37.4860403331,126.9702132148,2020-03-24
"서울특별시동작구청",서울특별시 동작구 솔밭로 74-1(사당5동 235-61),,생활방범,3,,,,,02-820-2906,37.4830193742,126.967270227,2020-03-24
"서울특별시동작구청",서울특별시 동작구 사당로2자길 2-15(사당5동 188-12),,생활방범,4,,,,,02-820-2906,37.4894950223,126.9645038787,2020-03-24
"서울특별시동작구청",서울특별시 동작구 사당로2차길 36(사당5동 206-16),,생활방범,5,,,,,02-820-2906,37.4869366265,126.966092591,2020-03-24
"서울특별시동작구청",서울특별시 동작구 사당로14길 38(사당4동 278-50),,생활방범,3,,,,,02-820-2906,37.4826274924,126.9709336531,2020-03-24
"서울특별시동작구청",서울특별시 동작구 사당로16길 14(사당4동 266-2),,생활방범,3,,,,,02-820-2906,37.4829055725,126.9733485891,2020-03-24
"서울특별시동작구청",서울특별시 동작구 남부순환로255라길 4(사당4동 303-27),,생활방범,4,,,,,02-820-2906,37.4773438529,126.9704427777,2020-03-24
"서울특별시동작구청",서울특별시 동작구 사당로20다길 15(사당4동 316-32),,생활방범,4,,,,,02-820-2906,37.4806206801,126.9736433577,2020-03-24
"서울특별시동작구청",서울특별시 동작구 노량진로14길 29(노량진1동 83-7),,생활방범,4,,,,,02-820-2906,37.5124044332,126.9426766984,2020-03-24
"서울특별시동작구청",서울특별시 동작구 노량진로30길 55(노량진1동 43-4),,생활방범,4,,,,,02-820-2906,37.511105849,126.9569652874,2020-03-24
"서울특별시동작구청",서울특별시 동작구 상도로47길 8(상도1동 464-33),,생활방범,4,,,,,02-820-2906,37.4996753973,126.9515390467,2020-03-24
"서울특별시동작구청",서울특별시 동작구 매봉로 37(상도1동 512),,생활방범,4,,,,,02-820-2906,37.5068219493,126.9509960718,2020-03-24
"서울특별시동작구청",서울특별시 동작구 상도로 119 (상도3동 352-1),,생활방범,4,,,,,02-820-2906,37.5015080831,126.9331581698,2020-03-24
"서울특별시동작구청",서울특별시 동작구 양녕로28길 8(상도4동 211-207),,생활방범,3,,,,,02-820-2906,37.4989514849,126.944478298,2020-03-24
"서울특별시동작구청",서울특별시 동작구 성대로17길 78(상도동 244-52),,생활방범,4,,,,,02-820-2906,37.5005033036,126.9344844845,2020-03-24
"서울특별시동작구청",서울특별시 동작구 현충로22길 52(흑석동 276-12),,생활방범,4,,,,,02-820-2906,37.5048716518,126.9713321805,2020-03-24
"서울특별시동작구청",서울특별시 동작구 서달로14길 11(흑석동 6-21),,생활방범,3,,,,,02-820-2906,37.508080746,126.963735036,2020-03-24
"서울특별시동작구청",서울특별시 동작구 동작대로35길 71(사당2동 67-8),,생활방범,4,,,,,02-820-2906,37.4924537959,126.9790172013,2020-03-24
"서울특별시동작구청",서울특별시 동작구 사당로27길 86(사당3동 162-83),,생활방범,1,,,,,02-820-2906,37.487083143,126.9756446904,2020-03-24
"서울특별시동작구청",서울특별시 동작구 사당로13길 50(사당3동 1131-12),,생활방범,4,,,,,02-820-2906,37.4862569267,126.9716423196,2020-03-24
"서울특별시동작구청",서울특별시 동작구 사당로20사길 29(사당4동 316-260),,생활방범,3,,,,,02-820-2906,37.4792221087,126.9727393826,2020-03-24
"서울특별시동작구청",서울특별시 동작구 사당로2아길 2(사당5동 188-1),,생활방범,3,,,,,02-820-2906,37.490197819,126.9645397301,2020-03-24
"서울특별시동작구청",,서울특별시 동작구 사당동 213-9,생활방범,1,,,,,02-820-2906,37.4866343439,126.9677209279,2020-03-24
"서울특별시동작구청",서울특별시 동작구 대방동길 30(대방동 392-1),,생활방범,4,,,,,02-820-2906,37.5022293889,126.927882871,2020-03-24
"서울특별시동작구청",서울특별시 동작구 등용로8가길 2(대방동 13-13),,생활방범,3,,,,,02-820-2906,37.5068890578,126.9334610043,2020-03-24
"서울특별시동작구청",서울특별시 동작구 신대방1길 126(신대방1동 698-5),,생활방범,1,,,,,02-820-2906,37.4854075527,126.9049101414,2020-03-24
"서울특별시동작구청",서울특별시 동작구 보라매로7가길 14 (신대방2동 344-150),,생활방범,4,,,,,02-820-2906,37.4940181793,126.9258779328,2020-03-24
"서울특별시동작구청",서울특별시 동작구 국사봉2나길 19(신대방2동 348-79),,생활방범,1,,,,,02-820-2906,37.4969902075,126.9296565598,2020-03-24
"서울특별시동작구청",서울특별시 동작구 여의대방로10길 100(신대방1동 717),,생활방범,1,,,,,02-820-2906,37.4915778003,126.9145364705,2020-03-24
"서울특별시동작구청",서울특별시 동작구 신대방2길 1(신대방1동 618-17),,생활방범,4,,,,,02-820-2906,37.4878065856,126.9126230793,2020-03-24
"서울특별시동작구청",서울특별시 동작구 보라매로11길 14(신대방2동 366-40),,생활방범,1,,,,,02-820-2906,37.4955826625,126.9264146614,2020-03-24
"서울특별시동작구청",서울특별시 동작구 상도로 38길 52(상도1동 159-48),,생활방범,1,,,,,02-820-2906,37.5009355448,126.948557153,2020-03-24
"서울특별시동작구청",서울특별시 동작구 국사봉16길 4(상도3동 299-156),,생활방범,1,,,,,02-820-2906,37.4945196304,126.9327211196,2020-03-24
"서울특별시동작구청",서울특별시 동작구 성대로16길 45-8,,생활방범,1,,,,,02-820-2906,37.4968257836,126.9385587507,2020-03-24
"서울특별시동작구청",서울특별시 동작구 양녕로22바길 66(상도4동 211-80),,생활방범,3,,,,,02-820-2906,37.4977850478,126.94724299,2020-03-24
"서울특별시동작구청",,서울특별시 동작구 흑석동 76-80,생활방범,1,,,,,02-820-2906,37.500251,126.962356,2020-03-24
"서울특별시동작구청",서울특별시 동작구 등용로10나길 13(대방동 44-311),,생활방범,3,,,,,02-820-2906,37.5099097504,126.9343993529,2020-03-24
"서울특별시동작구청",서울특별시 동작구 사당로2다길 84(사당5동 190-190),,생활방범,3,,,,,02-820-2906,37.4897035513,126.9628619443,2020-03-24
"서울특별시동작구청",서울특별시 동작구 노량진로26길 31(노량진1동 49),,생활방범,4,,,,,02-820-2906,37.5112564602,126.9549338065,2020-03-24
"서울특별시동작구청",서울특별시 동작구 흑석로5길 1-2(흑석동 204-171),,생활방범,4,,,,,02-820-2906,37.5066620684,126.9568954546,2020-03-24
"서울특별시동작구청",서울특별시 동작구 상도로47길 39(상도1동 338),,생활방범,4,,,,,02-820-2906,37.5009586766,126.9521443854,2020-03-24
"서울특별시동작구청",서울특별시 동작구 상도로34다길 26(상도2동 159-161),,생활방범,4,,,,,02-820-2906,37.5028119709,126.9457194718,2020-03-24
"서울특별시동작구청",서울특별시 동작구 성대로37길 44(상도2동 201-23),,생활방범,4,,,,,02-820-2906,37.5008192803,126.9390168892,2020-03-24
"서울특별시동작구청",서울특별시 동작구 국사봉8길 77(상도3동 301-40),,생활방범,4,,,,,02-820-2906,37.4934196902,126.931482753,2020-03-24
"서울특별시동작구청",서울특별시 동작구 국사봉6길 39(상도3동 299-202),,생활방범,4,,,,,02-820-2906,37.4957254314,126.9300557988,2020-03-24
"서울특별시동작구청",서울특별시 동작구 양녕로25가길 24(상도4동 210-244),,생활방범,4,,,,,02-820-2906,37.4990441491,126.9423069367,2020-03-24
"서울특별시동작구청",서울특별시 동작구 사당로23길 170(사당3동 173-26),,생활방범,4,,,,,02-820-2906,37.4897491391,126.9712520244,2020-03-24
"서울특별시동작구청",,서울특별시 동작구 사당2동 56-27,생활방범,4,,,,,02-820-2906,37.492633,126.976701,2020-03-24
"서울특별시동작구청",서울특별시 동작구 동작대로33길 23(사당2동 77-63),,생활방범,4,,,,,02-820-2906,37.4898231705,126.9808814013,2020-03-24
"서울특별시동작구청",서울특별시 동작구 동작대로7길 80(사당1동 1038-25),,생활방범,4,,,,,02-820-2906,37.4778753512,126.9783022403,2020-03-24
"서울특별시동작구청",서울특별시 동작구 사당로16라길 27(사당4동 278-109),,생활방범,5,,,,,02-820-2906,37.481985657,126.9696721246,2020-03-24
"서울특별시동작구청",서울특별시 동작구 사당로8길 24(사당5동 231-16),,생활방범,5,,,,,02-820-2906,37.4842307419,126.9687938262,2020-03-24
"서울특별시동작구청",서울특별시 동작구 사당로20길 20(사당4동 321-109),,생활방범,3,,,,,02-820-2906,37.4822645296,126.9755467593,2020-03-24
"서울특별시동작구청",서울특별시 동작구 남부순환로271길 14(사당1동 1041-11),,생활방범,4,,,,,02-820-2906,37.4774107494,126.9801157859,2020-03-24
"서울특별시동작구청",서울특별시 동작구 신대방16길 10(신대방1동 602-10),,생활방범,4,,,,,02-820-2906,37.4900786297,126.909829751,2020-03-24
"서울특별시동작구청",서울특별시 동작구 여의대방로22자길 1(신대방2동 360-24),,생활방범,4,,,,,02-820-2906,37.4970482407,126.9244184014,2020-03-24
"서울특별시동작구청",서울특별시 동작구 장승배기로20길 4(노량진2동 229-135 이용국내과입구),,생활방범,4,,,,,02-820-2906,37.508406494,126.9404855713,2020-03-24
"서울특별시동작구청",서울특별시 동작구 장승배기로19길 42 (노량진2동 302-173),,생활방범,4,,,,,02-820-2906,37.5082140178,126.9376491261,2020-03-24
"서울특별시동작구청",서울특별시 동작구 흑석로13길 7(흑석동 177-8),,생활방범,4,,,,,02-820-2906,37.5089159539,126.9608391935,2020-03-24
"서울특별시동작구청",서울특별시 동작구 동작대로25길 48(사당2동 708-490),,생활방범,3,,,,,02-820-2906,37.4852963427,126.9798966067,2020-03-24
"서울특별시동작구청",서울특별시 동작구 남부순환로267나길 14(사당1동 419-148),,생활방범,1,,,,,02-820-2906,37.4783220597,126.9772800763,2020-03-24
"서울특별시동작구청",서울특별시 동작구 사당로16자길 27(사당동 300-59),,생활방범,3,,,,,02-820-2906,37.4799171093,126.9703377496,2020-03-24
"서울특별시동작구청",서울특별시 동작구 상도로60가길 13(상도1동 126-51),,생활방범,1,,,,,02-820-2906,37.4933154078,126.9543430054,2020-03-24
"서울특별시동작구청",서울특별시 동작구 양녕로25마길 20(상도4동 210-166),,생활방범,5,,,,,02-820-2906,37.498074,126.941218,2020-03-24
"서울특별시동작구청",서울특별시 동작구 신대방길 19(신대방1동 691-36),,생활방범,4,,,,,02-820-2906,37.4878706368,126.9115194288,2020-03-24
"서울특별시동작구청",서울특별시 동작구 노량진로6라길 1(노량진2동 294-35),,생활방범,1,,,,,02-820-2906,37.5087968798,126.9358028024,2020-03-24
"서울특별시동작구청",서울특별시 동작구 노량진로32길 53,,생활방범,4,,,,,02-820-2906,37.5116032954,126.9572183617,2020-03-24
"서울특별시동작구청",서울특별시 동작구 장승배기로19길 12(노량진2동 306-5),,생활방범,5,,,,,02-820-2906,37.5082545267,126.9393094306,2020-03-24
"서울특별시동작구청",서울특별시 동작구 상도로38길 12(상도1동 728),,생활방범,4,,,,,02-820-2906,37.5021821069,126.9475791751,2020-03-24
"서울특별시동작구청",서울특별시 동작구 장승배기로9나길 32-1(상도2동 200-83),,생활방범,3,,,,,02-820-2906,37.5013632297,126.9385188435,2020-03-24
"서울특별시동작구청",서울특별시 동작구 국사봉8길 70(상도3동 302-2),,생활방범,4,,,,,02-820-2906,37.4937798507,126.9310662888,2020-03-24
"서울특별시동작구청",서울특별시 동작구 양녕로20길 65(상도4동 214-228),,생활방범,4,,,,,02-820-2906,37.4953905188,126.9440783601,2020-03-24
"서울특별시동작구청",서울특별시 동작구 흑석로9길 24(흑석동 194-58),,생활방범,4,,,,,02-820-2906,37.5078412923,126.958885362,2020-03-24
"서울특별시동작구청",서울특별시 동작구 남부순환로257가길 1(사당1동 446-5),,생활방범,3,,,,,02-820-2906,37.4775426367,126.9727806927,2020-03-24
"서울특별시동작구청",서울특별시 동작구 동작대로43길 1(사당2동 102-31),,생활방범,4,,,,,02-820-2906,37.4963899365,126.9823317281,2020-03-24
"서울특별시동작구청",서울특별시 동작구 사당로9라길 25(사당3동 220-67),,생활방범,4,,,,,02-820-2906,37.4871503602,126.9701539775,2020-03-24
"서울특별시동작구청",서울특별시 동작구 사당로16사길 59(사당4동 300-32),,생활방범,3,,,,,02-820-2906,37.4797835435,126.9694875976,2020-03-24
"서울특별시동작구청",서울특별시 동작구 사당로2차길 2(사당5동 202-28),,생활방범,4,,,,,02-820-2906,37.487768797,126.9648574776,2020-03-24
"서울특별시동작구청",서울특별시 동작구 상도로 43-1(대방동 396-1),,생활방범,4,,,,,02-820-2906,37.5002130761,126.925206841,2020-03-24
"서울특별시동작구청",서울특별시 동작구 신대방4길 17(신대방1동 618-33),,생활방범,3,,,,,02-820-2906,37.4886745412,126.9117943776,2020-03-24
"서울특별시동작구청",서울특별시 동작구 여의대방로22마길 37(신대방2동 364-170),,생활방범,5,,,,,02-820-2906,37.4967838866,126.9224736102,2020-03-24
"서울특별시동작구청",서울특별시 동작구 만양로 12길 57(노량진1동 205-193),,생활방범,3,,,,,02-820-2906,37.5107383374,126.9482292056,2020-03-24
"서울특별시동작구청",서울특별시 동작구 노량진로6다길 50(노량진2동 294-5),,생활방범,3,,,,,02-820-2906,37.5085409897,126.9357939733,2020-03-24
"서울특별시동작구청",서울특별시 동작구 상도로47가길 34(상도1동 425-1),,생활방범,3,,,,,02-820-2906,37.5013581278,126.9506965572,2020-03-24
"서울특별시동작구청",서울특별시 동작구 상도로15바길 22(상도2동 361-46),,생활방범,3,,,,,02-820-2906,37.5048391205,126.9348064149,2020-03-24
"서울특별시동작구청",서울특별시 동작구 성대로6길 32(상도3동 313-36),,생활방범,4,,,,,02-820-2906,37.4987392721,126.931550269,2020-03-24
"서울특별시동작구청",서울특별시 동작구 성대로11길 69(상도4동 247-2),,생활방범,4,,,,,02-820-2906,37.5002505041,126.9335573675,2020-03-24
"서울특별시동작구청",서울특별시 동작구 서달로12길 86(흑석동 62-11),,생활방범,3,,,,,02-820-2906,37.5043327114,126.9642163767,2020-03-24
"서울특별시동작구청",서울특별시 동작구 남부순환로263길 18(사당1동 419-81),,생활방범,3,,,,,02-820-2906,37.4776874574,126.9758105406,2020-03-24
"서울특별시동작구청",서울특별시 동작구 동작대로33가길 27(사당2동 72-12),,생활방범,4,,,,,02-820-2906,37.4908180229,126.9817676618,2020-03-24
"서울특별시동작구청",서울특별시 동작구 사당로23아길 24(사당3동 180-26),,생활방범,3,,,,,02-820-2906,37.491395764,126.9695869051,2020-03-24
"서울특별시동작구청",서울특별시 동작구 남부순환로255바길 8(사당4동 303-5),,생활방범,3,,,,,02-820-2906,37.4783821354,126.9717493081,2020-03-24
"서울특별시동작구청",서울특별시 동작구 솔밭로 102-1(사당5동 224-27),,생활방범,5,,,,,02-820-2906,37.4853262089,126.9681963742,2020-03-24
"서울특별시동작구청",서울특별시 동작구 대방동 15길 26(대방동 388-19),,생활방범,4,,,,,02-820-2906,37.5030225572,126.9226345393,2020-03-24
"서울특별시동작구청",서울특별시 동작구 신대방2나길 17(신대방1동 625-3),,생활방범,3,,,,,02-820-2906,37.4894033,126.9127976143,2020-03-24
"서울특별시동작구청",서울특별시 동작구 여의대방로22아길 72(신대방2동 366-259),,생활방범,3,,,,,02-820-2906,37.4955888249,126.9247545977,2020-03-24
"서울특별시동작구청",서울특별시 동작구 현충로14길 26(흑석동 283-2),,생활방범,1,,,,,02-820-2906,37.5051052963,126.9688937129,2020-03-24
"서울특별시동작구청",서울특별시 동작구 만양로10길 6 (노량진1동 215-156),,생활방범,3,,,,,02-820-2906,37.5091158579,126.9467192652,2020-03-24
"서울특별시동작구청",서울특별시 동작구 만양로14길 60 (노량진1동202-1),,생활방범,3,,,,,02-820-2906,37.5124643013,126.9474136329,2020-03-24
"서울특별시동작구청",서울특별시 동작구 노량진로 28길 39 (노량진1동 47-41),,생활방범,3,,,,,02-820-2906,37.5113109566,126.9560919861,2020-03-24
"서울특별시동작구청",서울특별시 동작구 만양로 16길 9 (노량진1동 119-165),,생활방범,3,,,,,02-820-2906,37.5117890768,126.9446271404,2020-03-24
"서울특별시동작구청",서울특별시 동작구 장승배기로 143,,생활방범,3,,,,,02-820-2906,37.510377591,126.9398913348,2020-03-24
"서울특별시동작구청",서울특별시 동작구 만양로 12길 13 (노량진1동222-11),,생활방범,3,,,,,02-820-2906,37.5101823884,126.9461484581,2020-03-24
"서울특별시동작구청",서울특별시 동작구 매봉로 79,,생활방범,1,,,,,02-820-2906,37.5082817003,126.9512937071,2020-03-24
"서울특별시동작구청",서울특별시 동작구 노량진로 26길47 (노량진1동51-2),,생활방범,3,,,,,02-820-2906,37.5105430093,126.95531427,2020-03-24
"서울특별시동작구청",서울특별시 동작구 노량진로 10가길 28 (노량진2동279-6),,생활방범,3,,,,,02-820-2906,37.5117451488,126.9361395993,2020-03-24
"서울특별시동작구청",서울특별시 동작구 장승배기로 19라길 34 (노량진2동294-459),,생활방범,3,,,,,02-820-2906,37.5071681066,126.9362520749,2020-03-24
"서울특별시동작구청",서울특별시 동작구 노량진로 12길44 (노량진2동 255-11 한전주),,생활방범,1,,,,,02-820-2906,37.5116126004,126.9376372505,2020-03-24
"서울특별시동작구청",서울특별시 동작구 노량진로 8나길 55 (노량진2동 291-16),,생활방범,3,,,,,02-820-2906,37.5101527343,126.9371860454,2020-03-24
"서울특별시동작구청",서울특별시 동작구 장승배기로 27길 80 (노량진2동 300-6),,생활방범,3,,,,,02-820-2906,37.509547917,126.9384352205,2020-03-24
"서울특별시동작구청",서울특별시 동작구 등용로14길81 (노량진2동 266-14 정애정미용실앞),,생활방범,4,,,,,02-820-2906,37.5127504752,126.9357813188,2020-03-24
"서울특별시동작구청",서울특별시 동작구 노량진로 6길79 (노량진2동289-42),,생활방범,3,,,,,02-820-2906,37.5098245807,126.9368334346,2020-03-24
"서울특별시동작구청",서울특별시 동작구 상도로15길 111-7(상도동 360-4),,생활방범,3,,,,,02-820-2906,37.5048437942,126.936774297,2020-03-24
"서울특별시동작구청",서울특별시 동작구 상도로31길 49(상도2동 22-153),,생활방범,3,,,,,02-820-2906,37.5066972599,126.9460559579,2020-03-24
"서울특별시동작구청",서울특별시 동작구 상도로 22길 25(상도2동 196-90) (한전주),,생활방범,1,,,,,02-820-2906,37.5022454671,126.9370976722,2020-03-24
"서울특별시동작구청",서울특별시 동작구 장승배기로 9나길1 (상도2동 200-1 교육청맞은편),,생활방범,3,,,,,02-820-2906,37.5024990703,126.939630751,2020-03-24
"서울특별시동작구청",서울특별시 동작구 상도로 30길73 (상도2동 28-24 낙원경로당),,생활방범,3,,,,,02-820-2906,37.5039468289,126.9448365048,2020-03-24
"서울특별시동작구청",서울특별시 동작구 장승배기로10길 28(상도2동 178-3),,생활방범,3,,,,,02-820-2906,37.5047737184,126.940637743,2020-03-24
"서울특별시동작구청",서울특별시 동작구 만양로 7,,생활방범,3,,,,,02-820-2906,37.5055298105,126.9466132399,2020-03-24
"서울특별시동작구청",서울특별시 동작구 성대로 6마길 10 (상도3동 279-170 신동아빌라),,생활방범,3,,,,,02-820-2906,37.4952814157,126.9351087384,2020-03-24
"서울특별시동작구청",서울특별시 동작구 상도로 11길23 (상도3동 335-110)(한전주),,생활방범,1,,,,,02-820-2906,37.5018984197,126.9288738793,2020-03-24
"서울특별시동작구청",서울특별시 동작구 상도로13나길 33(상도3동 335-202),,생활방범,3,,,,,02-820-2906,37.5027526922,126.9290721139,2020-03-24
"서울특별시동작구청",서울특별시 동작구 상도로 13다길 1 (상도3동 335-98),,생활방범,3,,,,,02-820-2906,37.5009226034,126.9303404642,2020-03-24
"서울특별시동작구청",서울특별시 동작구 상도로15사길 30 (상도3동 356-67),,생활방범,3,,,,,02-820-2906,37.5029639715,126.9329171125,2020-03-24
"서울특별시동작구청",서울특별시 동작구 국사봉1길 178 (상도3동 283-48),,생활방범,3,,,,,02-820-2906,37.4947874049,126.9346387458,2020-03-24
"서울특별시동작구청",서울특별시 동작구 성대로 6가길 24 (상도3동256-69),,생활방범,3,,,,,02-820-2906,37.4977813573,126.9328674673,2020-03-24
"서울특별시동작구청",서울특별시 동작구 성대로 21길 54,,생활방범,3,,,,,02-820-2906,37.500347,126.936413,2020-03-24
"서울특별시동작구청",서울특별시 동작구 양녕로 22다길 27 (상도4동 214-56),,생활방범,3,,,,,02-820-2906,37.4968112955,126.9457735727,2020-03-24
"서울특별시동작구청",서울특별시 동작구 성대로 14길 81 (상도4동 279-408),,생활방범,3,,,,,02-820-2906,37.494897757,126.9388045871,2020-03-24
"서울특별시동작구청",서울특별시 동작구 성대로 165 (상도4동 235-34 충남정육점옆),,생활방범,3,,,,,02-820-2906,37.4988877453,126.9394481942,2020-03-24
"서울특별시동작구청",서울특별시 동작구 성대로1가길 24(상도4동 242-5),,생활방범,3,,,,,02-820-2906,37.5015167269,126.9357457045,2020-03-24
"서울특별시동작구청",서울특별시 동작구 성대로 10길 3 (상도4동 261-20 안일약국 주변),,생활방범,3,,,,,02-820-2906,37.4975625513,126.9347222724,2020-03-24
"서울특별시동작구청",서울특별시 동작구 성대로 16길 39 (상도4동 279-334 현대훼미리),,생활방범,3,,,,,02-820-2906,37.4969912067,126.9378665346,2020-03-24
"서울특별시동작구청",서울특별시 동작구 양녕로 25길 51 (상도4동 210-285),,생활방범,3,,,,,02-820-2906,37.496971464,126.9415531231,2020-03-24
"서울특별시동작구청",서울특별시 동작구 등용로 10가길 7(대방동 44-104) (한전주),,생활방범,1,,,,,02-820-2906,37.5098911504,126.9333633317,2020-03-24
"서울특별시동작구청",서울특별시 동작구 등용로 10길 44 (대방동 44-250 영진교회 앞),,생활방범,3,,,,,02-820-2906,37.510453836,126.9341817144,2020-03-24
"서울특별시동작구청",서울특별시 동작구 여의대방로 24다길 57 (대방동 410-10 코롱아파트 옆),,생활방범,3,,,,,02-820-2906,37.4989871354,126.9243078827,2020-03-24
"서울특별시동작구청",서울특별시 동작구 상도로 11길 9-1(대방동 335-29 동작 노인복지관 옆),,생활방범,3,,,,,02-820-2906,37.5006803314,126.928992649,2020-03-24
"서울특별시동작구청",서울특별시 동작구 대방동 23길 45 (대방동 388-17),,생활방범,3,,,,,02-820-2906,37.5039633097,126.9227919024,2020-03-24
"서울특별시동작구청",서울특별시 동작구 대방동 23길 21(대방동 380-1),,생활방범,3,,,,,02-820-2906,37.503946134,126.9240947808,2020-03-24
"서울특별시동작구청",서울특별시 동작구 여의대방로24나길 2(대방동 414-5),,생활방범,3,,,,,02-820-2906,37.4984227581,126.9210243996,2020-03-24
"서울특별시동작구청",서울특별시 동작구 여의대방로 22,,생활방범,1,,,,,02-820-2906,37.4910602951,126.9116423117,2020-03-24
"서울특별시동작구청",서울특별시 동작구 신대방14가길 23 (신대방1동 631-4 대천교회 앞),,생활방범,1,,,,,02-820-2906,37.490239039,126.9122629294,2020-03-24
"서울특별시동작구청",서울특별시 동작구 신대방1길 32 (신대방1동694-20앞 삼거리),,생활방범,3,,,,,02-820-2906,37.4866764729,126.9098926364,2020-03-24
"서울특별시동작구청",서울특별시 동작구 여의대방로 10길 73 (신대방1동 470-13),,생활방범,3,,,,,02-820-2906,37.4927998326,126.9149059763,2020-03-24
"서울특별시동작구청",서울특별시 동작구 대림로 43,,생활방범,3,,,,,02-820-2906,37.4874609857,126.9083765471,2020-03-24
"서울특별시동작구청",서울특별시 동작구 신대방3길 38 (신대방1동 689-57 댕기머리미용실),,생활방범,3,,,,,02-820-2906,37.4877575535,126.9097239927,2020-03-24
"서울특별시동작구청",서울특별시 동작구 신대방6길 25 (신대방1동 616-54 아이비영재어린이집 앞),,생활방범,3,,,,,02-820-2906,37.4890706524,126.9113506652,2020-03-24
"서울특별시동작구청",서울특별시 동작구 여의대방로16길 12-7 (신대방2동 498-44 주택가),,생활방범,1,,,,,02-820-2906,37.4962498371,126.9162364524,2020-03-24
"서울특별시동작구청",서울특별시 동작구 여의대방로 22카길 12 (신대방2동 358-6 은혜교회 뒤),,생활방범,3,,,,,02-820-2906,37.497795168,126.9258289653,2020-03-24
"서울특별시동작구청","서울특별시 동작구 보라매로9길 38-1 (신대방2동 366-57,58 한전주)",,생활방범,1,,,,,02-820-2906,37.4950772173,126.9250129384,2020-03-24
"서울특별시동작구청",서울특별시 동작구 보라매로7가길 6-1,서울특별시 동작구 신대방2동 344-137,생활방범,1,,,,,02-820-2906,37.4939535644,126.9262896096,2020-03-24
"서울특별시동작구청",서울특별시 동작구 국사봉2가길 15 (신대방2동 339-4 대성빌라옆),,생활방범,1,,,,,02-820-2906,37.4975845469,126.9291131897,2020-03-24
"서울특별시동작구청",서울특별시 동작구 보라매로17길 23 (신대방2동 360-146),,생활방범,3,,,,,02-820-2906,37.4972586966,126.9266753752,2020-03-24
"서울특별시동작구청",서울특별시 동작구 사당로2가길 10-3 (상도1동 410 현대아파트 201동),,생활방범,3,,,,,02-820-2906,37.4932891831,126.961679619,2020-03-24
"서울특별시동작구청",서울특별시 동작구 상도로55길 16 (상도1동 484),,생활방범,3,,,,,02-820-2906,37.4972945371,126.9550824241,2020-03-24
"서울특별시동작구청",서울특별시 동작구 상도로47가길9 (상도1동 359-1 새마을금고 부근),,생활방범,1,,,,,02-820-2906,37.5003564628,126.9513079026,2020-03-24
"서울특별시동작구청",서울특별시 동작구 상도로52길 4(상도동 469-5),,생활방범,3,,,,,02-820-2906,37.49810758,126.9513772149,2020-03-24
"서울특별시동작구청",서울특별시 동작구 현충로12길 106(흑석동 295),,생활방범,3,,,,,02-820-2906,37.5040167474,126.9683874959,2020-03-24
"서울특별시동작구청",서울특별시 동작구 서달로4길 33,,생활방범,3,,,,,02-820-2906,37.496179,126.938547,2020-03-24
"서울특별시동작구청",서울특별시 동작구 흑석로6길 29 (흑석동 207-74),,생활방범,1,,,,,02-820-2906,37.5054436451,126.956176853,2020-03-24
"서울특별시동작구청",서울특별시 동작구 서달로10나길 19 (흑석동 84-134 제일교회),,생활방범,1,,,,,02-820-2906,37.5034599517,126.9623303714,2020-03-24
"서울특별시동작구청",서울특별시 동작구 동작대로3길 46 (사당1동 1034-46),,생활방범,3,,,,,02-820-2906,37.478989127,126.9790119221,2020-03-24
"서울특별시동작구청",서울특별시 동작구 동작대로15길 96 (사당1동 321-21),,생활방범,3,,,,,02-820-2906,37.4827043722,126.9762837902,2020-03-24
"서울특별시동작구청",서울특별시 동작구 남부순환로255나길 9(사당1동 449-18),,생활방범,3,,,,,02-820-2906,37.4772251644,126.971437711,2020-03-24
"서울특별시동작구청",서울특별시 동작구 남부순환로271길 35 (사당1동 1032-50 완도수산),,생활방범,1,,,,,02-820-2906,37.4784631162,126.9800431505,2020-03-24
"서울특별시동작구청",서울특별시 동작구 동작대로41길22 (사당2동102-69),,생활방범,3,,,,,02-820-2906,37.4966708002,126.9807303841,2020-03-24
"서울특별시동작구청",서울특별시 동작구 동작대로25길 16,,생활방범,3,,,,,02-820-2906,37.4863308712,126.9809275189,2020-03-24
"서울특별시동작구청",서울특별시 동작구 동작대로31길 32(사당동 91-41),,생활방범,5,,,,,02-820-2906,37.4890915258,126.9807187624,2020-03-24
"서울특별시동작구청",서울특별시 동작구 동작대로 33마길 39(사당2동 64-61),,생활방범,1,,,,,02-820-2906,37.4909759147,126.9777647325,2020-03-24
"서울특별시동작구청",서울특별시 동작구 사당로29다길 54(사당동 141-251),,생활방범,2,,,,,02-820-2906,37.4868816364,126.9772458248,2020-03-24
"서울특별시동작구청",서울특별시 동작구 사당로23길 181 (사당3동 175-25 고은약국앞),,생활방범,3,,,,,02-820-2906,37.4901742859,126.9707271944,2020-03-24
"서울특별시동작구청",서울특별시 동작구 사당로27길 247 (사당3동 178-1 성락빌라 앞),,생활방범,3,,,,,02-820-2906,37.4924984393,126.9689803583,2020-03-24
"서울특별시동작구청",서울특별시 동작구 사당로13길 8 (사당3동 252-10),,생활방범,3,,,,,02-820-2906,37.4845560975,126.9728098071,2020-03-24
"서울특별시동작구청",서울특별시 동작구 사당로20나길 114 (사당4동 304-4)(한전주),,생활방범,1,,,,,02-820-2906,37.4789154634,126.9714596792,2020-03-24
"서울특별시동작구청",서울특별시 동작구 사당로16가길 12 (사당4동 265-57)(한전주),,생활방범,3,,,,,02-820-2906,37.4830676012,126.9726791921,2020-03-24
"서울특별시동작구청",서울특별시 동작구 사당로16바길 16 (사당4동 296-32),,생활방범,1,,,,,02-820-2906,37.4813518104,126.9715356344,2020-03-24
"서울특별시동작구청",서울특별시 동작구 사당로14가길 8(사당4동 254-11),,생활방범,1,,,,,02-820-2906,37.4840909558,126.9718647469,2020-03-24
"서울특별시동작구청",서울특별시 동작구 사당로8가길 9-8,,생활방범,3,,,,,02-820-2906,37.4840034011,126.9677265824,2020-03-24
"서울특별시동작구청",서울특별시 동작구 상도로49길 7 (상도1동 465-16),,생활방범,3,,,,,02-820-2906,37.4991962469,126.9519917099,2020-03-24
"서울특별시동작구청",서울특별시 동작구 사당로8길 9 (사당5동 248 사당문화회관 사거리),,생활방범,3,,,,,02-820-2906,37.4847174998,126.9696122258,2020-03-24
"서울특별시동작구청",서울특별시 동작구 노량진로14나길 24(노량진1동 119-35),,생활방범,3,,,,,02-820-2906,37.5117740384,126.943315106,2020-03-24
"서울특별시동작구청",서울특별시 동작구 노량진로32길 10(노량진1동 10-23),,생활방범,3,,,,,02-820-2906,37.513098498,126.9559552077,2020-03-24
"서울특별시동작구청",서울특별시 동작구 상도로34나길 9(상도2동 154-5),,생활방범,3,,,,,02-820-2906,37.5039942514,126.9460714742,2020-03-24
"서울특별시동작구청",,서울특별시 동작구 흑석동 74,생활방범,3,,,,,02-820-2906,37.505197,126.968238,2020-03-24
"서울특별시동작구청",서울특별시 동작구 남부순환로257가길 48(사당동 419-33),,생활방범,3,,,,,02-820-2906,37.4799905956,126.976596692,2020-03-24
"서울특별시동작구청",서울특별시 동작구 동작대로31길 46-6(사당동 91-38),,생활방범,4,,,,,02-820-2906,37.4894337876,126.9799904798,2020-03-24
"서울특별시동작구청",서울특별시 동작구 동작대로길27길 5,,생활방범,3,,,,,02-820-2906,37.487172,126.981628,2020-03-24
"서울특별시동작구청",서울특별시 동작구 사당로16나길 22(사당4동 267-21),,생활방범,3,,,,,02-820-2906,37.483017,126.972059,2020-03-24
"서울특별시동작구청",서울특별시 동작구 여의대방로 300,,생활방범,3,,,,,02-820-2906,37.513546,126.927093,2020-03-24
"서울특별시동작구청",서울특별시 동작구 여의대방로22나길 23(신대방2동 367-83 문창중학교 통학로),,생활방범,3,,,,,02-820-2906,37.4968552135,126.9213336412,2020-03-24
"서울특별시동작구청",서울특별시 동작구 흑석로3길 47,,생활방범,3,,,,,02-820-2906,37.5093289892,126.9567491484,2020-03-24
"서울특별시동작구청",서울특별시 동작구 흑석로3길 60(흑석동 186-20),,생활방범,3,,,,,02-820-2906,37.5094339612,126.9580113267,2020-03-24
"서울특별시동작구청",서울특별시 동작구 흑석로13길 27(흑석동 186-68),,생활방범,2,,,,,02-820-2906,37.5099892049,126.9586489261,2020-03-24
"서울특별시동작구청",서울특별시 동작구 흑석로5길 92(흑석동 186-61),,생활방범,2,,,,,02-820-2906,37.5091207109,126.9588620396,2020-03-24
"서울특별시동작구청",서울특별시 동작구 흑석로5길 73,,생활방범,2,,,,,02-820-2906,37.5091671492,126.9576902624,2020-03-24
"서울특별시동작구청",서울특별시 동작구 흑석로9길 72(흑석동 198-17),,생활방범,4,,,,,02-820-2906,37.508609,126.956737,2020-03-24
"서울특별시동작구청",서울특별시 동작구 흑석로13마길 12(흑석동 186-12),,생활방범,2,,,,,02-820-2906,37.5094128583,126.9595043089,2020-03-24
"서울특별시동작구청",서울특별시 동작구 보라매로13길 13(신대방2동 344-74),,생활방범,3,,,,,02-820-2906,37.4961666915,126.9266990596,2020-03-24
"서울특별시동작구청",서울특별시 동작구 장승배기로 20다길 10 (노량진1동 232-9),,생활방범,3,,,,,02-820-2906,37.5098377748,126.9414571332,2020-03-24
"서울특별시동작구청",서울특별시 동작구 장승배기로26길 65(노량진1동 119-118),,생활방범,3,,,,,02-820-2906,37.5111324562,126.9431753393,2020-03-24
"서울특별시동작구청",서울특별시 동작구 사당로16다길 57 (사당5동 240-15),,생활방범,3,,,,,02-820-2906,37.4826883363,126.9692557668,2020-03-24
"서울특별시동작구청",서울특별시 동작구 신대방2가길 12(신대방1동 618-147),,생활방범,3,,,,,02-820-2906,37.4885094445,126.9127217642,2020-03-24
"서울특별시동작구청",서울특별시 동작구 현충로22길 23(흑석동 227-20),,생활방범,3,,,,,02-820-2906,37.5044714332,126.970631136,2020-03-24
"서울특별시동작구청",서울특별시 동작구 노량진로16길 10(노량진1동 100-3),,생활방범,3,,,,,02-820-2906,37.5131221002,126.9436488904,2020-03-24
"서울특별시동작구청",서울특별시 동작구 매봉로134 (노량진1동 481),,생활방범,3,,,,,02-820-2906,37.5101486633,126.9514915587,2020-03-24
"서울특별시동작구청",서울특별시 동작구 만양로13길 28(노량진1동 221-84),,생활방범,3,,,,,02-820-2906,37.5094248739,126.9446967492,2020-03-24
"서울특별시동작구청",서울특별시 동작구 장승배기로16길 65(노량진2동 229-42),,생활방범,3,,,,,02-820-2906,37.5077193278,126.9429200558,2020-03-24
"서울특별시동작구청",서울특별시 동작구 노량진로8나길 111(노량진2동 294-414),,생활방범,4,,,,,02-820-2906,37.5078311505,126.9360750728,2020-03-24
"서울특별시동작구청",서울특별시 동작구 노량진로8다길 2(노량진2동 282-40),,생활방범,3,,,,,02-820-2906,37.510941915,126.9369998901,2020-03-24
"서울특별시동작구청",서울특별시 동작구 장승배기로9길 41(상도2동 184-150),,생활방범,3,,,,,02-820-2906,37.5029882667,126.9377982325,2020-03-24
"서울특별시동작구청",서울특별시 동작구 상도로15길 104(상도2동 361-106),,생활방범,3,,,,,02-820-2906,37.5043030967,126.9365983231,2020-03-24
"서울특별시동작구청",서울특별시 동작구 상도로34길 36(상도2동 156-11),,생활방범,3,,,,,02-820-2906,37.5033845424,126.9447102525,2020-03-24
"서울특별시동작구청",서울특별시 동작구 국사봉10길 81-3(상도3동 301-70),,생활방범,3,,,,,02-820-2906,37.4932799561,126.9329167283,2020-03-24
"서울특별시동작구청",서울특별시 동작구 상도로15다길 7-12(상도3동 331-67),,생활방범,3,,,,,02-820-2906,37.5022647607,126.9328634534,2020-03-24
"서울특별시동작구청",서울특별시 동작구 성대로2길 11,,생활방범,3,,,,,02-820-2906,37.4991248185,126.9314051641,2020-03-24
"서울특별시동작구청",서울특별시 동작구 상도로22나길 17(상도4동 193-63),,생활방범,3,,,,,02-820-2906,37.5018451183,126.9365325461,2020-03-24
"서울특별시동작구청",서울특별시 동작구 성대로25길 10-8,,생활방범,3,,,,,02-820-2906,37.499121725,126.938900658,2020-03-24
"서울특별시동작구청",서울특별시 동작구 성대로10나길 6,,생활방범,3,,,,,02-820-2906,37.4971230349,126.9350392937,2020-03-24
"서울특별시동작구청",서울특별시 동작구 대방동길 77 (대방동 376-1),,생활방범,3,,,,,02-820-2906,37.5048547693,126.9247543468,2020-03-24
"서울특별시동작구청",서울특별시 동작구 등용로8가길 11(대방동 13-50),,생활방범,3,,,,,02-820-2906,37.5064966455,126.9342213806,2020-03-24
"서울특별시동작구청",서울특별시 동작구 여의대방로24사길 8(대방동 404-15),,생활방범,3,,,,,02-820-2906,37.4992293069,126.9254113814,2020-03-24
"서울특별시동작구청",서울특별시 동작구 신대방길 88(신대방1동 602-15),,생활방범,3,,,,,02-820-2906,37.4897180889,126.9096492659,2020-03-24
"서울특별시동작구청",서울특별시 동작구 신대방16가길 18(신대방1동 599-24),,생활방범,3,,,,,02-820-2906,37.4902522962,126.9107160494,2020-03-24
"서울특별시동작구청",서울특별시 동작구 신대방18길 1 (신대방1동 591-57),,생활방범,4,,,,,02-820-2906,37.4901319613,126.9088798594,2020-03-24
"서울특별시동작구청",서울특별시 동작구 신대방14가길 23 (신대방1동 631-4),,생활방범,3,,,,,02-820-2906,37.490239039,126.9122629294,2020-03-24
"서울특별시동작구청",서울특별시 동작구 여의대방로22길 44 (신대방2동 364-18),,생활방범,3,,,,,02-820-2906,37.4975406601,126.9223642655,2020-03-24
"서울특별시동작구청",서울특별시 동작구 보라매로9라길 10(신대방2동 344-165),,생활방범,3,,,,,02-820-2906,37.4947280415,126.925669161,2020-03-24
"서울특별시동작구청",서울특별시 동작구 여의대방로22길 78(신대방2동 361-55),,생활방범,3,,,,,02-820-2906,37.4977076987,126.9242956038,2020-03-24
"서울특별시동작구청",서울특별시 동작구 상도로47바길41(상도동 54-34,,생활방범,3,,,,,02-820-2906,37.5036550287,126.9535043297,2020-03-24
"서울특별시동작구청",서울특별시 동작구 상도로68길 10(상도동 498-3,,생활방범,3,,,,,02-820-2906,37.4936977173,126.955080055,2020-03-24
"서울특별시동작구청",서울특별시 동작구 상도로45길 81(상도1동 326-2),,생활방범,3,,,,,02-820-2906,37.5027213417,126.9528851552,2020-03-24
"서울특별시동작구청",서울특별시 동작구 상도로61길 44(상도동 504-2),,생활방범,4,,,,,02-820-2906,37.4946860116,126.9572099204,2020-03-24
"서울특별시동작구청",서울특별시 동작구 만양로2길 46(상도동 16-18),,생활방범,3,,,,,02-820-2906,37.5065836056,126.9498561842,2020-03-24
"서울특별시동작구청",서울특별시 동작구 상도로13가길 6-2(상도동 328-1),,생활방범,3,,,,,02-820-2906,37.5004581541,126.9311415749,2020-03-24
"서울특별시동작구청",서울특별시 동작구 성대로19길 23(상도동 244-369),,생활방범,3,,,,,02-820-2906,37.4989762462,126.9364037921,2020-03-24
"서울특별시동작구청",서울특별시 동작구 흑석로6길 16-1(흑석동 207-18),,생활방범,4,,,,,02-820-2906,37.5060060508,126.9566605866,2020-03-24
"서울특별시동작구청",서울특별시 동작구 서달로13길 11-1,,생활방범,3,,,,,02-820-2906,37.5081090611,126.9620882594,2020-03-24
"서울특별시동작구청",서울특별시 동작구 서달로10라길 17(흑석동 64-43),,생활방범,4,,,,,02-820-2906,37.5035217461,126.9640177166,2020-03-24
"서울특별시동작구청",서울특별시 동작구 서달로4가길 19-2(흑석동 79-230),,생활방범,3,,,,,02-820-2906,37.506736,126.960103,2020-03-24
"서울특별시동작구청",서울특별시 동작구 남부순환로271길 65(사당동 1033-14),,생활방범,5,,,,,02-820-2906,37.4793928578,126.9794595211,2020-03-24
"서울특별시동작구청",서울특별시 동작구 동작대로11길104(사당동 319-44),,생활방범,5,,,,,02-820-2906,37.481615848,126.9757640495,2020-03-24
"서울특별시동작구청",서울특별시 동작구 남부순환로269길 87(사당동 435-20),,생활방범,4,,,,,02-820-2906,37.4791793132,126.9747789686,2020-03-24
"서울특별시동작구청",서울특별시 동작구 남부순환로271가길 7(사당동 1039-45),,생활방범,3,,,,,02-820-2906,37.4776917757,126.9795956539,2020-03-24
"서울특별시동작구청",서울특별시 동작구 남부순환로267길 13(사당동 419-114),,생활방범,4,,,,,02-820-2906,37.4775253437,126.9761452379,2020-03-24
"서울특별시동작구청",서울특별시 동작구 동작대로41길 7(동작동 102-60)하랑숲유치원,,생활방범,3,,,,,02-820-2906,37.4960438682,126.9817935315,2020-03-24
"서울특별시동작구청",서울특별시 동작구 동작대로35가길 3(사당동 72-15),,생활방범,3,,,,,02-820-2906,37.4907242632,126.9814148886,2020-03-24
"서울특별시동작구청",서울특별시 동작구 동작대로27라길 12(사당동 141-5),,생활방범,3,,,,,02-820-2906,37.4861468683,126.9797426053,2020-03-24
"서울특별시동작구청",서울특별시 동작구 사당로27길 225(사당동178-48),,생활방범,3,,,,,02-820-2906,37.491788802,126.9703692403,2020-03-24
"서울특별시동작구청",서울특별시 동작구 사당로9가길 58,,생활방범,3,,,,,02-820-2906,37.4877626266,126.9685390777,2020-03-24
"서울특별시동작구청",서울특별시 동작구 사당로23길 278(사당동 180-1),,생활방범,3,,,,,02-820-2906,37.4931718596,126.9670124996,2020-03-24
"서울특별시동작구청",서울특별시 동작구 사당로18길 9(사당동318-19),,생활방범,3,,,,,02-820-2906,37.482706,126.974581,2020-03-24
"서울특별시동작구청",서울특별시 동작구 남부순환로257길 42,,생활방범,3,,,,,02-820-2906,37.4788362203,126.9716496463,2020-03-24
"서울특별시동작구청",서울특별시 동작구 사당로16아길 59,,생활방범,4,,,,,02-820-2906,37.4808969716,126.9686504948,2020-03-24
"서울특별시동작구청",서울특별시 동작구 사당로2길 40,,생활방범,3,,,,,02-820-2906,37.4919165975,126.9634126664,2020-03-24
"서울특별시동작구청",서울특별시 동작구 사당로10길 93(사당동 239-7),,생활방범,3,,,,,02-820-2906,37.4821472078,126.9673067875,2020-03-24
"서울특별시동작구청",서울특별시 동작구 사당로2차길 15-9(사당동 202-2),,생활방범,4,,,,,02-820-2906,37.4877942974,126.9657846496,2020-03-24
"서울특별시동작구청",서울특별시 동작구 여의대방로22가길 25-1(신대방2동 365-1),,생활방범,3,,,,,02-820-2906,37.4967467908,126.9208814162,2020-03-24
"서울특별시동작구청",서울특별시 동작구 여의대방로22바길 36(신대방2동 360-81),,생활방범,3,,,,,02-820-2906,37.4963954327,126.9236727039,2020-03-24
"서울특별시동작구청",서울특별시 동작구 만양로14아길 7(노량진1동 204-1),,생활방범,4,,,,,02-820-2906,37.5121580324,126.9475767232,2020-03-24
"서울특별시동작구청",서울특별시 동작구 장승배기로21길18(노량진2동 305-16),,생활방범,4,,,,,02-820-2906,37.5089895667,126.9389604777,2020-03-24
"서울특별시동작구청",서울특별시 동작구 상도로22길 9(상도2동 184-171),,생활방범,4,,,,,02-820-2906,37.502879567,126.936708097,2020-03-24
"서울특별시동작구청",서울특별시 동작구 국사봉10길 72-4(상도3동 301-55),,생활방범,4,,,,,02-820-2906,37.4931822913,126.9322926178,2020-03-24
"서울특별시동작구청",서울특별시 동작구 성대로11가길 16(상도4동 264-241),,생활방범,4,,,,,02-820-2906,37.4979703492,126.9357125555,2020-03-24
"서울특별시동작구청",서울특별시 동작구 흑석로9길 41(흑석동 199-6),,생활방범,4,,,,,02-820-2906,37.5080391174,126.9577632842,2020-03-24
"서울특별시동작구청",서울특별시 동작구 현충로10길 56(흑석동 292),,생활방범,4,,,,,02-820-2906,37.5044381623,126.967446357,2020-03-24
"서울특별시동작구청",서울특별시 동작구 동작대로21길 16(사당1동 1006-12),,생활방범,5,,,,,02-820-2906,37.4839305776,126.9808829029,2020-03-24
"서울특별시동작구청",서울특별시 동작구 동작대로9다길 23(사당1동 1025-14),,생활방범,5,,,,,02-820-2906,37.4797024423,126.9774695976,2020-03-24
"서울특별시동작구청",서울특별시 동작구 남부순환로269길 27(사당1동 1046-25),,생활방범,4,,,,,02-820-2906,37.4777022291,126.9776149098,2020-03-24
"서울특별시동작구청",서울특별시 동작구 동작대로29다길 7-5(사당2동 91-158),,생활방범,4,,,,,02-820-2906,37.4884427307,126.9802983006,2020-03-24
"서울특별시동작구청",서울특별시 동작구 동작대로33바길 41(사당2동 59-4),,생활방범,4,,,,,02-820-2906,37.4920317172,126.9768371832,2020-03-24
"서울특별시동작구청",서울특별시 동작구 사당로29가길 31-1(사당3동 141-66),,생활방범,4,,,,,02-820-2906,37.4863918807,126.9793852408,2020-03-24
"서울특별시동작구청",서울특별시 동작구 사당로16길 30(사당동 274-24),,생활방범,4,,,,,02-820-2906,37.4823468234,126.9728060852,2020-03-24
"서울특별시동작구청",서울특별시 동작구 사당로10가길 22(사당5동 241-42),,생활방범,3,,,,,02-820-2906,37.4825365443,126.967672943,2020-03-24
"서울특별시동작구청",서울특별시 동작구 보라매로15길 16(신대방2동 360-137),,생활방범,3,,,,,02-820-2906,37.4972479911,126.9268472755,2020-03-24
"서울특별시동작구청",서울특별시 동작구 성대로6가길 71(상도3동 290-55),,생활방범,3,,,,,02-820-2906,37.4962611369,126.9340720416,2020-03-24
"서울특별시동작구청",서울특별시 동작구 성대로16길 16(상도4동 264-151),,생활방범,4,,,,,02-820-2906,37.4974592047,126.9368755154,2020-03-24
"서울특별시동작구청",서울특별시 동작구 노량진로14길 8(노량진동 58-1),,생활방범,4,,,,,02-820-2906,37.5130960505,126.9419522695,2020-03-24
"서울특별시동작구청",서울특별시 동작구 노량진로8나길 15(노량진동 258-4),,생활방범,3,,,,,02-820-2906,37.5118610088,126.9371303222,2020-03-24
"서울특별시동작구청",서울특별시 동작구 상도로47사길 4(상도동 53-8),,생활방범,4,,,,,02-820-2906,37.5032260806,126.9533281683,2020-03-24
"서울특별시동작구청",서울특별시 동작구 상도로 162(상도동 185-1),,생활방범,4,,,,,02-820-2906,37.5035790485,126.9372729816,2020-03-24
"서울특별시동작구청",서울특별시 동작구 상도로12길 5(상도동 324-23),,생활방범,4,,,,,02-820-2906,37.4992934573,126.9301248476,2020-03-24
"서울특별시동작구청",서울특별시 동작구 서달로14나길 24-5(흑석동 54-161),,생활방범,4,,,,,02-820-2906,37.507219117,126.9628713649,2020-03-24
"서울특별시동작구청",서울특별시 동작구 남부순환로269길 48(사당동 419-121),,생활방범,5,,,,,02-820-2906,37.478343605,126.9768730647,2020-03-24
"서울특별시동작구청",서울특별시 동작구 동작대로27가길 45(사당동 147-75),,생활방범,4,,,,,02-820-2906,37.4855416271,126.981171946,2020-03-24
"서울특별시동작구청",서울특별시 동작구 사당로17나길 8(사당동 257-22),,생활방범,4,,,,,02-820-2906,37.4842750696,126.9731898104,2020-03-24
"서울특별시동작구청",서울특별시 동작구 사당로16가길 56(사당동 249-38),,생활방범,5,,,,,02-820-2906,37.4839032332,126.970580395,2020-03-24
"서울특별시동작구청",서울특별시 동작구 사당로16다길 92(사당동 231-12),,생활방범,4,,,,,02-820-2906,37.4844217042,126.968599273,2020-03-24
"서울특별시동작구청",서울특별시 동작구 대방동길 15-1(대방동 391-549),,생활방범,4,,,,,02-820-2906,37.5011155112,126.927499432,2020-03-24
"서울특별시동작구청",서울특별시 동작구 성대로5길 12(상도동 251-8),,생활방범,4,,,,,02-820-2906,37.4996235008,126.9337298184,2020-03-24
"서울특별시동작구청",서울특별시 동작구 신대방길 32(신대방동 617-9),,생활방범,4,,,,,02-820-2906,37.4881584626,126.9108587504,2020-03-24
"서울특별시동작구청",서울특별시 동작구 장승배기로94(노량진동 310-150),,생활방범,4,,,,,02-820-2906,37.5059557844,126.9405327563,2020-03-24
"서울특별시동작구청",서울특별시 동작구 장승배기로27길27(노량진동 242-11),,생활방범,4,,,,,02-820-2906,37.5112891156,126.9393205464,2020-03-24
"서울특별시동작구청",서울특별시 동작구 상도로37길 7(상도1동 668),,생활방범,4,,,,,02-820-2906,37.5029467069,126.9488271988,2020-03-24
"서울특별시동작구청",서울특별시 동작구 상도로13라길22(상도동 335-5),,생활방범,3,,,,,02-820-2906,37.5031140926,126.9307546152,2020-03-24
"서울특별시동작구청",서울특별시 동작구 상도로15길54(상도동 357-15),,생활방범,4,,,,,02-820-2906,37.5028207769,126.9346407909,2020-03-24
"서울특별시동작구청",서울특별시 동작구 성대로12길57(상도동 279-47),,생활방범,5,,,,,02-820-2906,37.4956610829,126.9374153043,2020-03-24
"서울특별시동작구청",서울특별시 동작구 서달로13길5-30(흑석동 102-30),,생활방범,3,,,,,02-820-2906,37.50769084,126.9616089217,2020-03-24
"서울특별시동작구청",서울특별시 동작구 장승배기로17길 31(노량진동 315-13),,생활방범,4,,,,,02-820-2906,37.5065818106,126.9384376564,2020-03-24
"서울특별시동작구청",서울특별시 동작구 남부순환로255길 7(사당동 1052-1),,생활방범,4,,,,,02-820-2906,37.4761979177,126.9710446749,2020-03-24
"서울특별시동작구청",서울특별시 동작구 동작대로33가길 5(사당동 83-2),,생활방범,5,,,,,02-820-2906,37.4897259829,126.9816458071,2020-03-24
"서울특별시동작구청",서울특별시 동작구 여의대방로26길54(대방동 411-29),,생활방범,4,,,,,02-820-2906,37.499152302,126.9233487271,2020-03-24
"서울특별시동작구청",서울특별시 동작구 신대방길62(신대방동 604-15),,생활방범,4,,,,,02-820-2906,37.4885540712,126.9097592173,2020-03-24
"서울특별시동작구청",서울특별시 동작구 성대로 1길 26,,생활방범,4,,,,,02-820-2906,37.5018514427,126.9349085339,2020-03-24
"서울특별시동작구청",서울특별시 동작구 성대로 21다길 34,,생활방범,3,,,,,02-820-2906,37.5007414663,126.9350225882,2020-03-24
"서울특별시동작구청",서울특별시 동작구 성대로 17길 52,,생활방범,4,,,,,02-820-2906,37.500158,126.935159,2020-03-24
"서울특별시동작구청",서울특별시 동작구 성대로 11길 22,,생활방범,4,,,,,02-820-2906,37.4985501335,126.9348661646,2020-03-24
"서울특별시동작구청",서울특별시 동작구 성대로 37길 27,,생활방범,4,,,,,02-820-2906,37.5004051731,126.9397093381,2020-03-24
"서울특별시동작구청",서울특별시 동작구 양녕로 25길 52-18,,생활방범,4,,,,,02-820-2906,37.496874,126.940733,2020-03-24
"서울특별시동작구청",서울특별시 동작구 양녕로 25가길 23,,생활방범,4,,,,,02-820-2906,37.4989215592,126.9421984665,2020-03-24
"서울특별시동작구청",서울특별시 동작구 양녕로 26길 68,,생활방범,5,,,,,02-820-2906,37.4956280483,126.943372545,2020-03-24
"서울특별시동작구청",서울특별시 동작구 성대로 29길 10,,생활방범,3,,,,,02-820-2906,37.4994538378,126.9399588983,2020-03-24
"서울특별시동작구청",서울특별시 동작구 양녕로 22바길 37,,생활방범,4,,,,,02-820-2906,37.4965523295,126.9469272209,2020-03-24
"서울특별시동작구청",서울특별시 동작구 장승배기로10가길 65(상도2동 175-29),,생활방범,4,,,,,02-820-2906,37.5021069742,126.9411012728,2020-03-24
"서울특별시동작구청",서울특별시 동작구 흑석로11길 7(흑석동 188-14),,생활방범,4,,,,,02-820-2906,37.5079174352,126.9602244426,2020-03-24
"서울특별시동작구청",서울특별시 동작구 신대방16길 35(신대방동 587-4),,생활방범,4,,,,,02-820-2906,37.4909538082,126.9090462135,2020-03-24
"서울특별시동작구청",서울특별시 동작구 여의대방로22바길 15(신대방1동 360-83),,생활방범,4,,,,,02-820-2906,37.4968384403,126.9232289605,2020-03-24
"서울특별시동작구청",서울특별시 동작구 만양로18길 27(노량진1동 148-53),,생활방범,3,,,,,02-820-2906,37.5130762911,126.9458794409,2020-03-24
"서울특별시동작구청",서울특별시 동작구 노량진로10길 75(노량진2동 249-61),,생활방범,4,,,,,02-820-2906,37.5100414757,126.9380683557,2020-03-24
"서울특별시동작구청",서울특별시 동작구 상도로 348(상도1동 475),,생활방범,5,,,,,02-820-2906,37.4972286161,126.9524046005,2020-03-24
"서울특별시동작구청",서울특별시 동작구 상도로13길 2(상도3동 327-13),,생활방범,4,,,,,02-820-2906,37.500050566,126.9305719772,2020-03-24
"서울특별시동작구청",서울특별시 동작구 흑석로7길 25(흑석동 203-7),,생활방범,4,,,,,02-820-2906,37.5078479761,126.9574059913,2020-03-24
"서울특별시동작구청",서울특별시 동작구 동작대로 9나길 17(사당1동 1034-11),,생활방범,4,,,,,02-820-2906,37.4792989117,126.9781164129,2020-03-24
"서울특별시동작구청",서울특별시 동작구 동작대로33라길 14(사당2동 91-57,,생활방범,6,,,,,02-820-2906,37.489905824,126.9794566428,2020-03-24
"서울특별시동작구청",서울특별시 동작구 보라매로 110(대방동 406-8),,생활방범,4,,,,,02-820-2906,37.4990978465,126.9284648945,2020-03-24
"서울특별시동작구청",서울특별시 동작구 신대방16가길 44(신대방1동 599-32),,생활방범,3,,,,,02-820-2906,37.4901739006,126.9119056893,2020-03-24
"서울특별시동작구청",서울특별시 동작구 대림로 19(신대방1동 693-15),,생활방범,4,,,,,02-820-2906,37.4870233404,126.9110545796,2020-03-24
"서울특별시동작구청",서울특별시 동작구 만양로16길 23(노량진동 119-168),,생활방범,3,,,,,02-820-2906,37.5120523348,126.9449798422,2020-03-24
"서울특별시동작구청",서울특별시 동작구 양녕로23길 125(상도3동 279-451),,생활방범,5,,,,,02-820-2906,37.4949038835,126.9367510145,2020-03-24
"서울특별시동작구청",서울특별시 동작구 성대로1길 16(상도4동 246-2),,생활방범,3,,,,,02-820-2906,37.5008417439,126.9338780217,2020-03-24
"서울특별시동작구청",서울특별시 동작구 흑석로6길 50(흑석동 211-9),,생활방범,4,,,,,02-820-2906,37.5057424618,126.9553307032,2020-03-24
"서울특별시동작구청",서울특별시 동작구 동작대로 129(사당2동 86-9),,생활방범,4,,,,,02-820-2906,37.4882916148,126.9818813478,2020-03-24
"서울특별시동작구청",서울특별시 동작구 사당로25길 12(사당3동 156-18),,생활방범,3,,,,,02-820-2906,37.4847012811,126.977689707,2020-03-24
"서울특별시동작구청",서울특별시 동작구 여의대방로36길 25(대방동 383-1),,생활방범,5,,,,,02-820-2906,37.5055534768,126.9240162468,2020-03-24
"서울특별시동작구청",서울특별시 동작구 등용로 10나길 26(대방동 44-121),,생활방범,3,,,,,02-820-2906,37.5102559963,126.934869567,2020-03-24
"서울특별시동작구청",서울특별시 동작구 여의대방로2길 31(신대방1동 492-182),,생활방범,3,,,,,02-820-2906,37.4936530542,126.9136204193,2020-03-24
"서울특별시동작구청",서울특별시 동작구 상도로41가길 16(상도1동 659),,생활방범,3,,,,,02-820-2906,37.503426753,126.9504961501,2020-03-24
"서울특별시동작구청",서울특별시 동작구 장승배기로9다길 11(상도동 184-104),,생활방범,4,,,,,02-820-2906,37.5023399265,126.9385316138,2020-03-24
"서울특별시동작구청",서울특별시 동작구 만양로16길 23(상도3동 335-99),,생활방범,2,,,,,02-820-2906,37.5120523348,126.9449798422,2020-03-24
"서울특별시동작구청",서울특별시 동작구 국사봉1라길 4(상도3동 377-1),,생활방범,4,,,,,02-820-2906,37.4943518814,126.9356659016,2020-03-24
"서울특별시동작구청",서울특별시 동작구 현충로14나길 10(흑석동 279-3),,생활방범,2,,,,,02-820-2906,37.5048244659,126.9699886074,2020-03-24
"서울특별시동작구청",서울특별시 동작구 동작대로33바길 20(사당2동 64-85),,생활방범,2,,,,,02-820-2906,37.4916535239,126.9780404396,2020-03-24
"서울특별시동작구청",서울특별시 동작구 사당로16길 156(사당4동 303-52),,생활방범,4,,,,,02-820-2906,37.4778553486,126.9693527141,2020-03-24
"서울특별시동작구청",서울특별시 동작구 사당로10길 28(사당5동 245-1),,생활방범,3,,,,,02-820-2906,37.4839786029,126.9693411679,2020-03-24
"서울특별시동작구청",서울특별시 동작구 대방동2길 43(대방동 392-19),,생활방범,3,,,,,02-820-2906,37.5027369356,126.9268735868,2020-03-24
"서울특별시동작구청",서울특별시 동작구 성대로12가길 6(상도4동 279-17),,생활방범,4,,,,,02-820-2906,37.4967670673,126.9365685076,2020-03-24
"서울특별시동작구청",서울특별시 동작구 여의대방로36길 79(대방동 15-46),,생활방범,3,,,,,02-820-2906,37.5073623378,126.9292441899,2020-03-24
"서울특별시동작구청",서울특별시 동작구 상도로38길 3-42(상도동 159-305),,생활방범,3,,,,,02-820-2906,37.5006258613,126.9491635308,2020-03-24
"서울특별시동작구청",,서울특별시 동작구 대방동 23-176,생활방범,5,,,,,02-820-2906,37.5108548377,126.9295892597,2020-03-24
"서울특별시동작구청",,서울특별시 동작구 대방동 23-181,생활방범,2,,,,,02-820-2906,37.5048544155,126.9300427592,2020-03-24
"서울특별시동작구청",,서울특별시 동작구 노량진1동 152-3,생활방범,3,,,,,02-820-2906,37.513481,126.949172,2020-03-24
"서울특별시동작구청",,서울특별시 동작구 흑석동 141-2,생활방범,6,,,,,02-820-2906,37.5106681297,126.9627655994,2020-03-24
"서울특별시동작구청",,서울특별시 동작구 사당2동 326,생활방범,4,,,,,02-820-2906,37.502832,126.978479,2020-03-24
"서울특별시동작구청",,서울특별시 동작구 대방동 466-75,생활방범,4,,,,,02-820-2906,37.498183,126.921951,2020-03-24
"서울특별시동작구청",,서울특별시 동작구 사당4동 300-26,생활방범,1,,,,,02-820-2906,37.480192,126.969925,2020-03-24
"서울특별시동작구청",,서울특별시 동작구 상도4동 211-415,생활방범,1,,,,,02-820-2906,37.498835,126.944981,2020-03-24
"서울특별시동작구청",,서울특별시 동작구 노량진1동 483,생활방범,4,,,,,02-820-2906,37.510694,126.954264,2020-03-24
"서울특별시동작구청",,서울특별시 동작구 상도3동 335-141,생활방범,1,,,,,02-820-2906,37.500643,126.930222,2020-03-24
"서울특별시동작구청",,서울특별시 동작구 신대방1동 492-222,생활방범,2,,,,,02-820-2906,37.494448,126.912491,2020-03-24
"서울특별시동작구청",,서울특별시 동작구 상도4동 산65-150,생활방범,1,,,,,02-820-2906,37.496129,126.939241,2020-03-24
"서울특별시동작구청",,서울특별시 동작구 사당2동 산20-4,생활방범,2,,,,,02-820-2906,37.496589,126.978767,2020-03-24
"서울특별시동작구청",서울특별시 동작구 상도로68길 29(상도1동 126-18),,생활방범,4,,,,,02-820-2906,37.4923716572,126.9556688554,2020-03-24
"서울특별시동작구청",,서울특별시 동작구 상도1동 508,생활방범,2,,,,,02-820-2906,37.506938,126.951721,2020-03-24
"서울특별시동작구청",,서울특별시 동작구 상도2동 521-1,생활방범,1,,,,,02-820-2906,37.503157,126.942867,2020-03-24
"서울특별시동작구청",,서울특별시 동작구 사당4동 316-23,생활방범,2,,,,,02-820-2906,37.481829,126.973922,2020-03-24
"서울특별시동작구청",,서울특별시 동작구 상도1동 산58,생활방범,1,,,,,02-820-2906,37.493729,126.952993,2020-03-24
"서울특별시동작구청",,서울특별시 동작구 상도2동 362-46,생활방범,4,,,,,02-820-2906,37.506877,126.935259,2020-03-24
"서울특별시동작구청",,서울특별시 동작구 상도3동 356-221,생활방범,1,,,,,02-820-2906,37.503902,126.932515,2020-03-24
"서울특별시동작구청",,서울특별시 동작구 노량진1동 325-2,생활방범,4,,,,,02-820-2906,37.508747,126.943188,2020-03-24
"서울특별시동작구청",,서울특별시 동작구 노량진1동 126-450,생활방범,1,,,,,02-820-2906,37.507588,126.954251,2020-03-24
"서울특별시동작구청",,서울특별시 동작구 노량진1동 486,생활방범,1,,,,,02-820-2906,37.509515,126.955397,2020-03-24
"서울특별시동작구청",,서울특별시 동작구 상도3동 산80-31,생활방범,2,,,,,02-820-2906,37.493161,126.935217,2020-03-24
"서울특별시동작구청",,서울특별시 동작구 사당5동 32-56,생활방범,1,,,,,02-820-2906,37.485484,126.967198,2020-03-24
"서울특별시동작구청",,서울특별시 동작구 상도1동 424,생활방범,1,,,,,02-820-2906,37.501598,126.951054,2020-03-24
"서울특별시동작구청",,서울특별시 동작구 사당5동 233-12,생활방범,1,,,,,02-820-2906,37.483475,126.967874,2020-03-24
"서울특별시동작구청",,서울특별시 동작구 대방동 362-11,생활방범,1,,,,,02-820-2906,37.506581,126.925766,2020-03-24
"서울특별시동작구청",,서울특별시 동작구 흑석동 293-4,생활방범,1,,,,,02-820-2906,37.503954,126.967973,2020-03-24
"서울특별시동작구청",,서울특별시 동작구 사당1동 1028-1,생활방범,3,,,,,02-820-2906,37.480565,126.980006,2020-03-24
"서울특별시동작구청",,서울특별시 동작구 사당3동 산24-17,생활방범,3,,,,,02-820-2906,37.485543,126.974931,2020-03-24
"서울특별시동작구청",,서울특별시 동작구 상도2동 529-1,생활방범,1,,,,,02-820-2906,37.504794,126.943821,2020-03-24
"서울특별시동작구청",,서울특별시 동작구 상도1동 415-1,생활방범,6,,,,,02-820-2906,37.500072,126.949559,2020-03-24
"서울특별시동작구청",,서울특별시 동작구 상도3동 259-116,생활방범,1,,,,,02-820-2906,37.496979,126.933958,2020-03-24
"서울특별시동작구청",,서울특별시 동작구 사당3동 220-6,생활방범,2,,,,,02-820-2906,37.486845,126.969743,2020-03-24
"서울특별시동작구청",,서울특별시 동작구 신대방1동 492-222,생활방범,1,,,,,02-820-2906,37.494121,126.913051,2020-03-24
"서울특별시동작구청",,서울특별시 동작구 상도4동 산65-149,생활방범,1,,,,,02-820-2906,37.495444,126.940759,2020-03-24
"서울특별시동작구청",,서울특별시 동작구 상도4동 산65-235,생활방범,1,,,,,02-820-2906,37.492494,126.943075,2020-03-24
"서울특별시동작구청",,서울특별시 동작구 사당5동 205-18,생활방범,1,,,,,02-820-2906,37.485934,126.964387,2020-03-24
"서울특별시동작구청",,서울특별시 동작구 흑석동 335-10,생활방범,1,,,,,02-820-2906,37.506651,126.964084,2020-03-24
"서울특별시동작구청",,서울특별시 동작구 사당5동 산32-76,생활방범,1,,,,,02-820-2906,37.482204,126.969545,2020-03-24
"서울특별시동작구청",,서울특별시 동작구 사당4동 1000-13,생활방범,1,,,,,02-820-2906,37.478152,126.970144,2020-03-24
"서울특별시동작구청",,서울특별시 동작구 사당4동 316-33,생활방범,1,,,,,02-820-2906,37.480051,126.973159,2020-03-24
"서울특별시동작구청",,서울특별시 동작구 사당1동 316-37,생활방범,1,,,,,02-820-2906,37.479996,126.974022,2020-03-24
"서울특별시동작구청",,서울특별시 동작구 사당1동 1043-14,생활방범,3,,,,,02-820-2906,37.476951,126.980634,2020-03-24
"서울특별시동작구청",,서울특별시 동작구 사당3동 1157-1,생활방범,2,,,,,02-820-2906,37.488404,126.974281,2020-03-24
"서울특별시동작구청",,서울특별시 동작구 사당2동 333-3,생활방범,3,,,,,02-820-2906,37.493871,126.980199,2020-03-24
"서울특별시동작구청",,서울특별시 동작구 상도3동 296-6,생활방범,2,,,,,02-820-2906,37.496645,126.932071,2020-03-24
"서울특별시동작구청",,서울특별시 동작구 상도2동 25-8,생활방범,2,,,,,02-820-2906,37.505471,126.941989,2020-03-24
"서울특별시동작구청",,서울특별시 동작구 사당5동 1138-1,생활방범,2,,,,,02-820-2906,37.486202,126.965725,2020-03-24
"서울특별시동작구청",,서울특별시 동작구 상도1동 426,생활방범,2,,,,,02-820-2906,37.5015598907,126.9505471432,2020-03-24
"서울특별시동작구청",,서울특별시 동작구 사당5동 1144,생활방범,2,,,,,02-820-2906,37.487415,126.965383,2020-03-24
"서울특별시동작구청",,서울특별시 동작구 상도3동 299-193,생활방범,2,,,,,02-820-2906,37.495177,126.929625,2020-03-24
"서울특별시동작구청",,서울특별시 동작구 노량진2동 314-95,생활방범,1,,,,,02-820-2906,37.506493,126.937574,2020-03-24
"서울특별시동작구청",,서울특별시 동작구 상도2동 16-18,생활방범,1,,,,,02-820-2906,37.506531,126.949769,2020-03-24
"서울특별시동작구청",,서울특별시 동작구 상도2동 16-18,생활방범,1,,,,,02-820-2906,37.506467,126.949816,2020-03-24
"서울특별시동작구청",,서울특별시 사당3동 164-52,생활방범,1,,,,,02-820-2906,37.487257,126.974419,2020-03-24
"서울특별시동작구청",,서울특별시 동작구 상도1동 558,생활방범,3,,,,,02-820-2906,37.505986161,126.9518335481,2020-03-24
"서울특별시동작구청",서울특별시 동작구 노량진로26길 16-40 (노량진1동 50-8) 본동초,,어린이보호,1,,,,,02-820-2906,37.5099261605,126.9538533264,2020-03-24
"서울특별시동작구청",서울특별시 동작구 사당로23나길 27(사당3동 105-23) 삼일초,,어린이보호,1,,,,,02-820-2906,37.4882579623,126.9751874985,2020-03-24
"서울특별시동작구청",서울특별시 동작구 만양로12가길 69(노량진1동 441-11) 영본초,,어린이보호,1,,,,,02-820-2906,37.5112971535,126.9486721977,2020-03-24
"서울특별시동작구청",서울특별시 동작구 현충로 87(흑석동 7-1) 흑석초,,어린이보호,1,,,,,02-820-2906,37.508293804,126.9651328752,2020-03-24
"서울특별시동작구청",서울특별시 동작구 알마타길 16(대방동 351-6) 신길초,,어린이보호,1,,,,,02-820-2906,37.5100779624,126.9262918534,2020-03-24
"서울특별시동작구청",서울특별시 동작구 서달로 135(흑석동 233-2) 중대부속초,,어린이보호,1,,,,,02-820-2906,37.5054521002,126.9596783571,2020-03-24
"서울특별시동작구청",서울특별시 동작구 동작대로29길 214(사당2동 산 9-1) 동작초,,어린이보호,1,,,,,02-820-2906,37.4941147813,126.9765108674,2020-03-24
"서울특별시동작구청",서울특별시 동작구 등용로8길 3(대방동 44-3) 영화초,,어린이보호,1,,,,,02-820-2906,37.5089070338,126.9329751321,2020-03-24
"서울특별시동작구청",서울특별시 동작구 사당로 146(사당5동 199-1) 신남성초 후문,,어린이보호,1,,,,,02-820-2906,37.4881508283,126.9648708672,2020-03-24
"서울특별시동작구청",서울특별시 동작구 성대로17길 52,,어린이보호,4,,,,,02-820-2906,37.499511,126.935181,2020-03-24
"서울특별시동작구청",서울특별시 동작구 강남초등길 15(상도1동 501-1) 강남초,,어린이보호,1,,,,,02-820-2906,37.5061597658,126.9533580097,2020-03-24
"서울특별시동작구청",서울특별시 동작구 장승배기로10길 130,,어린이보호,5,,,,,02-820-2906,37.5020186523,126.9447836390,2020-03-24
"서울특별시동작구청",서울특별시 동작구 성대로29길 79(상도4동 238),,어린이보호,4,,,,,02-820-2906,37.5011532772,126.9367774090,2020-03-24
"서울특별시동작구청",서울특별시 동작구 상도로 59,,어린이보호,4,,,,,02-820-2906,37.5000448691,126.9270978679,2020-03-24
"서울특별시동작구청",서울특별시 동작구 여의대방로16길 30(신대방2동 488-1),,어린이보호,4,,,,,02-820-2906,37.4958533304,126.9161464285,2020-03-24
"서울특별시동작구청",서울특별시 동작구 동작대로13길 22(사당1동 1011-1),,어린이보호,4,,,,,02-820-2906,37.4819442959,126.9782332263,2020-03-24
"서울특별시동작구청",서울특별시 동작구 사당로23길 60,,어린이보호,3,,,,,02-820-2906,37.4861351884,126.9751927233,2020-03-24
"서울특별시동작구청",서울특별시 동작구 솔밭로 47(사당5동 산 32-87),,어린이보호,3,,,,,02-820-2906,37.4828060747,126.9649638207,2020-03-24
"서울특별시동작구청",서울특별시 동작구 장승배기로 146(노량진1동 236-13),,어린이보호,4,,,,,02-820-2906,37.5105219879,126.9403572136,2020-03-24
"서울특별시동작구청",서울특별시 동작구 흑석로 12(상도1동 489-2),,어린이보호,4,,,,,02-820-2906,37.5047716910,126.9520424264,2020-03-24
"서울특별시동작구청",서울특별시 동작구 장승배기로26길 17,,어린이보호,4,,,,,02-820-2906,37.5119785378,126.9414102181,2020-03-24
"서울특별시동작구청",서울특별시 동작구 신대방2길 12,,어린이보호,3,,,,,02-820-2906,37.4879908177,126.9132017907,2020-03-24
"서울특별시동작구청",서울특별시 동작구 장승배기로 164,,어린이보호,2,,,,,02-820-2906,37.5123132042,126.9403965072,2020-03-24
"서울특별시동작구청",서울특별시 동작구 사당로23길 112,,어린이보호,4,,,,,02-820-2906,37.4877494011,126.9733830512,2020-03-24
"서울특별시동작구청",서울특별시 동작구 성대로21길 59,,어린이보호,2,,,,,02-820-2906,37.5005332933,126.9366060343,2020-03-24
"서울특별시동작구청",서울특별시 동작구 여의대방로46길 28,,어린이보호,4,,,,,02-820-2906,37.5110545544,126.9261370686,2020-03-24
"서울특별시동작구청",서울특별시 동작구 사당로2가길 133,,어린이보호,3,,,,,02-820-2906,37.4884496559,126.9638530775,2020-03-24
"서울특별시동작구청",서울특별시 동작구 만양로12가길 60,,어린이보호,3,,,,,02-820-2906,37.5114304292,126.9485047083,2020-03-24
"서울특별시동작구청",서울특별시 동작구 서달로 167(흑석동 102-1),,어린이보호,3,,,,,02-820-2906,37.5080804533,126.9627940291,2020-03-24
"서울특별시동작구청",서울특별시 동작구 양녕로 28길 25(상도4동 212-129) 서울삼성학교,,어린이보호,4,,,,,02-820-2906,37.4984436408,126.9451707681,2020-03-24
"서울특별시동작구청",서울특별시 동작구 장승배기로20길 20(노량진2동 225-36),,어린이보호,4,,,,,02-820-2906,37.5089185863,126.9411275901,2020-03-24
"서울특별시동작구청",서울특별시 동작구 성대로6길 10,,어린이보호,3,,,,,02-820-2906,37.4990246346,126.9326718428,2020-03-24
"서울특별시동작구청",서울특별시 동작구 보라매로 19길 16-1(신대방2동 349-25),,어린이보호,3,,,,,02-820-2906,37.4980266139,126.9270953065,2020-03-24
"서울특별시동작구청",서울특별시 동작구 사당로23길 112,,어린이보호,3,,,,,02-820-2906,37.4877494011,126.9733830512,2020-03-24
"서울특별시동작구청",서울특별시 동작구 성대로6가길 152,,어린이보호,3,,,,,02-820-2906,37.4938151759,126.9362091473,2020-03-24
"서울특별시동작구청",서울특별시 동작구 여의대방로36길 13,,어린이보호,4,,,,,02-820-2906,37.5048357770,126.9232433915,2020-03-24
"서울특별시동작구청",서울특별시 동작구 서달로2길 29,,어린이보호,4,,,,,02-820-2906,37.5018959310,126.9627247189,2020-03-24
"서울특별시동작구청",서울특별시 동작구 양녕로36길 17(상도1동 159-221),,어린이보호,3,,,,,02-820-2906,37.5023006183,126.9466381578,2020-03-24
"서울특별시동작구청",서울특별시 동작구 상도로58길 16,,어린이보호,3,,,,,02-820-2906,37.4951741954,126.9520937971,2020-03-24
"서울특별시동작구청",서울특별시 동작구 여의대방로24가길 22,,어린이보호,4,,,,,02-820-2906,37.4992085315,126.9211683252,2020-03-24
"서울특별시동작구청",서울특별시 동작구 여의대방로10길 59,,어린이보호,4,,,,,02-820-2906,37.4951137431,126.9150797593,2020-03-24
"서울특별시동작구청",서울특별시 동작구 등용로 86,,어린이보호,4,,,,,02-820-2906,37.5088994802,126.9323689066,2020-03-24
"서울특별시동작구청",서울특별시 동작구 만양로 26 (건영아파트상가 현대부동산앞 보도),,어린이보호,5,,,,,02-820-2906,37.5076322421,126.9495433237,2020-03-24
"서울특별시동작구청",서울특별시 동작구 장승배기로 13,,어린이보호,4,,,,,02-820-2906,37.4997255667,126.9428356698,2020-03-24
"서울특별시동작구청",서울특별시 동작구 흑석로 27,,어린이보호,4,,,,,02-820-2906,37.5051399758,126.9537341274,2020-03-24
"서울특별시동작구청",서울특별시 동작구 사당로23길 112,,어린이보호,4,,,,,02-820-2906,37.4877494011,126.9733830512,2020-03-24
"서울특별시동작구청",서울특별시 동작구 동작대로39가길 83,,어린이보호,4,,,,,02-820-2906,37.4954629377,126.9778041121,2020-03-24
"서울특별시동작구청",서울특별시 동작구 서달로 83 (우리유앤미아파트102동 관리사무소 담장),,어린이보호,4,,,,,02-820-2906,37.5004281554,126.9598620032,2020-03-24
"서울특별시동작구청",서울특별시 동작구 서달로 153,,어린이보호,4,,,,,02-820-2906,37.5071754564,126.9615820416,2020-03-24
"서울특별시동작구청",서울특별시 동작구 사당로10길 102,,어린이보호,4,,,,,02-820-2906,37.4820353313,126.9667641361,2020-03-24
"서울특별시동작구청",서울특별시 동작구 사당로16마길 73,,어린이보호,3,,,,,02-820-2906,37.4826484628,126.9683874558,2020-03-24
"서울특별시동작구청",서울특별시 동작구 흑석로 115-3,,어린이보호,5,,,,,02-820-2906,37.5088512647,126.9613956939,2020-03-24
"서울특별시동작구청",서울특별시 동작구 상도로58길 4,,어린이보호,5,,,,,02-820-2906,37.4959206102,126.9530432214,2020-03-24
"서울특별시동작구청",서울특별시 동작구 만양로13가길 34-1,,어린이보호,3,,,,,02-820-2906,37.5086426598,126.9443942112,2020-03-24
"서울특별시동작구청",서울특별시 동작구 장승배기로16길 115(노량진2동 225-158),,어린이보호,4,,,,,02-820-2906,37.5097339385,126.9428461350,2020-03-24
"서울특별시동작구청",서울특별시 동작구 양녕로26길 11,,어린이보호,4,,,,,02-820-2906,37.4987496043,126.9443608363,2020-03-24
"서울특별시동작구청",서울특별시 동작구 성대로21길 16,,어린이보호,4,,,,,02-820-2906,37.4988541930,126.9373085986,2020-03-24
"서울특별시동작구청",서울특별시 동작구 신대방11길 32,,어린이보호,5,,,,,02-820-2906,37.4887940607,126.9078412158,2020-03-24
"서울특별시동작구청",서울특별시 동작구 여의대방로44길 49 (대방주공 2단지아파트 207동 앞 보도),,어린이보호,3,,,,,02-820-2906,37.5089625077,126.9292200589,2020-03-24
"서울특별시동작구청",서울특별시 동작구 여의대방로 56-9,,어린이보호,3,,,,,02-820-2906,37.4955302291,126.9129080970,2020-03-24
"서울특별시동작구청",서울특별시 동작구 장승배기로5길 18,,어린이보호,3,,,,,02-820-2906,37.5012954840,126.9399393291,2020-03-24
"서울특별시동작구청",서울특별시 동작구 양녕로25길 71,,어린이보호,4,,,,,02-820-2906,37.4961890644,126.9408978465,2020-03-24
"서울특별시동작구청",서울특별시 동작구 흑석로 47,,어린이보호,3,,,,,02-820-2906,37.5064741785,126.9555971818,2020-03-24
"서울특별시동작구청",서울특별시 동작구 상도로41가길 15,,어린이보호,5,,,,,02-820-2906,37.5035527454,126.9501432106,2020-03-24
"서울특별시동작구청",서울특별시 동작구 국사봉1길 235-1,,어린이보호,3,,,,,02-820-2906,37.4932600531,126.9360196459,2020-03-24
"서울특별시동작구청",서울특별시 동작구 여의대방로24길 113,,어린이보호,4,,,,,02-820-2906,37.4993055704,126.9263341081,2020-03-24
"서울특별시동작구청",서울특별시 동작구 매봉로2길 1,,어린이보호,4,,,,,02-820-2906,37.5073197181,126.9520046042,2020-03-24
"서울특별시동작구청",서울특별시 동작구 동작대로17길 37,,어린이보호,4,,,,,02-820-2906,37.4828055257,126.9775138913,2020-03-24
"서울특별시동작구청",서울특별시 동작구 사당로4길 46,,어린이보호,4,,,,,02-820-2906,37.499871,126.961931,2020-03-24
"서울특별시동작구청",서울특별시 동작구 사당로13길 31,,어린이보호,4,,,,,02-820-2906,37.4854280241,126.9717466552,2020-03-24
"서울특별시동작구청",서울특별시 동작구 상도로50길 36-1(샛별유치원),,어린이보호,2,,,,,02-820-2906,37.4980458560,126.9502825760,2020-03-24
"서울특별시동작구청",서울특별시 동작구 서달로12길 89-19(큰별어린이집),,어린이보호,3,,,,,02-820-2906,37.5043725807,126.9649673165,2020-03-24
"서울특별시동작구청",서울특별시 동작구 사당로8나길 1(사당5동 233-11),,어린이보호,3,,,,,02-820-2906,37.4839026788,126.9684321535,2020-03-24
"서울특별시동작구청",서울특별시 동작구 양녕로20길 112,,어린이보호,3,,,,,02-820-2906,37.4972218850,126.9451897550,2020-03-24
"서울특별시동작구청",서울특별시 동작구 성대로10길 27,,어린이보호,3,,,,,02-820-2906,37.4968204458,126.9353109594,2020-03-24
"서울특별시동작구청",서울특별시 동작구 동작대로35아길 32,,어린이보호,4,,,,,02-820-2906,37.4935528302,126.9779494197,2020-03-24
"서울특별시동작구청",서울특별시 동작구 상도로 47길 108 (상도1동 486),,어린이보호,3,,,,,02-820-2906,37.5040364432,126.9519750393,2020-03-24
"서울특별시동작구청",서울특별시 동작구 장승배기로 160(노량진1동 51),,어린이보호,3,,,,,02-820-2906,37.5117511917,126.9408222377,2020-03-24
"서울특별시동작구청",서울특별시 동작구 여의대방로 256(대방동 500) 성원아파트 102동 앞,,어린이보호,3,,,,,02-820-2906,37.5094533535,126.9245280474,2020-03-24
"서울특별시동작구청",서울특별시 동작구 알마타길 29(대방동 349-3),,어린이보호,3,,,,,02-820-2906,37.5113368900,126.9281184197,2020-03-24
"서울특별시동작구청",서울특별시 동작구 장승배기로 4(상도2동 207-5),,어린이보호,4,,,,,02-820-2906,37.4993116137,126.9438990179,2020-03-24
"서울특별시동작구청",서울특별시 동작구 서달로 112(흑석동 86-188),,어린이보호,3,,,,,02-820-2906,37.5035280204,126.9610727215,2020-03-24
"서울특별시동작구청",서울특별시 동작구 사당로 138(사당5동 200-8),,어린이보호,3,,,,,02-820-2906,37.4889583758,126.9657027061,2020-03-24
"서울특별시동작구청",서울특별시 동작구 상도로50길 33(상도1동 470-8),,어린이보호,3,,,,,02-820-2906,37.4973251176,126.9504413737,2020-03-24
"서울특별시동작구청",서울특별시 동작구 성대로12길 1(상도4동 263-8),,어린이보호,4,,,,,02-820-2906,37.4975304459,126.9353239172,2020-03-24
"서울특별시동작구청",서울특별시 동작구 서달로2길 2,,어린이보호,3,,,,,02-820-2906,37.499711,126.960761,2020-03-24
"서울특별시동작구청",서울특별시 동작구 흑석한강로 11(흑석동 335-2),,어린이보호,3,,,,,02-820-2906,37.5057786193,126.9665907515,2020-03-24
"서울특별시동작구청",서울특별시 동작구 동작대로17길 20(사당1동 1004-45),,어린이보호,4,,,,,02-820-2906,37.4828959822,126.9794676073,2020-03-24
"서울특별시동작구청",서울특별시 동작구 여의대방로36길 79(대방동 15-46),,어린이보호,3,,,,,02-820-2906,37.5073623378,126.9292441899,2020-03-24
"서울특별시동작구청",서울특별시 동작구 강남초등길 7(강남초교병설유치원),,어린이보호,4,,,,,02-820-2906,37.5065882013,126.9522493676,2020-03-24
"서울특별시동작구청",서울특별시 동작구 사당로17길 49(남성초교병설유치원),,어린이보호,4,,,,,02-820-2906,37.4853346277,126.9730673189,2020-03-24
"서울특별시동작구청",서울특별시 동작구 신대방2길 42(문창초교병설유치원),,어린이보호,5,,,,,02-820-2906,37.4889668646,126.9123277382,2020-03-24
"서울특별시동작구청",서울특별시 동작구 성대로 21길 2(상도동 244-291) 상도초등학교,,어린이보호,5,,,,,02-820-2906,37.4981946856,126.9373634317,2020-03-24
"서울특별시동작구청",서울특별시 동작구 동작대로41길 2(동작동 102-35) 하랑숲유치원,,어린이보호,3,,,,,02-820-2906,37.4957916660,126.9823182991,2020-03-24
"서울특별시동작구청",서울특별시 동작구 여의대방로 46길 성원아파트 앞,,어린이보호,4,,,,,02-820-2906,37.510921,126.926591,2020-03-24
"서울특별시동작구청",서울특별시 동작구 대방동길 3,,어린이보호,3,,,,,02-820-2906,37.5001750721,126.9278441344,2020-03-24
"서울특별시동작구청",서울특별시 동작구 양녕로170,,어린이보호,4,,,,,02-820-2906,37.4970013117,126.9436429122,2020-03-24
"서울특별시동작구청",서울특별시 동작구 상도로56길 15,,어린이보호,3,,,,,02-820-2906,37.4953255204,126.9519851412,2020-03-24
"서울특별시동작구청",서울특별시 동작구 양녕로 30길 24,,어린이보호,4,,,,,02-820-2906,37.4990239138,126.9452246261,2020-03-24
"서울특별시동작구청",서울특별시 동작구 만양로 19,,어린이보호,4,,,,,02-820-2906,37.5070719245,126.9457209115,2020-03-24
"서울특별시동작구청",서울특별시 동작구 만양로 8길 50,,어린이보호,3,,,,,02-820-2906,37.5103052507,126.9468677186,2020-03-24
"서울특별시동작구청",서울특별시 동작구 등용로 66,,어린이보호,4,,,,,02-820-2906,37.5070362784,126.9325017838,2020-03-24
"서울특별시동작구청",서울특별시 동작구 매봉로 134,,어린이보호,4,,,,,02-820-2906,37.5101486633,126.9514915587,2020-03-24
"서울특별시동작구청",서울특별시 동작구 장승배기로4길(더샵 1차 105동 앞),,어린이보호,3,,,,,02-820-2906,37.501019,126.943881,2020-03-24
"서울특별시동작구청",서울특별시 동작구 사당로23나길 27(사당3동 105-22 ),,어린이보호,4,,,,,02-820-2906,37.4882579623,126.975792,2020-03-24
"서울특별시동작구청",서울특별시 동작구 양녕로29길 39(상도4동 203-19),,차량방범,2,,,,,02-820-2906,37.4998296599,126.9419670643,2020-03-24
"서울특별시동작구청",서울특별시 동작구 양녕로29길 22(상도4동 203-29),,차량방범,1,,,,,02-820-2906,37.4995237786,126.9429127241,2020-03-24
"서울특별시동작구청",서울특별시 동작구 양녕로26가길 4(상도4동 211-15),,차량방범,1,,,,,02-820-2906,37.4980361139,126.9445875389,2020-03-24
"서울특별시동작구청",서울특별시 동작구 양녕로26가길 4-7(상도4동 211-13),,차량방범,1,,,,,02-820-2906,37.4979857972,126.9448861247,2020-03-24
"서울특별시동작구청",서울특별시 동작구 양녕로22가길 60(상도4동 214-322),,차량방범,1,,,,,02-820-2906,37.4968972061,126.9445114827,2020-03-24
"서울특별시동작구청",서울특별시 동작구 양녕로20길 82(상도4동 214-87),,차량방범,1,,,,,02-820-2906,37.4959422243,126.9446931229,2020-03-24
"서울특별시동작구청",서울특별시 동작구 양녕로22길 21 (상도4동 214-71),,차량방범,1,,,,,02-820-2906,37.4943561226,126.9439931897,2020-03-24
"서울특별시동작구청",서울특별시 동작구 양녕로22다길 1 (상도4동 214-185),,차량방범,1,,,,,02-820-2906,37.4958091240,126.9452269742,2020-03-24
"서울특별시동작구청",서울특별시 동작구 양녕로22길 77 (상도4동 214-402),,차량방범,1,,,,,02-820-2906,37.4952507339,126.9457339913,2020-03-24
"서울특별시동작구청",서울특별시 동작구 양녕로26나길 41(상도4동 214-363),,차량방범,1,,,,,02-820-2906,37.4968511630,126.9462620704,2020-03-24
"서울특별시동작구청",서울특별시 동작구 양녕로26나길 49,,차량방범,1,,,,,02-820-2906,37.496381,126.946501,2020-03-24
"서울특별시동작구청",서울특별시 동작구 양녕로 22바길 26(상도4동 214-299),,차량방범,1,,,,,02-820-2906,37.4961306220,126.9468460990,2020-03-24
"서울특별시동작구청",서울특별시 동작구 신대방1나길 46 (신대방1동 686-23),,차량방범,4,,,,,02-820-2906,37.4861729989,126.9066549525,2020-03-24
"서울특별시동작구청",서울특별시 동작구 신대방1나길 54(신대방1동 686-50),,차량방범,4,,,,,02-820-2906,37.4860248468,126.9061666809,2020-03-24
"서울특별시동작구청",서울특별시 동작구 신대방13길 33(신대방1동 689-16),,차량방범,1,,,,,02-820-2906,37.4881930473,126.9089500576,2020-03-24
"서울특별시동작구청",서울특별시 동작구 국사봉길 71(상도3동 298-13),,차량방범,1,,,,,02-820-2906,37.4967386282,126.9308464467,2020-03-24
"서울특별시동작구청",서울특별시 동작구 국사봉8길 21(상도3동 299-83),,차량방범,1,,,,,02-820-2906,37.4958770088,126.9304084776,2020-03-24
"서울특별시동작구청",서울특별시 동작구 국사봉10길 32-1(상도3동 299-126),,차량방범,1,,,,,02-820-2906,37.4946305167,126.9312645304,2020-03-24
"서울특별시동작구청",서울특별시 동작구 국사봉길 87(상도3동 294-15),,차량방범,1,,,,,02-820-2906,37.4961982648,126.9312585702,2020-03-24
"서울특별시동작구청",서울특별시 동작구 국사봉길 98(상도3동 299-14),,차량방범,1,,,,,02-820-2906,37.4956542121,126.9315259449,2020-03-24
"서울특별시동작구청",서울특별시 동작구 국사봉12길 11(상도3동 299-16),,차량방범,1,,,,,02-820-2906,37.4952435573,126.9318791370,2020-03-24
"서울특별시동작구청",서울특별시 동작구 국사봉1가길 15(상도3동 288-12),,차량방범,1,,,,,02-820-2906,37.4949596395,126.9332816116,2020-03-24
"서울특별시동작구청",서울특별시 동작구 동작대로19길 39(사당1동 1004-40),,차량방범,4,,,,,02-820-2906,37.4834293832,126.9794900742,2020-03-24
"서울특별시동작구청",서울특별시 동작구 동작대로13길 18(사당1동 1010-1),,차량방범,4,,,,,02-820-2906,37.4819373386,126.9796397244,2020-03-24
"서울특별시동작구청",서울특별시 동작구 동작대로11길 42(사당1동 1017-28),,차량방범,4,,,,,02-820-2906,37.4813426114,126.9792871339,2020-03-24
"서울특별시동작구청",서울특별시 동작구 사당로26길 71(사당1동 1026-1),,차량방범,3,,,,,02-820-2906,37.4806468348,126.9781883784,2020-03-24
"서울특별시동작구청",서울특별시 동작구 사당로26길 48(사당1동 1016-46),,차량방범,5,,,,,02-820-2906,37.4817496404,126.9780297709,2020-03-24
"서울특별시동작구청",서울특별시 동작구 동작대로17길 33(사당1동 1012-40),,차량방범,5,,,,,02-820-2906,37.4827876117,126.9780792150,2020-03-24
"서울특별시동작구청",서울특별시 동작구 동작대로15길 84 (사당1동 1012-5),,차량방범,4,,,,,02-820-2906,37.4824702415,126.9769486758,2020-03-24
"서울특별시동작구청",서울특별시 동작구 사당로22길 60 (사당1동 426-17),,차량방범,1,,,,,02-820-2906,37.4807691146,126.9768361378,2020-03-24
"서울특별시동작구청",서울특별시 동작구 동작대로11길 27(사당1동 1020-20),,차량방범,4,,,,,02-820-2906,37.4811589272,126.9799926866,2020-03-24
"서울특별시동작구청",서울특별시 동작구 국사봉7길 13(상도3동 303-18),,차량방범,1,,,,,02-820-2906,37.4973082673,126.9311942248,2020-03-24
"서울특별시동작구청",서울특별시 동작구 국사봉1길 122(상도3동 294-46),,차량방범,3,,,,,02-820-2906,37.4962276122,126.9321496445,2020-03-24
"서울특별시동작구청",서울특별시 동작구 국사봉8길 12(상도3동 299-59),,차량방범,1,,,,,02-820-2906,37.4961868615,126.9302498727,2020-03-24
"서울특별시동작구청",서울특별시 동작구 사당로23길 56(사당3동 708-610),,차량방범,3,,,,,02-820-2906,37.4860811893,126.9754867196,2020-03-24
"서울특별시동작구청",서울특별시 동작구 사당로16길 36-19 (사당4동 277-1),,차량방범,3,,,,,02-820-2906,37.4823105294,126.9717252165,2020-03-24
"서울특별시동작구청",서울특별시 동작구 사당로16길 44 (사당4동 275-39),,차량방범,3,,,,,02-820-2906,37.4818061185,126.9723766448,2020-03-24
"서울특별시동작구청",서울특별시 동작구 사당로16길 51-8(사당동 314-16),,차량방범,2,,,,,02-820-2906,37.4812619597,126.9725939229,2020-03-24
"서울특별시동작구청",서울특별시 동작구 사당로 20 나길58-14(사당4동 311-17),,차량방범,4,,,,,02-820-2906,37.4811898633,126.9725261125,2020-03-24
"서울특별시동작구청",서울특별시 동작구 사당로 20 나길 52-1(사당4동 314-9),,차량방범,4,,,,,02-820-2906,37.4811575858,126.9732180590,2020-03-24
"서울특별시동작구청",서울특별시 동작구 동작대로19길 53 (사당1동 1004-13),,차량방범,3,,,,,02-820-2906,37.4834328481,126.9787031434,2020-03-24
"서울특별시동작구청",서울특별시 동작구 동작대로15길 26(사당1동 1009-23),,차량방범,4,,,,,02-820-2906,37.4823663217,126.9802456259,2020-03-24
"서울특별시동작구청",서울특별시 동작구 사당로30길 96(사당1동 1029-37),,차량방범,5,,,,,02-820-2906,37.4805427522,126.9806847799,2020-03-24
"서울특별시동작구청",서울특별시 동작구 동작대로13길 7(사당1동 1019-1),,차량방범,5,,,,,02-820-2906,37.4816131942,126.9809513304,2020-03-24
"서울특별시동작구청",서울특별시 동작구 동작대로17길 5(사당1동 1008-1),,차량방범,4,,,,,02-820-2906,37.4825610707,126.9810460630,2020-03-24
"서울특별시동작구청",서울특별시 동작구 동작대로27다길 26(사당2동 138-3),,차량방범,5,,,,,02-820-2906,37.4863163458,126.9802626769,2020-03-24
"서울특별시동작구청",서울특별시 동작구 사당로16길 131(사당4동 303-89),,차량방범,3,,,,,02-820-2906,37.4781944352,126.9705600217,2020-03-24
"서울특별시동작구청",서울특별시 동작구 신대방14가길 60(신대방1동 632-9),,차량방범,2,,,,,02-820-2906,37.4895806770,126.9138603026,2020-03-24
"서울특별시동작구청",서울특별시 동작구 신대방1가길 14(신대방1동 694-24),,차량방범,1,,,,,02-820-2906,37.4868850220,126.9092591950,2020-03-24
"서울특별시동작구청",서울특별시 동작구 흑석로 105(흑석동 183-5 ) 중대병원,,교통단속,1,,,,,02-820-2906,37.5080041701,126.9609391993,2020-03-24
"서울특별시동작구청",서울특별시 동작구 만양로 100(노량진1동 118-5 ),,교통단속,1,,,,,02-820-2906,37.5123872371,126.9444004819,2020-03-24
"서울특별시동작구청",서울특별시 동작구 만양로 79(노량진1동 224-1),,교통단속,1,,,,,02-820-2906,37.5105060429,126.9446190398,2020-03-24
"서울특별시동작구청",서울특별시 동작구 동작대로27길 18(사당2동 132-6),,교통단속,1,,,,,02-820-2906,37.4876499615,126.9810176403,2020-03-24
"서울특별시동작구청",서울특별시 동작구 성대로 11(상도4동 248-17),,교통단속,1,,,,,02-820-2906,37.5000264908,126.9325623772,2020-03-24
"서울특별시동작구청",서울특별시 동작구 보라매로5가길 7(신대방2동 395-73),,교통단속,1,,,,,02-820-2906,37.4918913478,126.9251563394,2020-03-24
"서울특별시동작구청",서울특별시 동작구 상도로 16(대방동 401-21),,교통단속,1,,,,,02-820-2906,37.4997174597,126.9223167761,2020-03-24
"서울특별시동작구청",서울특별시 동작구 노들로 734(노량진1동 2-3),,교통단속,1,,,,,02-820-2906,37.5161535783,126.9447098824,2020-03-24
"서울특별시동작구청",서울특별시 동작구 사당로 243(사당3동 708-413),,교통단속,1,,,,,02-820-2906,37.4834789315,126.9747956138,2020-03-24
"서울특별시동작구청",서울특별시 동작구 서달로 166(흑석동 97-1),,교통단속,1,,,,,02-820-2906,37.5077633267,126.9628801435,2020-03-24
"서울특별시동작구청",서울특별시 동작구 여의대방로 250(대방동 501),,교통단속,1,,,,,02-820-2906,37.5087433566,126.9245197141,2020-03-24
"서울특별시동작구청",서울특별시 동작구 만양로43(노량진1동 217-41),,교통단속,1,,,,,02-820-2906,37.5080961362,126.9471995417,2020-03-24
"서울특별시동작구청",서울특별시 동작구 서달로 144(흑석동 86-117) 중대부초,,교통단속,1,,,,,02-820-2906,37.5062419401,126.9613517979,2020-03-24
"서울특별시동작구청",서울특별시 동작구 여의대방로10길 24(신대방1동 492-200) 대방중학교,,교통단속,1,,,,,02-820-2906,37.4955925393,126.9143328697,2020-03-24
"서울특별시동작구청",서울특별시 동작구 보라매로5길 20(신대방2동 425) 보라매병원,,교통단속,1,,,,,02-820-2906,37.4930152795,126.9243320023,2020-03-24
"서울특별시동작구청",서울특별시 동작구 사당로 283(사당3동 150-10),,교통단속,1,,,,,02-820-2906,37.4845537432,126.9789289579,2020-03-24
"서울특별시동작구청",서울특별시 동작구 보라매로 113(대방동 405-11),,교통단속,1,,,,,02-820-2906,37.4994615090,126.9278991037,2020-03-24
"서울특별시동작구청",서울특별시 동작구 사당로 214,,교통단속,1,,,,,02-820-2906,37.484271,126.971951,2020-03-24
"서울특별시동작구청",서울특별시 동작구 동작대로 29길 69(사당2동 120-4),,교통단속,1,,,,,02-820-2906,37.4884531575,126.9781092198,2020-03-24
"서울특별시동작구청",서울특별시 동작구 상도로 348(상도1동 475),,교통단속,1,,,,,02-820-2906,37.4972286161,126.9524046005,2020-03-24
"서울특별시동작구청",서울특별시 동작구 신대방1가길 51(신대방1동 695),,교통단속,1,,,,,02-820-2906,37.4866062501,126.9076313330,2020-03-24
"서울특별시동작구청",서울특별시 동작구 흑석한강로13(흑석동 39-10),,교통단속,1,,,,,02-820-2906,37.5056452655,126.9665727152,2020-03-24
"서울특별시동작구청",서울특별시 동작구 남부순환로271길 14(사당1동 1041-11),,교통단속,1,,,,,02-820-2906,37.4774107494,126.9801157859,2020-03-24
"서울특별시동작구청",서울특별시 동작구 여의대방로62길 14(대방동 101-5),,교통단속,1,,,,,02-820-2906,37.5139029865,126.9281793006,2020-03-24
"서울특별시동작구청",서울특별시 동작구 상도로 31길 19 (상도2동 527),,교통단속,1,,,,,02-820-2906,37.5062352437,126.9445407636,2020-03-24
"서울특별시동작구청",서울특별시 동작구 장승배기로 4길 9 (상도2동 521),,교통단속,1,,,,,02-820-2906,37.5014487604,126.9438159929,2020-03-24
"서울특별시동작구청",서울특별시 동작구 상도로 50길 33 (상도1동 470-8),,교통단속,1,,,,,02-820-2906,37.4973251176,126.9504413737,2020-03-24
"서울특별시동작구청",서울특별시 동작구 사당로 300 (사당1동 147-29),,교통단속,1,,,,,02-820-2906,37.4844387537,126.9809279999,2020-03-24
"서울특별시동작구청",서울특별시 동작구 여의대방로 54길 12 (대방동 344-10),,교통단속,1,,,,,02-820-2906,37.5118873075,126.9264981920,2020-03-24
"서울특별시동작구청",서울특별시 동작구 노들로 674,,교통단속,1,,,,,02-820-2906,37.5148239558,126.9379739143,2020-03-24
"서울특별시동작구청",서울특별시 동작구 노들로 674,,교통단속,1,,,,,02-820-2906,37.5148239558,126.9379739143,2020-03-24
"서울특별시동작구청",서울특별시 동작구 상도로15길 120(상도2동 365-7호),,교통단속,1,,,,,02-820-2906,37.5045846061,126.9373399982,2020-03-24
"서울특별시동작구청",서울특별시 동작구 사당로16길 35(사당4동 316-4),,교통단속,1,,,,,02-820-2906,37.4819792378,126.9729192808,2020-03-24
"서울특별시동작구청",서울특별시 동작구 여의대방로22길 77(신대방2동 361-2),,교통단속,1,,,,,02-820-2906,37.4979204808,126.9245215619,2020-03-24
"서울특별시동작구청",서울특별시 동작구 사당로23길 112,,교통단속,1,,,,,02-820-2906,37.4877494011,126.9733830512,2020-03-24
"서울특별시동작구청",서울특별시 동작구 사당로23길 112,,교통단속,1,,,,,02-820-2906,37.4877494011,126.9733830512,2020-03-24
"서울특별시동작구청",,서울특별시 동작구 상도동 34-21,교통단속,1,,,,,02-820-2906,37.505211,126.946634,2020-03-24
"서울특별시동작구청",,서울특별시 동작구 상도동 36-38,교통단속,1,,,,,02-820-2906,37.504028,126.947027,2020-03-24
"서울특별시동작구청",,서울특별시 동작구 흑석동 173-8,교통단속,1,,,,,02-820-2906,37.509961,126.960359,2020-03-24
"서울특별시동작구청",,서울특별시 동작구 흑석동 169-28,교통단속,1,,,,,02-820-2906,37.509137,126.960792,2020-03-24
"서울특별시동작구청",,서울특별시 동작구 흑석동 245-33,교통단속,1,,,,,02-820-2906,37.504668,126.960846,2020-03-24
"서울특별시동작구청",서울특별시 동작구 노량진로14길 33(노량진1동 83-10),,쓰레기단속,1,,,,,02-820-2906,37.5122062299,126.9427130445,2020-03-24
"서울특별시동작구청",서울특별시 동작구 노량진로6길 63(노량진2동 289-90),,쓰레기단속,1,,,,,02-820-2906,37.5103865449,126.9363443463,2020-03-24
"서울특별시동작구청",서울특별시 동작구 상도로47길 54(상도1동 333-13),,쓰레기단속,1,,,,,02-820-2906,37.5016038332,126.9522344473,2020-03-24
"서울특별시동작구청",서울특별시 동작구 상도로15길112(상도동 359-5),,쓰레기단속,1,,,,,02-820-2906,37.5044402383,126.9369510676,2020-03-24
"서울특별시동작구청",서울특별시 동작구 성대로6나길 21(상도3동 307-12),,쓰레기단속,1,,,,,02-820-2906,37.4979212505,126.9317093367,2020-03-24
"서울특별시동작구청",서울특별시 동작구 양녕로25길 12(상도4동 210-254),,쓰레기단속,1,,,,,02-820-2906,37.4982804342,126.9430041402,2020-03-24
"서울특별시동작구청",서울특별시 동작구 서달로12나길 2-5(흑석동 55-3),,쓰레기단속,1,,,,,02-820-2906,37.5066029372,126.9632154928,2020-03-24
"서울특별시동작구청",서울특별시 동작구 동작대로 19(사당1동 1042-1),,쓰레기단속,1,,,,,02-820-2906,37.4783082934,126.9809566916,2020-03-24
"서울특별시동작구청",서울특별시 동작구 동작대로35길 25(사당2동 71-2),,쓰레기단속,1,,,,,02-820-2906,37.4910881865,126.9808901249,2020-03-24
"서울특별시동작구청",서울특별시 동작구 사당로23길 242(사당3동 708-926),,쓰레기단속,1,,,,,02-820-2906,37.4923254257,126.9689035368,2020-03-24
"서울특별시동작구청",서울특별시 동작구 사당로16길 28(사당4동 277-39),,쓰레기단속,1,,,,,02-820-2906,37.4823973017,126.9729010399,2020-03-24
"서울특별시동작구청",서울특별시 동작구 사당로16다길 95(사당동 230-9),,쓰레기단속,1,,,,,02-820-2906,37.4844468369,126.9682419734,2020-03-24
"서울특별시동작구청",서울특별시 동작구 대방동1길 29(대방동 396-16),,쓰레기단속,1,,,,,02-820-2906,37.5001981619,126.9244242738,2020-03-24
"서울특별시동작구청",서울특별시 동작구 신대방2길 52(신대방1동 600-37),,쓰레기단속,1,,,,,02-820-2906,37.4891071189,126.9119205109,2020-03-24
"서울특별시동작구청",서울특별시 동작구 국사봉길 22(신대방2동 338-23),,쓰레기단속,1,,,,,02-820-2906,37.4982765003,126.9290808713,2020-03-24
"서울특별시동작구청",서울특별시 동작구 서달로13길 17(흑석동 181-23),,쓰레기단속,1,,,,,02-820-2906,37.5085054551,126.9619387637,2020-03-24
"서울특별시동작구청",서울특별시 동작구 노량진로 6길 53,,쓰레기단속,1,,,,,02-820-2906,37.5106530906,126.9360636178,2020-03-24
"서울특별시동작구청",,서울특별시 동작구 흑석동 9-787,쓰레기단속,1,,,,,02-820-2906,37.507271,126.965211,2020-03-24
"서울특별시동작구청",서울특별시 동작구 현충로 10길 91,,쓰레기단속,1,,,,,02-820-2906,37.5045431990,126.9693915706,2020-03-24
"서울특별시동작구청",서울특별시 동작구 서달로 1752,,기타,10,,,,,02-820-2906,37.508281,126.963081,2020-03-24
"서울특별시동작구청",서울특별시 동작구 노량진로23가길 20,,기타,4,,,,,02-820-2906,37.5150895781,126.9510268624,2020-03-24
"서울특별시동작구청",서울특별시 동작구 노량진로17길 44,,기타,9,,,,,02-820-2906,37.5159081236,126.9439001700,2020-03-24
"서울특별시동작구청",서울특별시 동작구 노들로 6180,,기타,9,,,,,02-820-2906,37.514321,126.930691,2020-03-24
"서울특별시동작구청",서울특별시 동작구 신대방1길 109,,기타,5,,,,,02-820-2906,37.4852893660,126.9058419666,2020-03-24
"서울특별시동작구청",서울특별시 동작구 신대방2길 12,,기타,2,,,,,02-820-2906,37.4879908177,126.9132017907,2020-03-24
"서울특별시동작구청",서울특별시 동작구 노량진로 20-2,,기타,6,,,,,02-820-2906,37.5126558904,126.9280040461,2020-03-24
"서울특별시동작구청",서울특별시 동작구 노량진로32길 14-7,,기타,5,,,,,02-820-2906,37.5129218438,126.9558014831,2020-03-24
"서울특별시동작구청",서울특별시 동작구 상도로53길 39,,기타,1,,,,,02-820-2906,37.5005988430,126.9535695555,2020-03-24
"서울특별시동작구청",,서울특별시 동작구 상도동 159-334,기타,8,,,,,02-820-2906,37.502252,126.946281,2020-03-24
"서울특별시동작구청",서울특별시 동작구 동작대로 9 (사당역 8번출구),,기타,1,,,,,02-820-2906,37.4774433770,126.9812870335,2020-03-24
"서울특별시동작구청",서울특별시 동작구 신대방1길 109,,기타,1,,,,,02-820-2906,37.4852893660,126.9058419666,2020-03-24
"서울특별시동작구청",서울특별시 동작구 대림로 19,,기타,1,,,,,02-820-2906,37.4870233404,126.9110545796,2020-03-24
"서울특별시동작구청",서울특별시 동작구 신대방2길 14,,기타,1,,,,,02-820-2906,37.4889831201,126.9148424622,2020-03-24
"서울특별시동작구청",서울특별시 동작구 여의대방로20길 33,,기타,1,,,,,02-820-2906,37.4904089159,126.9179571941,2020-03-24
