"관리기관명",소재지도로명주소,소재지지번주소,설치목적구분,카메라대수,카메라화소수,촬영방면정보,보관일수,설치년월,관리기관전화번호,위도,경도,데이터기준일자
"서울특별시 영등포구","도영로 18,근처 횡단보도앞 인도",도림동 226-2 쌍용APT 4R,생활방범,1,,360도 전방면,30,2013-12,02-2670-4067,37.5080730599,126.8952841175,2020-05-06
"서울특별시 영등포구",가마산로61길 20-8,가마산로61길 20-8 (신길3동),생활방범,1,,360도 전방면,30,2013-12,02-2670-4067,37.5069057588,126.9047749336,2020-05-06
"서울특별시 영등포구",신길로56길 7,신길동 190-160,생활방범,1,,360도 전방면,30,2013-12,02-2670-4067,37.5123422184,126.9110615139,2020-05-06
"서울특별시 영등포구",도신로54길 12-13,신길동 199-19,생활방범,1,,360도 전방면,30,2013-12,02-2670-4067,37.5099667619,126.9146549064,2020-05-06
"서울특별시 영등포구",영등포로5길 31,양평동2가 33-38,생활방범,1,,360도 전방면,30,2013-12,02-2670-4067,37.5245159254,126.8846718786,2020-05-06
"서울특별시 영등포구","시흥대로 589-8,LG신대림자이APT 202동 주차장출입구앞 부근",대림2동 995-1 BYC앞 (자이 202동 앞),생활방범,1,,360도 전방면,30,2013-12,02-2670-4067,37.4855994642,126.9021701462,2020-05-06
"서울특별시 영등포구",디지털로69나길 10-1,디지털로69나길 12 스타빌 앞(대림1동),생활방범,1,,360도 전방면,30,2013-12,02-2670-4067,37.4935919027,126.9028903206,2020-05-06
"서울특별시 영등포구","도영로 2-5, 대림코오롱APT 104동 부근 APT출입구앞",대림3동 607-1 상가옆,생활방범,1,,360도 전방면,30,2013-12,02-2670-4067,37.5069494517,126.8942345289,2020-05-06
"서울특별시 영등포구","영중로18길 12,영상빌딩앞",영중로18길 12 (영등포동5가),생활방범,1,,360도 전방면,30,2013-12,02-2670-4067,37.5210471037,126.9062957438,2020-05-06
"서울특별시 영등포구","국회대로56길 19,한강성심병원 장례식장 사이골목",영등포동7가 29-51 한강성심병원 장례식장 사이골목,생활방범,1,,360도 전방면,30,2013-12,02-2670-4067,37.5234878558,126.9097991441,2020-05-06
"서울특별시 영등포구",대림로8가길 9,대림로8가길 9 (대림동 988-10),생활방범,1,,360도 전방면,30,2013-12,02-2670-4067,37.4899074965,126.9058193385,2020-05-06
"서울특별시 영등포구","양산로17길 17,사거리앞",당산동3가 555-1,생활방범,1,,360도 전방면,30,2013-12,02-2670-4067,37.5261367843,126.8937467632,2020-05-06
"서울특별시 영등포구",도림로57길 10-2,도림로57길 10-2,생활방범,1,,360도 전방면,30,2013-12,02-2670-4067,37.4974721823,126.9021533573,2020-05-06
"서울특별시 영등포구","영등포로79길 7,혜영빌라앞",신길1동 65-102 혜영빌라 앞,생활방범,1,,360도 전방면,30,2013-12,02-2670-4067,37.5144735028,126.9212844876,2020-05-06
"서울특별시 영등포구",영등포로 399-5,영등포로 399-5 앞,생활방범,1,,360도 전방면,30,2013-12,02-2670-4067,37.5138280755,126.9223365909,2020-05-06
"서울특별시 영등포구","당산로27길 12, 당산근린공원1",당산1동 3가 385,생활방범,1,,360도 전방면,30,2011-01,02-2670-4067,37.5256236915,126.8951780268,2020-05-06
"서울특별시 영등포구","당산로27길 12, 당산근린공원2",당산1동 3가 385,생활방범,1,,360도 전방면,30,2011-01,02-2670-4067,37.5250567271,126.8956225642,2020-05-06
"서울특별시 영등포구",영등포로27길 20-1,당산동1가186-114,쓰레기단속,1,,360도 전방면,30,2005-01,02-2670-4067,37.5228038146,126.8994287555,2020-05-06
"서울특별시 영등포구",당산로12길 19-1,당산동1가256-118,쓰레기단속,1,,360도 전방면,30,2005-01,02-2670-4067,37.5220852746,126.8980568765,2020-05-06
"서울특별시 영등포구","영신로43길 18,삼거리앞",당산동1가185,쓰레기단속,1,,360도 전방면,30,2009-01,02-2670-4067,37.5223149481,126.8996437214,2020-05-06
"서울특별시 영등포구",당산로20길 5,당산동1가 310-3,쓰레기단속,1,,360도 전방면,30,2015-12,02-2670-4067,37.5235199139,126.8966999019,2020-05-06
"서울특별시 영등포구","영등포로27길 16,사거리앞",당산동 1가 185-39 사거리,생활방범,5,,360도 전방면,30,2011-09,02-2670-4067,37.5223481196,126.8992653670,2020-05-06
"서울특별시 영등포구","영등포로25길 23-19,삼거리 큰성당어린이집앞",당산동 1가 337-1 큰성당어린이집 앞,생활방범,3,,360도 전방면,30,2010-11,02-2670-4067,37.5232161738,126.8972231327,2020-05-06
"서울특별시 영등포구","영등포로 112,대우미래사랑3차APT 101동앞",당산동 1가 337-1 큰성당어린이집 앞,생활방범,3,,360도 전방면,30,2010-11,02-2670-4067,37.5204369206,126.8938281519,2020-05-06
"서울특별시 영등포구","영등포로19길 15,삼거리앞",당산동 2가 159-26 앞 삼거리,생활방범,3,,360도 전방면,30,2010-11,02-2670-4067,37.5233453181,126.8930621472,2020-05-06
"서울특별시 영등포구","국회대로28길 13,삼익APT 2동앞 사거리",당산동 3가 559 쌍용예가 후문,생활방범,3,,360도 전방면,30,2010-11,02-2670-4067,37.5278365559,126.8945732826,2020-05-06
"서울특별시 영등포구",당산로16길 4,당산동 1가 254-52(당산로16길4 ),생활방범,1,,360도 전방면,30,2013-01,02-2670-4067,37.5225178664,126.8963909290,2020-05-06
"서울특별시 영등포구","영신로39길 16,삼거리앞",당산동1가 136,생활방범,1,,360도 전방면,30,2013-07,02-2670-4067,37.5217549077,126.8995430408,2020-05-06
"서울특별시 영등포구",국회대로34길 5-3,당산동 3가 152번지 앞(국회대로36길 4-2),생활방범,3,,360도 전방면,30,2013-01,02-2670-4067,37.5269666736,126.8978048591,2020-05-06
"서울특별시 영등포구",영신로45길 9-2,당산동1가 186-95,생활방범,3,,360도 전방면,30,2010-01,02-2670-4067,37.5228137605,126.9005061256,2020-05-06
"서울특별시 영등포구","영등포로 154,진로APT 101동~서영물류센터 사잇길",당산동 1가 진로아파트 서영물류센터 사이,생활방범,1,,360도 전방면,30,2010-01,02-2670-4067,37.5202662147,126.8970188450,2020-05-06
"서울특별시 영등포구","영등포로30길 9,신동아패밀리에상가 근처",당산동 1가 3-3 신동아패밀리에상가 옆,생활방범,2,,360도 전방면,30,2010-01,02-2670-4067,37.5199623753,126.8997927092,2020-05-06
"서울특별시 영등포구","영등포로 96,교보생명빌딩~대우APT 101동 사이 도로앞",당산동 2가 25 교보생명 대우메종리브르 사이코너,생활방범,4,,360도 전방면,30,2010-01,02-2670-4067,37.5207204124,126.8924332521,2020-05-06
"서울특별시 영등포구","당산로30길 3,삼거리앞",당산동 3가 270 우미빌딩옆,생활방범,3,,360도 전방면,30,2010-01,02-2670-4067,37.5256085933,126.8971749729,2020-05-06
"서울특별시 영등포구",국회대로 580-3,당산동 3가 112 덕윤자동차공업사,생활방범,2,,360도 전방면,30,2010-01,02-2670-4067,37.5270852083,126.8985066464,2020-05-06
"서울특별시 영등포구","양산로25길 3-1,삼거리앞",당산동 3가 5-1 장수흑염소건강원앞,생활방범,4,,360도 전방면,30,2010-01,02-2670-4067,37.5241506228,126.8985079478,2020-05-06
"서울특별시 영등포구",당산로20길 17-1,당산동1가 305,생활방범,4,,360도 전방면,30,2014-01,02-2670-4067,37.5232846017,126.8982689091,2020-05-06
"서울특별시 영등포구",당산로10길 8,당산동1가 33,생활방범,5,,360도 전방면,30,2014-01,02-2670-4067,37.5217912800,126.8966786081,2020-05-06
"서울특별시 영등포구","영신로 183,동부센트레빌 정문",당산동3가 562 동부센트레빌 정문,생활방범,2,,360도 전방면,30,2015-09,02-2670-4067,37.5248234328,126.9023874870,2020-05-06
"서울특별시 영등포구",당산로12길 11-1,당산동1가 256-18,생활방범,3,,360도 전방면,30,2016-09,02-2670-4067,37.5220581414,126.8971990590,2020-05-06
"서울특별시 영등포구",당산로10길 28-1,당산동1가 55,생활방범,4,,360도 전방면,30,2016-09,02-2670-4067,37.5214210296,126.8990381966,2020-05-06
"서울특별시 영등포구",영신로47길 11,당산동1가 226,생활방범,2,,360도 전방면,30,2017-02,02-2670-4067,37.5231067581,126.9004372165,2020-05-06
"서울특별시 영등포구",양산로19길 13-12,당산동3가 434-1,생활방범,1,,360도 전방면,30,2017-03,02-2670-4067,37.5255792116,126.8946430797,2020-05-06
"서울특별시 영등포구","영신로33길 3,신동아파밀리에APT 103동~104동 정문근처",당산동1가 457,생활방범,3,,360도 전방면,30,2017-08,02-2670-4067,37.5193086666,126.9005707911,2020-05-06
"서울특별시 영등포구",당산로16길20 수풀림 앞 사거리,당산동1가 255-1,생활방범,4,,360도 전방면,30,2018-08,02-2670-4067,37.5224864333,126.8982715488,2020-05-06
"서울특별시 영등포구",당산로27길 5,당산동3가 382,생활방범,5,,360도 전방면,30,2018-11,02-2670-4067,37.5251466707,126.8950125617,2020-05-06
"서울특별시 영등포구",당산동1가 112-1,,생활방범,8,,360도 전방면,30,2015-09,02-2670-4067,37.5217088530,126.8979542271,2020-05-06
"서울특별시 영등포구",양산로 99-1,,생활방범,2,,360도 전방면,30,2014-12,02-2670-4067,37.5243402769,126.8941135697,2020-05-06
"서울특별시 영등포구","당산로30길 11,사거리앞",당산동3가 80-6,생활방범,4,,360도 전방면,30,2017-04,02-2670-4067,37.5255137565,126.8977735200,2020-05-06
"서울특별시 영등포구",양산로17길 8,당산동3가 475,생활방범,2,,360도 전방면,30,2013-01,02-2670-4067,37.5251243394,126.8934982061,2020-05-06
"서울특별시 영등포구","선유동1로 80,선재어린이집",당산동3가 560,생활방범,4,,360도 전방면,30,2006-02,02-2670-4067,37.5283473896,126.8935580318,2020-05-06
"서울특별시 영등포구","당산로 123,영등포구청역 3번출구 근처 대로변앞",당산동3가 385-1,교통단속,3,,360도 전방면,30,2013-01,02-2670-4067,37.5263034429,126.8966438529,2020-05-06
"서울특별시 영등포구","당산로31길 13,사거리앞",당산동3가 385-1,교통단속,5,,360도 전방면,30,2013-09,02-2670-4067,37.5266496489,126.8954267054,2020-05-06
"서울특별시 영등포구",당산로 134,당산동3가 217,교통단속,3,,360도 전방면,30,2013-09,02-2670-4067,37.5265129046,126.8969804597,2020-05-06
"서울특별시 영등포구",당산로 116,당산동3가 264,교통단속,4,,360도 전방면,30,2013-09,02-2670-4067,37.5249762082,126.8965966462,2020-05-06
"서울특별시 영등포구",당산로92,당산동1가 455-1,교통단속,4,,360도 전방면,30,2013-09,02-2670-4067,37.5231272025,126.8961117455,2020-05-06
"서울특별시 영등포구",양산로 153,당산동3가 6-1,교통단속,3,,360도 전방면,30,2006-01,02-2670-4067,37.5234926508,126.9000971898,2020-05-06
"서울특별시 영등포구",양산로 131,당산동1가 306,교통단속,7,,360도 전방면,30,2017-06,02-2670-4067,37.5238719592,126.8975906896,2020-05-06
"서울특별시 영등포구",국회대로 584,당산동3가 96,교통단속,3,,360도 전방면,30,2011-11,02-2670-4067,37.5271749605,126.8987322605,2020-05-06
"서울특별시 영등포구",선유동1로 42,당산동3가 555-2,교통단속,5,,360도 전방면,30,2011-11,02-2670-4067,37.5255602654,126.8922430634,2020-05-06
"서울특별시 영등포구",당산동5가 4-23 꽃담소공원1,당산동5가 4-23,생활방범,1,,360도 전방면,30,2013-12,02-2670-4067,37.5317246590,126.9005820165,2020-05-06
"서울특별시 영등포구",당산동5가 4-23 꽃담소공원2,당산동5가 4-23,생활방범,1,,360도 전방면,30,2016-08,02-2670-4067,37.5310346006,126.8999737941,2020-05-06
"서울특별시 영등포구",당산동6가 10-7 강마을어린이공원1,당산2동6가10-7,생활방범,1,,360도 전방면,30,2017-06,02-2670-4067,37.5328359615,126.9068983294,2020-05-06
"서울특별시 영등포구","버드나루로 104,근처 나루마을마당공원",당산동 121-144,생활방범,1,,360도 전방면,30,2016-11,02-2670-4067,37.5277823136,126.9085184083,2020-05-06
"서울특별시 영등포구",당산동4가 10-2,당산동4가 10-2,생활방범,3,,360도 전방면,30,2011-09,02-2670-4067,37.5287984150,126.9038173678,2020-05-06
"서울특별시 영등포구",당산로40길 4-3,당산동4가 32-165,쓰레기단속,1,,360도 전방면,30,2010-11,02-2670-4067,37.5297821375,126.8992509854,2020-05-06
"서울특별시 영등포구","당산로 164-8,삼거리앞",당산2동 4가 32-76,생활방범,1,,360도 전방면,30,2010-11,02-2670-4067,37.5285216055,126.8990770395,2020-05-06
"서울특별시 영등포구","버드나루로19길 8,삼거리앞",당산2동 121-18(포동이분식건너편),생활방범,3,,360도 전방면,30,2010-11,02-2670-4067,37.5284707613,126.9072253323,2020-05-06
"서울특별시 영등포구","버드나루로14가길 24,대한결핵협회건물 뒷길 삼거리앞",당산2동 121-150(대한결핵협회),생활방범,3,,360도 전방면,30,2010-11,02-2670-4067,37.5278634519,126.9096254173,2020-05-06
"서울특별시 영등포구","국회대로37길 25,삼거리앞",당산2동 4가 32-184 로열마트앞,생활방범,3,,360도 전방면,30,2010-11,02-2670-4067,37.5291154544,126.9007919399,2020-05-06
"서울특별시 영등포구","국회대로29길 10,사거리앞",당산2동 4가 37-4 늘좋은마트앞,생활방범,3,,360도 전방면,30,2010-11,02-2670-4067,37.5290292710,126.8968330562,2020-05-06
"서울특별시 영등포구","당산로41길 18,사거리앞",당산2동 4가 85 별님유치원앞,생활방범,7,,360도 전방면,30,2010-11,02-2670-4067,37.5317511074,126.8976553038,2020-05-06
"서울특별시 영등포구","영신로 259,당산삼성래미안 423동~상아APT 4동 사잇길",당산2동 5가 42 삼성래미안 423동앞,생활방범,2,,360도 전방면,30,2010-11,02-2670-4067,37.5307294410,126.9034626904,2020-05-06
"서울특별시 영등포구","당산로50가길 3-17,당산중학교 입구앞",당산2동 6가 10-7 당산중학교앞,생활방범,4,,360도 전방면,30,2010-11,02-2670-4067,37.5325852242,126.9065927846,2020-05-06
"서울특별시 영등포구","당산로50길 7-3,한강공원지하입구 사거리앞",당산2동 6가 184 낚시백화점 슈퍼앞,생활방범,5,,360도 전방면,30,2010-11,02-2670-4067,37.5350613207,126.9040705404,2020-05-06
"서울특별시 영등포구","당산로46길 26,사거리앞",당산2동 6가 110-43 당산중학교앞,생활방범,7,,360도 전방면,30,2010-11,02-2670-4067,37.5330154282,126.9049890974,2020-05-06
"서울특별시 영등포구","당산로48길 2,당산역 6번 출입구앞",당산2동 6가 235 2호선 6번출구,생활방범,3,,360도 전방면,30,2013-01,02-2670-4067,37.5339743067,126.9024539442,2020-05-06
"서울특별시 영등포구","당산로49길 5,사거리앞",당산2동 6가 334-1 훼미리마트 맞은편,생활방범,4,,360도 전방면,30,2012-06,02-2670-4067,37.5355737423,126.9023042890,2020-05-06
"서울특별시 영등포구",당산로40길 4-8,당산동 4가 32-51번지(당산로40길4-8),생활방범,1,,360도 전방면,30,2014-01,02-2670-4067,37.5296050605,126.8991102630,2020-05-06
"서울특별시 영등포구","당산로38길 12-1,사거리앞",당산2동 4가 32-14번지 전봇대 앞(당산로38길 13),생활방범,1,,360도 전방면,30,2015-09,02-2670-4067,37.5286563593,126.8996707486,2020-05-06
"서울특별시 영등포구",당산로50길 17,당산동6가 104-61,생활방범,3,,360도 전방면,30,2016-09,02-2670-4067,37.5340774679,126.9044005484,2020-05-06
"서울특별시 영등포구","당산로50가길 3-1,사거리앞","당산동6가3-1(영광교회 주차장, 우리슈퍼)",생활방범,3,,360도 전방면,30,2016-09,02-2670-4067,37.5327806036,126.9055083062,2020-05-06
"서울특별시 영등포구",당산로46가길 6,당산동6가 237-13,생활방범,7,,360도 전방면,30,2016-09,02-2670-4067,37.5338100269,126.9038770815,2020-05-06
"서울특별시 영등포구",당산로48길 12,당산동6가 280-1,생활방범,4,,360도 전방면,30,2016-10,02-2670-4067,37.5347755495,126.9035798210,2020-05-06
"서울특별시 영등포구",당산로52길 22,당산동6가 107-1,생활방범,2,,360도 전방면,30,2017-02,02-2670-4067,37.5343994404,126.9050698943,2020-05-06
"서울특별시 영등포구","버드나루로 130,강변래미안APT 311동 근처 삼거리앞",당산동 376,생활방범,3,,360도 전방면,30,2017-08,02-2670-4067,37.5289947545,126.9091558058,2020-05-06
"서울특별시 영등포구","당산로36길 7-1,당산삼성2차APT 출입구앞",당산동4가 32-143,생활방범,2,,360도 전방면,30,2017-08,02-2670-4067,37.5281095501,126.8986599660,2020-05-06
"서울특별시 영등포구",당산로46길 29-6,당산동6가 110-92,생활방범,6,,360도 전방면,30,2017-11,02-2670-4067,37.5332888096,126.9056931077,2020-05-06
"서울특별시 영등포구",당산로 247-1,당산동6가 321,생활방범,2,,360도 전방면,30,2018-08,02-2670-4067,37.5357147395,126.9030814360,2020-05-06
"서울특별시 영등포구",당산로 167,당산동4가 74-3,생활방범,4,,360도 전방면,30,2018-08,02-2670-4067,37.5293892754,126.8981795565,2020-05-06
"서울특별시 영등포구",당산로48길 6 전신주 옆,당산동6가 237-38,생활방범,4,,360도 전방면,30,2018-10,02-2670-4067,37.5343136316,126.9027899495,2020-05-06
"서울특별시 영등포구",국회대로55길 9 영등포 평생학습관 주차장입구,당산동 121-32,생활방범,4,,360도 전방면,30,2018-10,02-2670-4067,37.5261497075,126.9081326049,2020-05-06
"서울특별시 영등포구",국회대로53길 30,당산동 171-19,생활방범,4,,360도 전방면,30,2018-10,02-2670-4067,37.5279723776,126.9064208628,2020-05-06
"서울특별시 영등포구",당산로54길 30,당산동6가 110-88,생활방범,3,,360도 전방면,30,2018-10,02-2670-4067,37.5336968252,126.9059262090,2020-05-06
"서울특별시 영등포구",국회대로37길 5,당산동4가 32-107,생활방범,4,,360도 전방면,30,2018-11,02-2670-4067,37.5276386715,126.8996283877,2020-05-06
"서울특별시 영등포구",버드나루로22길 7,당산동 378,생활방범,3,,360도 전방면,30,2018-11,02-2670-4067,37.5309635962,126.9084071900,2020-05-06
"서울특별시 영등포구",당산로49길 20,당산동6가 350-14,생활방범,6,,360도 전방면,30,2014-12,02-2670-4067,37.5363346807,126.9011262347,2020-05-06
"서울특별시 영등포구",당산로54길 11,당산동 374,생활방범,3,,360도 전방면,30,2015-09,02-2670-4067,37.5349038227,126.9045617868,2020-05-06
"서울특별시 영등포구",양평로 40,,생활방범,7,,360도 전방면,30,2015-09,02-2670-4067,37.5343098399,126.9017626331,2020-05-06
"서울특별시 영등포구",양평로 64,,생활방범,4,,360도 전방면,30,2012-06,02-2670-4067,37.5349095311,126.9001491857,2020-05-06
"서울특별시 영등포구",버드나루로18길 5,당산동 121-100,생활방범,2,,360도 전방면,30,2011-02,02-2670-4067,37.5278493232,126.9089639697,2020-05-06
"서울특별시 영등포구","당산로35길 3,삼거리앞",당산동4가 37 삼거리앞,생활방범,3,,360도 전방면,30,2011-02,02-2670-4067,37.5288078865,126.8972705196,2020-05-06
"서울특별시 영등포구","당산로 187,서울당서초교 정문앞",당산동5가 5-3 서울당서초교 정문앞,생활방범,2,,360도 전방면,30,2011-02,02-2670-4067,37.5310598190,126.8994206684,2020-05-06
"서울특별시 영등포구","버드나루로17길 8,사거리앞",당산동 121-227 사거리앞,생활방범,1,,360도 전방면,30,2013-09,02-2670-4067,37.5273520215,126.9076377807,2020-05-06
"서울특별시 영등포구","당산로 187,당서초교 후문 인도앞",당산2동 5가 5-3 당서초등학교 후문,생활방범,2,,360도 전방면,30,2013-09,02-2670-4067,37.5319294083,126.9001970870,2020-05-06
"서울특별시 영등포구","당산로44길 3,효성APT 203동 근처 횡단보도앞",당산동5가 11-34,생활방범,4,,360도 전방면,30,2013-09,02-2670-4067,37.5318692082,126.9004966466,2020-05-06
"서울특별시 영등포구","버드나루로17길 16,사거리앞",당산동 173-39,생활방범,4,,360도 전방면,30,2012-09,02-2670-4067,37.5272301414,126.9064979875,2020-05-06
"서울특별시 영등포구",당산동 121-171,당산동 121-171,교통단속,4,,360도 전방면,30,2012-09,02-2670-4067,37.5309513208,126.9069575554,2020-05-06
"서울특별시 영등포구","버드나루로15길 2,사거리앞",당산동 121-132,교통단속,1,,360도 전방면,30,2016-05,02-2670-4067,37.5264186705,126.9087501767,2020-05-06
"서울특별시 영등포구",버드나루로 116,당산동 121-200,교통단속,3,,360도 전방면,30,2017-02,02-2670-4067,37.5283844313,126.9081180045,2020-05-06
"서울특별시 영등포구","선유동2로 40,사거리앞",당산동5가 7-54,교통단속,5,,360도 전방면,30,2013-12,02-2670-4067,37.5323097404,126.8965603192,2020-05-06
"서울특별시 영등포구",양평로 51,당산동5가 32-1,교통단속,4,,360도 전방면,30,2013-12,02-2670-4067,37.5342774933,126.9009519322,2020-05-06
"서울특별시 영등포구","당산로44길 3,효성APT 203동 근처 횡단보도앞",당산동5가 11-34,교통단속,1,,360도 전방면,30,2004-01,02-2670-4067,37.5319240156,126.9004711287,2020-05-06
"서울특별시 영등포구","당산로36길 7-1,당산삼성2차APT 출입구앞",당산동4가 32-143,교통단속,1,,360도 전방면,30,2004-01,02-2670-4067,37.5281531004,126.8985562853,2020-05-06
"서울특별시 영등포구",당산동4가 80,,교통단속,4,,360도 전방면,30,2004-01,02-2670-4067,37.5307767903,126.8992541506,2020-05-06
"서울특별시 영등포구","대림로 106,대림어린이공원1",대림1동 870 대림어린이공원1,생활방범,1,,360도 전방면,30,2004-01,02-2670-4067,37.4909401681,126.9034515039,2020-05-06
"서울특별시 영등포구","대림로 106,대림어린이공원2",대림1동 870,생활방범,1,,360도 전방면,30,2004-01,02-2670-4067,37.4915466865,126.9029496441,2020-05-06
"서울특별시 영등포구",디지털로75길 10,대림1동 900-16,생활방범,2,,360도 전방면,30,2004-01,02-2670-4067,37.4956097273,126.9053994187,2020-05-06
"서울특별시 영등포구","신길로15가길 7,사거리앞",대림1동 906-65 사거리앞,생활방범,1,,360도 전방면,30,2004-01,02-2670-4067,37.4972008754,126.9058887536,2020-05-06
"서울특별시 영등포구","대림로22길 20,삼거리앞",대림1동 851-4,생활방범,5,,360도 전방면,30,2004-01,02-2670-4067,37.4944371780,126.9028676345,2020-05-06
"서울특별시 영등포구","대림로22길 11,삼거리앞",대림1동 851-62,생활방범,1,,360도 전방면,30,2004-01,02-2670-4067,37.4939545185,126.9021424338,2020-05-06
"서울특별시 영등포구",도림로48길 17,대림1동 700-21,생활방범,1,,360도 전방면,30,2017-06,02-2670-4067,37.4939552692,126.9011954679,2020-05-06
"서울특별시 영등포구","대림로16길 10,삼거리앞",대림1동 858-1 삼거리앞,생활방범,1,,360도 전방면,30,2004-01,02-2670-4067,37.4931347549,126.9027001193,2020-05-06
"서울특별시 영등포구","디지털로64길 7,삼거리앞",대림1동 877-19 삼거리앞,생활방범,1,,360도 전방면,30,2004-01,02-2670-4067,37.4922982795,126.9042648844,2020-05-06
"서울특별시 영등포구",디지털로64가길 9,대림1동 869-10,생활방범,3,,360도 전방면,30,2004-01,02-2670-4067,37.4914943089,126.9040269615,2020-05-06
"서울특별시 영등포구","대림로8길 9-6,사거리앞",대림1동 973-47 사거리앞,생활방범,1,,360도 전방면,30,2011-02,02-2670-4067,37.4909224155,126.9050055707,2020-05-06
"서울특별시 영등포구","대림로8길 20,사거리앞",대림1동 976-62 사거리앞,생활방범,3,,360도 전방면,30,2011-02,02-2670-4067,37.4911246782,126.9057314634,2020-05-06
"서울특별시 영등포구",도림로54길 7-15,대림1동 758-16,생활방범,1,,360도 전방면,30,2011-02,02-2670-4067,37.4960382091,126.9034605114,2020-05-06
"서울특별시 영등포구",도림로54길 6,대림1동 845-6,생활방범,1,,360도 전방면,30,2009-01,02-2670-4067,37.4957448975,126.9024632242,2020-05-06
"서울특별시 영등포구",도림로48길 9-5,대림1동 700-27,생활방범,1,,360도 전방면,30,2016-11,02-2670-4067,37.4945757975,126.9010320826,2020-05-06
"서울특별시 영등포구","대림로22길 15-9,삼거리앞",대림1동 851-43 삼거리앞,생활방범,1,,360도 전방면,30,2010-01,02-2670-4067,37.4947171015,126.9021337247,2020-05-06
"서울특별시 영등포구",디지털로64길 2-10,대림1동 868-18,생활방범,2,,360도 전방면,30,2010-01,02-2670-4067,37.4922475902,126.9036755324,2020-05-06
"서울특별시 영등포구","디지털로71길 4-14,삼거리앞",대림1동 895-9 삼거리앞,생활방범,2,,360도 전방면,30,2011-09,02-2670-4067,37.4951013951,126.9048811905,2020-05-06
"서울특별시 영등포구","도림로64길 17,사거리앞",대림1동 904-15,쓰레기단속,1,,360도 전방면,30,2011-09,02-2670-4067,37.4963140860,126.9055268166,2020-05-06
"서울특별시 영등포구",디지털로64가길 1,대림1동 877-40,쓰레기단속,1,,360도 전방면,30,2011-09,02-2670-4067,37.4919519032,126.9043461540,2020-05-06
"서울특별시 영등포구",대림로22길 2 공용주차장 입구,대림1동 834-1 공영주차장 입구 앞 공영주차장 간판,생활방범,1,,360도 전방면,30,2006-02,02-2670-4067,37.4932955867,126.9012798012,2020-05-06
"서울특별시 영등포구",대림로 154 우성APT 교차로 사거리앞,대림1동 700-1 우성APT 사거리 기영빌딩앞 가로등,생활방범,1,,360도 전방면,30,2006-02,02-2670-4067,37.4947694858,126.9000594425,2020-05-06
"서울특별시 영등포구",디지털로81길 13-1,대림1동 904-2,생활방범,1,,360도 전방면,30,2006-02,02-2670-4067,37.4965504697,126.9066317063,2020-05-06
"서울특별시 영등포구","도림로64가길 14,사거리앞",대림1동 892-7 사거리앞,생활방범,5,,360도 전방면,30,2006-02,02-2670-4067,37.4963870219,126.9038438136,2020-05-06
"서울특별시 영등포구",도림로50길 11,대림1동 842-7,생활방범,3,,360도 전방면,30,2006-02,02-2670-4067,37.4945706498,126.9015410389,2020-05-06
"서울특별시 영등포구",디지털로450,대림1동 911-48,생활방범,1,,360도 전방면,30,2006-02,02-2670-4067,37.4954207117,126.9067416260,2020-05-06
"서울특별시 영등포구","신길로1길 2,대로변앞",대림1동 918-50 대로변앞,생활방범,1,,360도 전방면,30,2006-02,02-2670-4067,37.4942820772,126.9087544352,2020-05-06
"서울특별시 영등포구","도림로64길 9,사거리앞",대림1동 906-29 사거리앞,생활방범,2,,360도 전방면,30,2006-02,02-2670-4067,37.4971345106,126.9046347953,2020-05-06
"서울특별시 영등포구","디지털로66길 6-1,삼거리앞",대림1동 878-5 삼거리앞,생활방범,1,,360도 전방면,30,2006-02,02-2670-4067,37.4926494784,126.9046648501,2020-05-06
"서울특별시 영등포구","시흥대로183길 9-2,삼거리앞",대림1동 976-27 삼거리앞,생활방범,1,,360도 전방면,30,2006-02,02-2670-4067,37.4912442444,126.9067117951,2020-05-06
"서울특별시 영등포구","대림로10길 7,사거리앞",대림1동 871-7 사거리앞,생활방범,2,,360도 전방면,30,2006-02,02-2670-4067,37.4909762785,126.9039911983,2020-05-06
"서울특별시 영등포구","신길로13길 12,사거리앞",신길동 440-11 사거리앞,생활방범,2,,360도 전방면,30,2013-01,02-2670-4067,37.4972486040,126.9070345755,2020-05-06
"서울특별시 영등포구","도림로 180,대로변앞",대림1동 824-97 대로변앞,생활방범,1,,360도 전방면,30,2013-01,02-2670-4067,37.4956472082,126.9014034771,2020-05-06
"서울특별시 영등포구","대림로22길 31,갑을명가APT 101동 정문 사거리앞",대림1동 885-1 갑을명가아파트,생활방범,2,,360도 전방면,30,2013-07,02-2670-4067,37.4950033877,126.9036260942,2020-05-06
"서울특별시 영등포구","디지털로67길 2-7,오거리앞",대림1동 881-1 오거리앞,생활방범,4,,360도 전방면,30,2014-01,02-2670-4067,37.4941328966,126.9043488164,2020-05-06
"서울특별시 영등포구","대림로 128-7,사거리앞",대림1동 835-12 사거리앞,생활방범,1,,360도 전방면,30,2015-09,02-2670-4067,37.4933505927,126.9020720601,2020-05-06
"서울특별시 영등포구","시흥대로185길 5,대림중학교 출입구앞",대림1동 963-1 대림중학교 출입구앞,생활방범,1,,360도 전방면,30,2015-09,02-2670-4067,37.4916709169,126.9079424654,2020-05-06
"서울특별시 영등포구","도림로64가길 6-1,사거리앞",대림1동 893-69 사거리앞,생활방범,1,,360도 전방면,30,2015-09,02-2670-4067,37.4963652706,126.9046272932,2020-05-06
"서울특별시 영등포구","도림로64길 20,사거리앞",대림1동 904-20 사거리앞,생활방범,6,,360도 전방면,30,2015-09,02-2670-4067,37.4962590118,126.9055320288,2020-05-06
"서울특별시 영등포구",대림로8나길 11,대림1동 975-30,생활방범,5,,360도 전방면,30,2016-09,02-2670-4067,37.4902636199,126.9063028670,2020-05-06
"서울특별시 영등포구",디지털로417,대림1동 930-4,생활방범,3,,360도 전방면,30,2016-10,02-2670-4067,37.4936136003,126.9042584062,2020-05-06
"서울특별시 영등포구",디지털로73길 16,대림1동 894-11,생활방범,1,,360도 전방면,30,2017-08,02-2670-4067,37.4958123496,126.9048214942,2020-05-06
"서울특별시 영등포구",디지털로61길 12,대림1동 858-31,생활방범,1,,360도 전방면,30,2017-09,02-2670-4067,37.4930180752,126.9021421642,2020-05-06
"서울특별시 영등포구",신길로15다길 7,대림1동 906-24,생활방범,5,,360도 전방면,30,2017-09,02-2670-4067,37.4968854873,126.9053572030,2020-05-06
"서울특별시 영등포구",도림로62나길 3,대림1동 893-10,생활방범,6,,360도 전방면,30,2017-09,02-2670-4067,37.4968026560,126.9041034996,2020-05-06
"서울특별시 영등포구",디지털로70길 16-17,대림1동 957-6,생활방범,1,,360도 전방면,30,2017-09,02-2670-4067,37.4926021133,126.9057546120,2020-05-06
"서울특별시 영등포구",디지털로81길 6-1,대림1동 907-42,생활방범,3,,360도 전방면,30,2018-12,02-2670-4067,37.4968469229,126.9074576767,2020-05-06
"서울특별시 영등포구",대림로12길 18,대림1동 987-12,생활방범,2,,360도 전방면,30,2012-06,02-2670-4067,37.4903364032,126.9050244197,2020-05-06
"서울특별시 영등포구",디지털로 398-1,대림1동 863-9,생활방범,2,,360도 전방면,30,2013-11,02-2670-4067,37.4919574732,126.9032836853,2020-05-06
"서울특별시 영등포구",대림로12가길 4-1,대림1동 873-13,생활방범,3,,360도 전방면,30,2013-11,02-2670-4067,37.4912070188,126.9045195510,2020-05-06
"서울특별시 영등포구",대림로12길 14,대림1동 987-4,생활방범,4,,360도 전방면,30,2011-02,02-2670-4067,37.4906111448,126.9043618753,2020-05-06
"서울특별시 영등포구",대림로10길 7 대림어린이공원내,대림1동 871-7,생활방범,3,,360도 전방면,30,2011-02,02-2670-4067,37.4912561811,126.9038771433,2020-05-06
"서울특별시 영등포구",시흥대로 681,,생활방범,3,,360도 전방면,30,2006-01,02-2670-4067,37.4924162290,126.9089105387,2020-05-06
"서울특별시 영등포구",디지털로70길 18,,생활방범,6,,360도 전방면,30,2013-09,02-2670-4067,37.4931146729,126.9067358202,2020-05-06
"서울특별시 영등포구",도림로50길 11-7,,생활방범,3,,360도 전방면,30,2006-01,02-2670-4067,37.4952097767,126.9021448597,2020-05-06
"서울특별시 영등포구",시흥대로 639(대림사거리),,생활방범,5,,360도 전방면,30,2006-01,02-2670-4067,37.4889227140,126.9060224086,2020-05-06
"서울특별시 영등포구","디지털로64길 15-5,삼거리앞",대림1동 934-52 삼거리앞,생활방범,1,,360도 전방면,30,2004-01,02-2670-4067,37.4921617495,126.9054288648,2020-05-06
"서울특별시 영등포구",디지털로 455,대림1동 909-12,생활방범,1,,360도 전방면,30,2011-11,02-2670-4067,37.4961453575,126.9073334439,2020-05-06
"서울특별시 영등포구",신길로 25,대림1동 912-21,생활방범,1,,360도 전방면,30,2014-12,02-2670-4067,37.4949122380,126.9085831071,2020-05-06
"서울특별시 영등포구","대림로8길 27-2,사거리앞",대림1동 957-14 사거리앞,생활방범,4,,360도 전방면,30,2006-02,02-2670-4067,37.4919557697,126.9065590318,2020-05-06
"서울특별시 영등포구",디지털로64길 18-1,대림1동 972-4,생활방범,1,,360도 전방면,30,2006-02,02-2670-4067,37.4916598236,126.9052142952,2020-05-06
"서울특별시 영등포구",신길로 47,대림1동 908-2,교통단속,3,,360도 전방면,30,2006-02,02-2670-4067,37.4968732232,126.9081531869,2020-05-06
"서울특별시 영등포구",도림로 200,대림1동 757-11,교통단속,3,,360도 전방면,30,2006-02,02-2670-4067,37.4967068900,126.9030338406,2020-05-06
"서울특별시 영등포구",디지털로 402,대림1동 863-11,교통단속,3,,360도 전방면,30,2007-01,02-2670-4067,37.4925373239,126.9035046889,2020-05-06
"서울특별시 영등포구","디지털로 450,대로변 근처",대림1동 911-3,교통단속,3,,360도 전방면,30,2007-01,02-2670-4067,37.4958771761,126.9072503520,2020-05-06
"서울특별시 영등포구","대림로8길 20,사거리앞",대림1동 976-62 사거리앞,교통단속,1,,360도 전방면,30,2007-01,02-2670-4067,37.4912558650,126.9058210496,2020-05-06
"서울특별시 영등포구","대림로23가길 10,다사랑공원",대림2동 704-7 다사랑공원,생활방범,5,,360도 전방면,30,2007-01,02-2670-4067,37.4925643697,126.8994597616,2020-05-06
"서울특별시 영등포구","시흥대로177길 11-5,쌈지공원1",대림2동 990-69 쌈지공원1,생활방범,3,,360도 전방면,30,2007-01,02-2670-4067,37.4888358002,126.9044999075,2020-05-06
"서울특별시 영등포구","디지털로48길 27-2,삼거리앞",대림2동 1025-44 삼거리앞,생활방범,1,,360도 전방면,30,2007-01,02-2670-4067,37.4879534469,126.9019833558,2020-05-06
"서울특별시 영등포구",디지털로38길 14-5,대림2동 1096-6 부근앞,생활방범,1,,360도 전방면,30,2007-01,02-2670-4067,37.4877652298,126.9000872670,2020-05-06
"서울특별시 영등포구",디지털로48길 3,대림2동 1027-48,생활방범,1,,360도 전방면,30,2007-01,02-2670-4067,37.4896389646,126.9007400829,2020-05-06
"서울특별시 영등포구",디지털로48길 21-6,대림2동 1025-75,생활방범,1,,360도 전방면,30,2007-01,02-2670-4067,37.4883787095,126.9016830428,2020-05-06
"서울특별시 영등포구",디지털로57길 20,대림2동 833-18 사거리앞,생활방범,1,,360도 전방면,30,2007-12,02-2670-4067,37.4921939786,126.9004540829,2020-05-06
"서울특별시 영등포구",대림로19길 3-1,대림2동 834-15 앞,생활방범,1,,360도 전방면,30,2007-12,02-2670-4067,37.4926476164,126.9011284973,2020-05-06
"서울특별시 영등포구","도림천로 385,삼거리앞",대림2동 1116-18 삼거리앞,생활방범,1,,360도 전방면,30,2007-12,02-2670-4067,37.4904970362,126.8964316099,2020-05-06
"서울특별시 영등포구",도림천로15길 5-21,대림2동 1066-38,생활방범,1,,360도 전방면,30,2007-12,02-2670-4067,37.4894707579,126.8973776526,2020-05-06
"서울특별시 영등포구",디지털로 351-14,대림2동 1080-51,생활방범,1,,360도 전방면,30,2007-12,02-2670-4067,37.4897072888,126.8989084065,2020-05-06
"서울특별시 영등포구",디지털로47길 7,대림2동 1079-19,생활방범,1,,360도 전방면,30,2007-12,02-2670-4067,37.4903096735,126.8997630979,2020-05-06
"서울특별시 영등포구",디지털로52길 8-3,대림2동 1026-38,생활방범,1,,360도 전방면,30,2007-12,02-2670-4067,37.4895860421,126.9011089402,2020-05-06
"서울특별시 영등포구","도림천로15길 9,사거리앞",대림2동 1066-127 사거리앞,생활방범,1,,360도 전방면,30,2007-12,02-2670-4067,37.4888407831,126.8981590470,2020-05-06
"서울특별시 영등포구",디지털로48가길 10-17,대림2동 1023-8,생활방범,1,,360도 전방면,30,2007-12,02-2670-4067,37.4888972495,126.9022632210,2020-05-06
"서울특별시 영등포구",디지털로49길 12-5,대림2동 1075-54,생활방범,2,,360도 전방면,30,2007-12,02-2670-4067,37.4909569081,126.8997690081,2020-05-06
"서울특별시 영등포구",디지털로49길 7,대림2동 1076-18,생활방범,1,,360도 전방면,30,2007-12,02-2670-4067,37.4905672553,126.8999203268,2020-05-06
"서울특별시 영등포구",디지털로49길 13,대림2동 1075-49 부근앞,생활방범,1,,360도 전방면,30,2007-12,02-2670-4067,37.4908688283,126.8994360833,2020-05-06
"서울특별시 영등포구",디지털로47길 14-1,대림2동 1079-42,생활방범,1,,360도 전방면,30,2007-12,02-2670-4067,37.4906187072,126.8992020023,2020-05-06
"서울특별시 영등포구","디지털로 359-1,골목안",대림2동 1079-41 골목안앞,생활방범,1,,360도 전방면,30,2007-12,02-2670-4067,37.4897944521,126.9000928409,2020-05-06
"서울특별시 영등포구",디지털로43길 6-1,대림2동 1080-13,생활방범,1,,360도 전방면,30,2007-12,02-2670-4067,37.4899737751,126.8993945573,2020-05-06
"서울특별시 영등포구","디지털로41길 10,사거리앞",대림2동 1080-21 사거리앞,생활방범,1,,360도 전방면,30,2007-12,02-2670-4067,37.4898804536,126.8990961556,2020-05-06
"서울특별시 영등포구","디지털로37가길 1-5,삼거리앞",대림2동 1060-51 삼거리앞,생활방범,1,,360도 전방면,30,2009-01,02-2670-4067,37.4899921666,126.8982027215,2020-05-06
"서울특별시 영등포구",디지털로37라길 5,대림2동 1067-1,생활방범,1,,360도 전방면,30,2009-01,02-2670-4067,37.4906422458,126.8978089199,2020-05-06
"서울특별시 영등포구",디지털로45길 10-1,대림2동 1079-30,생활방범,1,,360도 전방면,30,2009-01,02-2670-4067,37.4903681117,126.8992547070,2020-05-06
"서울특별시 영등포구",디지털로37다길 9-5,대림2동 1075-96,생활방범,1,,360도 전방면,30,2009-01,02-2670-4067,37.4914274091,126.8983029597,2020-05-06
"서울특별시 영등포구",디지털로37다길 12-1,대림2동 1075-14 사거리앞,생활방범,3,,360도 전방면,30,2009-01,02-2670-4067,37.4913195523,126.8987675427,2020-05-06
"서울특별시 영등포구",도림천로11길 26-5,대림2동 1075-133,생활방범,1,,360도 전방면,30,2009-01,02-2670-4067,37.4919550972,126.8982598686,2020-05-06
"서울특별시 영등포구","도림로40길 24,사거리앞",대림2동 1071-1 사거리앞,생활방범,2,,360도 전방면,30,2011-02,02-2670-4067,37.4918297254,126.8990588203,2020-05-06
"서울특별시 영등포구",대림로23가길 10-1,대림2동 704-8,생활방범,1,,360도 전방면,30,2011-02,02-2670-4067,37.4924836449,126.8994336998,2020-05-06
"서울특별시 영등포구","디지털로48길 12,사거리앞",대림2동 1078-18 사거리앞,생활방범,2,,360도 전방면,30,2011-02,02-2670-4067,37.4890220213,126.9008612858,2020-05-06
"서울특별시 영등포구",디지털로56길 6-1,대림2동 1020-22,생활방범,1,,360도 전방면,30,2011-02,02-2670-4067,37.4906638858,126.9023639381,2020-05-06
"서울특별시 영등포구",디지털로37길 32,대림2동 1058-20,생활방범,2,,360도 전방면,30,2011-12,02-2670-4067,37.4915737435,126.8978550814,2020-05-06
"서울특별시 영등포구",디지털로38길 20-5,대림2동 1095-15,생활방범,1,,360도 전방면,30,2011-12,02-2670-4067,37.4875027341,126.9008854139,2020-05-06
"서울특별시 영등포구","디지털로38길 20-20,사거리앞",대림2동 1095-35 사거리앞,생활방범,3,,360도 전방면,30,2006-01,02-2670-4067,37.4872464451,126.9003682347,2020-05-06
"서울특별시 영등포구","디지털로53가길 9-2,삼거리앞",대림2동 1075-104 삼거리앞,생활방범,1,,360도 전방면,30,2015-12,02-2670-4067,37.4907319768,126.9002196833,2020-05-06
"서울특별시 영등포구","디지털로38길 16,삼거리앞",대림2동 1095-37 삼거리앞,생활방범,2,,360도 전방면,30,2009-01,02-2670-4067,37.4879032234,126.9004851415,2020-05-06
"서울특별시 영등포구","대림로7길 13,사거리앞",대림2동 990-104 사거리앞,생활방범,5,,360도 전방면,30,2010-01,02-2670-4067,37.4890388027,126.9036794024,2020-05-06
"서울특별시 영등포구","디지털로40길 14,사거리앞",대림2동 1092-43 사거리앞,생활방범,1,,360도 전방면,30,2010-01,02-2670-4067,37.4884529586,126.9007368780,2020-05-06
"서울특별시 영등포구","대림로23길 24,삼거리앞",대림2동 706-13 삼거리앞,생활방범,2,,360도 전방면,30,2010-01,02-2670-4067,37.4929472222,126.8982777227,2020-05-06
"서울특별시 영등포구","디지털로48길 19,사거리앞",대림2동 1025-13 사거리앞,생활방범,2,,360도 전방면,30,2010-01,02-2670-4067,37.4885057310,126.9012778208,2020-05-06
"서울특별시 영등포구","디지털로48나길 11,사거리앞",대림2동 1025-22 사거리앞,생활방범,1,,360도 전방면,30,2010-01,02-2670-4067,37.4890045024,126.9018077217,2020-05-06
"서울특별시 영등포구","대림로7다길 7-1,삼거리앞",대림2동 1022-40 삼거리앞,생활방범,1,,360도 전방면,30,2010-01,02-2670-4067,37.4894220492,126.9029961586,2020-05-06
"서울특별시 영등포구",디지털로54길 22-5,대림2동 1027-21,쓰레기단속,1,,360도 전방면,30,2010-01,02-2670-4067,37.4891727111,126.9024978532,2020-05-06
"서울특별시 영등포구","도림천로13길 6,삼거리앞",대림2동 1060-35 삼거리앞,쓰레기단속,1,,360도 전방면,30,2010-01,02-2670-4067,37.4902775382,126.8969459218,2020-05-06
"서울특별시 영등포구","대림로7길 16-2,삼거리앞",대림2동 991-34 삼거리앞,쓰레기단속,1,,360도 전방면,30,2010-01,02-2670-4067,37.4887801111,126.9031234682,2020-05-06
"서울특별시 영등포구",대림로23길 13,대림2동 702 명지성모병원 앞 사거리 대동초교내,생활방범,1,,360도 전방면,30,2011-09,02-2670-4067,37.4934892333,126.8991733303,2020-05-06
"서울특별시 영등포구",디지털로53길 31,대림2동 703-5 박재란공인중개사 앞 대동초교내,생활방범,1,,360도 전방면,30,2011-09,02-2670-4067,37.4931509681,126.8994180904,2020-05-06
"서울특별시 영등포구",디지털로53길 23,대림2동 1039-13 한송빌딩앞,생활방범,1,,360도 전방면,30,2011-09,02-2670-4067,37.4924373803,126.8999580949,2020-05-06
"서울특별시 영등포구",디지털로 378,대림2동 1032-14 향촌반점앞,생활방범,1,,360도 전방면,30,2011-02,02-2670-4067,37.4907406655,126.9015103770,2020-05-06
"서울특별시 영등포구",디지털로 349,대림2동 1082-26 광명당앞 가로등,생활방범,1,,360도 전방면,30,2006-02,02-2670-4067,37.4888746397,126.8992354536,2020-05-06
"서울특별시 영등포구",대림로23길 30,대림2동 1049-5 한전주,생활방범,1,,360도 전방면,30,2006-02,02-2670-4067,37.4926922975,126.8978587656,2020-05-06
"서울특별시 영등포구",도림로38길 1 대림역 12번출구 앞,대림2동 1050-3,생활방범,3,,360도 전방면,30,2006-02,02-2670-4067,37.4929322143,126.8971614679,2020-05-06
"서울특별시 영등포구",대림로21길 5-1 대동초등학교 정문 앞,대림2동 702 대동초교 정문 내 좌측 신규폴,생활방범,1,,360도 전방면,30,2006-02,02-2670-4067,37.4929271157,126.9006631982,2020-05-06
"서울특별시 영등포구",대림로 115 대림공원 사거리앞,대림2동 861-15 G마트앞 가로등,생활방범,2,,360도 전방면,30,2006-02,02-2670-4067,37.4917225935,126.9023983936,2020-05-06
"서울특별시 영등포구",대림2동 1103-13,대림2동 1103-13,생활방범,1,,360도 전방면,30,2006-02,02-2670-4067,37.4862475400,126.9004081471,2020-05-06
"서울특별시 영등포구","디지털로54길 4-2,삼거리앞",대림2동 1028-5 삼거리앞,생활방범,1,,360도 전방면,30,2006-02,02-2670-4067,37.4904077238,126.9016787928,2020-05-06
"서울특별시 영등포구","시흥대로177길 11,삼거리앞",대림2동 990-71 삼거리앞,생활방범,1,,360도 전방면,30,2006-02,02-2670-4067,37.4890708799,126.9046887703,2020-05-06
"서울특별시 영등포구",디지털로 338,대림2동 1088-15,생활방범,3,,360도 전방면,30,2006-02,02-2670-4067,37.4880722217,126.8985328749,2020-05-06
"서울특별시 영등포구","대림로23나길 7,삼거리앞",대림2동 704-14 삼거리앞,생활방범,1,,360도 전방면,30,2006-02,02-2670-4067,37.4924934380,126.8987234729,2020-05-06
"서울특별시 영등포구","디지털로57길 12,사거리앞",대림2동 860-24 사거리앞,생활방범,2,,360도 전방면,30,2006-02,02-2670-4067,37.4916506804,126.9008409731,2020-05-06
"서울특별시 영등포구","도림천로13길 10,사거리앞",대림2동 1060-38 사거리앞,생활방범,1,,360도 전방면,30,2006-02,02-2670-4067,37.4905327536,126.8974938795,2020-05-06
"서울특별시 영등포구","디지털로37길 20,사거리앞",대림2동 1068-10 사거리앞,생활방범,1,,360도 전방면,30,2006-02,02-2670-4067,37.4902385656,126.8982857391,2020-05-06
"서울특별시 영등포구","디지털로 365,대로변앞",대림2동 1077-3 대로변앞,생활방범,1,,360도 전방면,30,2013-01,02-2670-4067,37.4901030450,126.9005775172,2020-05-06
"서울특별시 영등포구","대림로7길 16-1,사거리앞",대림2동 991-27 사거리앞,생활방범,2,,360도 전방면,30,2013-01,02-2670-4067,37.4886382192,126.9033527879,2020-05-06
"서울특별시 영등포구",시흥대로175가길 8,대림2동 993-31,생활방범,3,,360도 전방면,30,2013-07,02-2670-4067,37.4879444946,126.9037615563,2020-05-06
"서울특별시 영등포구",디지털로48나길 5,대림2동 1025-88,생활방범,1,,360도 전방면,30,2010-01,02-2670-4067,37.4883692264,126.9020259669,2020-05-06
"서울특별시 영등포구","디지털로48가길 11,사거리앞",대림2동 1027-15 사거리앞,생활방범,4,,360도 전방면,30,2014-01,02-2670-4067,37.4893043565,126.9020989810,2020-05-06
"서울특별시 영등포구","디지털로48길 23-1,주차장 담벼락앞",대림2동 1025-85 옆 주차장담벼락앞,생활방범,1,,360도 전방면,30,2014-01,02-2670-4067,37.4879394403,126.9016845519,2020-05-06
"서울특별시 영등포구","도림천로15길 2,대로변앞",대림2동 1116-38 대로변앞,생활방범,1,,360도 전방면,30,2015-03,02-2670-4067,37.4884812088,126.8973406446,2020-05-06
"서울특별시 영등포구",디지털로 338-11,대림2동 1081-92,생활방범,1,,360도 전방면,30,2015-03,02-2670-4067,37.4877547897,126.8991835079,2020-05-06
"서울특별시 영등포구","도림천로 429-1,대림하나아트빌 106동 대로변앞",대림2동 1117-5 대림하나아트빌 106동 대로변앞,생활방범,1,,360도 전방면,30,2015-03,02-2670-4067,37.4870622823,126.8986280569,2020-05-06
"서울특별시 영등포구","디지털로37나길 22-1,사거리앞",대림2동 1072-11 사거리앞,생활방범,1,,360도 전방면,30,2015-03,02-2670-4067,37.4916353871,126.9001573890,2020-05-06
"서울특별시 영등포구",대림로 119-9,대림2동 860-41,생활방범,1,,360도 전방면,30,2015-03,02-2670-4067,37.4920128062,126.9017165785,2020-05-06
"서울특별시 영등포구",도림로 124-11,대림2동 1055-5,생활방범,1,,360도 전방면,30,2015-04,02-2670-4067,37.4918702906,126.8963368709,2020-05-06
"서울특별시 영등포구","대림로7가길 18-1,삼거리앞",대림2동 1015-59 삼거리앞,생활방범,3,,360도 전방면,30,2015-04,02-2670-4067,37.4903581427,126.9022659904,2020-05-06
"서울특별시 영등포구",디지털로56길 16,대림2동 1020-6,생활방범,3,,360도 전방면,30,2015-04,02-2670-4067,37.4903550498,126.9031461279,2020-05-06
"서울특별시 영등포구","도림천로11길 26-1,사거리앞",대림2동 1075-1 사거리앞,생활방범,3,,360도 전방면,30,2015-04,02-2670-4067,37.4921728089,126.8982681923,2020-05-06
"서울특별시 영등포구",도림천로11길 2,대림2동 1116-16,생활방범,3,,360도 전방면,30,2015-04,02-2670-4067,37.4909798973,126.8965572011,2020-05-06
"서울특별시 영등포구",도림로36길 14,대림2동 1056-62,생활방범,2,,360도 전방면,30,2015-04,02-2670-4067,37.4916881418,126.8967403566,2020-05-06
"서울특별시 영등포구",도림로36길 5,대림2동 1056-67,생활방범,2,,360도 전방면,30,2015-04,02-2670-4067,37.4924575782,126.8967215326,2020-05-06
"서울특별시 영등포구",도림천로13길 16,대림2동 1057-3,생활방범,3,,360도 전방면,30,2015-04,02-2670-4067,37.4910185076,126.8974389556,2020-05-06
"서울특별시 영등포구",디지털로37길 8,대림2동 1066-143,생활방범,2,,360도 전방면,30,2015-04,02-2670-4067,37.4893664378,126.8987264033,2020-05-06
"서울특별시 영등포구",디지털로 353,대림2동 1081-33,생활방범,2,,360도 전방면,30,2015-04,02-2670-4067,37.4892295230,126.8995795335,2020-05-06
"서울특별시 영등포구","디지털로37나길 15,삼거리앞",대림2동 1072-30 삼거리앞,생활방범,2,,360도 전방면,30,2015-03,02-2670-4067,37.4912427566,126.8996516685,2020-05-06
"서울특별시 영등포구","디지털로53가길 2-1,삼거리앞",대림2동 1072-1 삼거리앞,생활방범,2,,360도 전방면,30,2015-09,02-2670-4067,37.4911873414,126.9007418268,2020-05-06
"서울특별시 영등포구","디지털로 355,도로변앞",대림2동 1080-30 도로변앞,생활방범,2,,360도 전방면,30,2015-09,02-2670-4067,37.4893998308,126.8997739605,2020-05-06
"서울특별시 영등포구","디지털로 357,도로변앞",대림2동 1080-17 도로변앞,생활방범,2,,360도 전방면,30,2015-09,02-2670-4067,37.4895827668,126.8999771291,2020-05-06
"서울특별시 영등포구",디지털로51길 10,대림2동 1030-1,생활방범,2,,360도 전방면,30,2015-09,02-2670-4067,37.4909088210,126.9009728430,2020-05-06
"서울특별시 영등포구",디지털로53가길 2-7,대림2동 1073-2,생활방범,2,,360도 전방면,30,2015-09,02-2670-4067,37.4914774001,126.9005508677,2020-05-06
"서울특별시 영등포구","디지털로37나길 22,삼거리앞",대림2동 1072-12 삼거리앞,생활방범,1,,360도 전방면,30,2015-09,02-2670-4067,37.4914655575,126.8999927562,2020-05-06
"서울특별시 영등포구",디지털로41길 15,대림2동 1068-13,생활방범,2,,360도 전방면,30,2016-09,02-2670-4067,37.4902783779,126.8985274980,2020-05-06
"서울특별시 영등포구",디지털로 371,대림2동 1030-8,생활방범,2,,360도 전방면,30,2017-08,02-2670-4067,37.4906256412,126.9011656388,2020-05-06
"서울특별시 영등포구","도림천로 367,도로변앞",대림2동 1053-12 도로변앞,생활방범,3,,360도 전방면,30,2018-08,02-2670-4067,37.4921201000,126.8957879521,2020-05-06
"서울특별시 영등포구",디지털로38길 26,대림2동 1095-1,생활방범,2,,360도 전방면,30,2015-09,02-2670-4067,37.4875684038,126.9014963360,2020-05-06
"서울특별시 영등포구","디지털로37길 9-16,사거리앞",대림2동 1066-81 사거리앞,생활방범,4,,360도 전방면,30,2011-02,02-2670-4067,37.4894110428,126.8981596157,2020-05-06
"서울특별시 영등포구",도림천로15길 7-20,대림2동 1066-96,생활방범,2,,360도 전방면,30,2011-02,02-2670-4067,37.4896585899,126.8976410058,2020-05-06
"서울특별시 영등포구",디지털로57길 5,대림2동 1032-3,생활방범,1,,360도 전방면,30,2016-10,02-2670-4067,37.4915652785,126.9014844894,2020-05-06
"서울특별시 영등포구",대림로7가길 5,대림2동 1013-13,생활방범,1,,360도 전방면,30,2013-09,02-2670-4067,37.4898178316,126.9034956489,2020-05-06
"서울특별시 영등포구",대림로17길 6,대림2동 834-20,생활방범,2,,360도 전방면,30,2013-09,02-2670-4067,37.4924013637,126.9012847838,2020-05-06
"서울특별시 영등포구",디지털로38길 8-8,대림2동 1081-88,생활방범,3,,360도 전방면,30,2012-09,02-2670-4067,37.4881578055,126.8996409167,2020-05-06
"서울특별시 영등포구",디지털로54길 13-8,대림2동 1022-15,생활방범,3,,360도 전방면,30,2010-01,02-2670-4067,37.4898959775,126.9025404386,2020-05-06
"서울특별시 영등포구",도림천로369,대림2동 1116-11,생활방범,2,,360도 전방면,30,2006-01,02-2670-4067,37.4919457225,126.8960967259,2020-05-06
"서울특별시 영등포구",디지털로 335,,생활방범,3,,360도 전방면,30,2013-09,02-2670-4067,37.4880434286,126.8981998361,2020-05-06
"서울특별시 영등포구",도림천로15길 1-18,,생활방범,5,,360도 전방면,30,2006-01,02-2670-4067,37.4892842295,126.8968556992,2020-05-06
"서울특별시 영등포구",도림천로 417(구로1교 사거리),,생활방범,4,,360도 전방면,30,2013-09,02-2670-4067,37.4877478968,126.8978016909,2020-05-06
"서울특별시 영등포구","시흥대로 589-8,LG신대림자이2단지 201동~202동 사이 도로앞",대림2동 1122 LG신대림자이2단지 201동~202동 사이 도로앞,생활방범,2,,360도 전방면,30,2012-11,02-2670-4067,37.4859995353,126.9018807528,2020-05-06
"서울특별시 영등포구","시흥대로173길 13,영림초교~LG신대림 자이APT 1단지 주차장 출입구앞",대림2동 1121 LG신대림 자이APT 1단지 주차장 출입구앞,생활방범,4,,360도 전방면,30,2012-11,02-2670-4067,37.4867526434,126.9027204316,2020-05-06
"서울특별시 영등포구","도림천로21길 23-1,삼거리앞",대림2동 992-19 삼거리앞,생활방범,3,,360도 전방면,30,2013-12,02-2670-4067,37.4877698850,126.9026227623,2020-05-06
"서울특별시 영등포구",대림로 133,대림2동 832-14,생활방범,3,,360도 전방면,30,2012-11,02-2670-4067,37.4932655921,126.9011013015,2020-05-06
"서울특별시 영등포구",디지털로 357,대림2동 1080-17,교통단속,3,,360도 전방면,30,2012-11,02-2670-4067,37.4896055827,126.9001738040,2020-05-06
"서울특별시 영등포구",디지털로 344,대림2동 1082-6,교통단속,3,,360도 전방면,30,2014-12,02-2670-4067,37.4884779169,126.8989974370,2020-05-06
"서울특별시 영등포구","대림로 149,삼거리앞",대림2동 709-5 삼거리앞,교통단속,4,,360도 전방면,30,2014-12,02-2670-4067,37.4941269081,126.9002937606,2020-05-06
"서울특별시 영등포구","도림천로21길 19,사거리앞",대림2동 992-20 사거리앞,교통단속,5,,360도 전방면,30,2012-11,02-2670-4067,37.4870883944,126.9020449785,2020-05-06
"서울특별시 영등포구",대림로 85,대림2동 990-45,교통단속,4,,360도 전방면,30,2013-12,02-2670-4067,37.4898230826,126.9046132826,2020-05-06
"서울특별시 영등포구","도림로 154,대로변앞",대림2동 709-1,교통단속,4,,360도 전방면,30,2006-02,02-2670-4067,37.4940977997,126.8989503825,2020-05-06
"서울특별시 영등포구","디지털로56길 2,삼거리앞",대림2동 1032-10 삼거리앞,교통단속,3,,360도 전방면,30,2006-02,02-2670-4067,37.4909320408,126.9017591976,2020-05-06
"서울특별시 영등포구",도림로 136,대림2동 1050-1,교통단속,3,,360도 전방면,30,2006-02,02-2670-4067,37.4931403967,126.8974686204,2020-05-06
"서울특별시 영등포구","도림로47길 28,원지어린이공원1",대림3동 690 원지어린이공원1,생활방범,1,,360도 전방면,30,2007-01,02-2670-4067,37.4981508988,126.8993230704,2020-05-06
"서울특별시 영등포구","도림로47길 28,원지어린이공원2",대림3동 690 원지어린이공원2,생활방범,1,,360도 전방면,30,2007-01,02-2670-4067,37.4981675123,126.8997989215,2020-05-06
"서울특별시 영등포구","대림로35길 7,동심어린이공원1",대림3동 742 동심어린이공원1,생활방범,1,,360도 전방면,30,2009-01,02-2670-4067,37.4987196604,126.8970732468,2020-05-06
"서울특별시 영등포구","도신로 1,대림유수지1",대림3동 611 대림유수지1,생활방범,1,,360도 전방면,30,2011-02,02-2670-4067,37.5049206709,126.8948559359,2020-05-06
"서울특별시 영등포구","도신로 1,대림유수지2",대림3동 611 대림유수지2,생활방범,1,,360도 전방면,30,2011-12,02-2670-4067,37.5047123652,126.8943062846,2020-05-06
"서울특별시 영등포구","도림로57길 6,근처 산성어린이공원1",대림3동 752-60 인근 산성어린이공원1,생활방범,1,,360도 전방면,30,2012-01,02-2670-4067,37.4970775363,126.9025585818,2020-05-06
"서울특별시 영등포구","대림로29길 19,두암어린이공원1",대림3동 714-3 앞 두암어린이공원1,생활방범,1,,360도 전방면,30,2012-01,02-2670-4067,37.4953658705,126.8974420159,2020-05-06
"서울특별시 영등포구","가마산로47길 13,신우어린이공원1",대림3동 657 신우어린이공원1,생활방범,1,,360도 전방면,30,2005-01,02-2670-4067,37.5034649109,126.8990506805,2020-05-06
"서울특별시 영등포구","가마산로47길 13,신우어린이공원2",대림3동 657 신우어린이공원2,생활방범,1,,360도 전방면,30,2009-01,02-2670-4067,37.5031275909,126.8991449180,2020-05-06
"서울특별시 영등포구",대림로35나길 19-1,대림3동 738-14,생활방범,1,,360도 전방면,30,2009-01,02-2670-4067,37.4969497624,126.8976470050,2020-05-06
"서울특별시 영등포구","가마산로34길 19-1,삼거리앞",대림3동 737-16 삼거리앞,생활방범,1,,360도 전방면,30,2005-01,02-2670-4067,37.4972437930,126.8969245418,2020-05-06
"서울특별시 영등포구",대림로29가길 17,대림3동 733-3,생활방범,1,,360도 전방면,30,2015-12,02-2670-4067,37.4966525073,126.8966028215,2020-05-06
"서울특별시 영등포구","도림로47가길 15,삼거리앞",대림3동 746-24 삼거리앞,생활방범,1,,360도 전방면,30,2015-12,02-2670-4067,37.4977641399,126.9012376820,2020-05-06
"서울특별시 영등포구",도림로47나길 22,대림3동 746-1,생활방범,1,,360도 전방면,30,2015-12,02-2670-4067,37.4984181885,126.9002844075,2020-05-06
"서울특별시 영등포구",대림로34아길 6,대림3동 678-14,생활방범,1,,360도 전방면,30,2010-01,02-2670-4067,37.5004018492,126.9008270512,2020-05-06
"서울특별시 영등포구","대림로34마길 1,삼거리앞",대림3동 685-8 삼거리앞,생활방범,2,,360도 전방면,30,2011-09,02-2670-4067,37.4994774232,126.9006098586,2020-05-06
"서울특별시 영등포구","도림로47가길 16-6,삼거리앞",대림3동 754-15 삼거리앞,생활방범,1,,360도 전방면,30,2011-09,02-2670-4067,37.4975426759,126.9013191936,2020-05-06
"서울특별시 영등포구",대림동 780 농구장편 관리사무소 진입로,대림3동 780 농구장편 관리사무소 진입로,생활방범,1,,360도 전방면,30,2011-09,02-2670-4067,37.4994858613,126.8940582594,2020-05-06
"서울특별시 영등포구","대림로39길 19,삼거리 대림운동장내 축구장 진입로앞",대림3동 778-12 삼거리 대림운동장내 축구장 진입로앞,생활방범,1,,360도 전방면,30,2006-02,02-2670-4067,37.4997856829,126.8954985349,2020-05-06
"서울특별시 영등포구","대림로39길 19,삼거리앞",대림3동 778-12 삼거리앞,쓰레기단속,1,,360도 전방면,30,2006-02,02-2670-4067,37.4996131512,126.8956567343,2020-05-06
"서울특별시 영등포구","도림로39길 7-2,삼거리앞",대림3동 712-5 삼거리앞,쓰레기단속,1,,360도 전방면,30,2006-02,02-2670-4067,37.4937662087,126.8967951086,2020-05-06
"서울특별시 영등포구","도신로 42,대로변앞",대림3동 603-34 대로변앞,쓰레기단속,1,,360도 전방면,30,2006-02,02-2670-4067,37.5048844467,126.8974680383,2020-05-06
"서울특별시 영등포구",대림로29라길 10-2,대림3동 810-42,쓰레기단속,3,,360도 전방면,30,2006-02,02-2670-4067,37.4947261700,126.8954940902,2020-05-06
"서울특별시 영등포구","도림로41길 20,사거리앞",대림3동 722-10 사거리앞,쓰레기단속,1,,360도 전방면,30,2006-02,02-2670-4067,37.4954935229,126.8976893913,2020-05-06
"서울특별시 영등포구",대림로31길 32,대림3동 731-5,쓰레기단속,1,,360도 전방면,30,2006-02,02-2670-4067,37.4962731134,126.8956103872,2020-05-06
"서울특별시 영등포구","가마산로46길 9,사거리앞",대림3동 672-6 사거리앞,쓰레기단속,1,,360도 전방면,30,2006-02,02-2670-4067,37.5014673496,126.9007958407,2020-05-06
"서울특별시 영등포구",도림로 153 남부도로교통사업소 담벼락 앞,대림3동 710-14 서울 남부도로사업소 내 신규폴(파리바게트 대림역점 맞은편),생활방범,1,,360도 전방면,30,2006-02,02-2670-4067,37.4941181330,126.8985484456,2020-05-06
"서울특별시 영등포구","도림로33길 9,삼거리앞",대림3동 1052-21 삼거리앞,생활방범,1,,360도 전방면,30,2006-02,02-2670-4067,37.4934748664,126.8959932600,2020-05-06
"서울특별시 영등포구","가마산로45길 6,사거리앞",대림3동 668-10 사거리앞,생활방범,1,,360도 전방면,30,2006-02,02-2670-4067,37.5027589095,126.8993754610,2020-05-06
"서울특별시 영등포구","대림로34나길 18,사거리앞",대림3동 688-26 사거리앞,생활방범,1,,360도 전방면,30,2006-02,02-2670-4067,37.5000225369,126.8988511407,2020-05-06
"서울특별시 영등포구","도림로47길 35-1,사거리앞",대림3동 691 사거리앞,생활방범,2,,360도 전방면,30,2006-02,02-2670-4067,37.4984570135,126.8991463809,2020-05-06
"서울특별시 영등포구","가마산로48길 18,삼거리앞",대림3동 674-1 삼거리앞,생활방범,1,,360도 전방면,30,2013-01,02-2670-4067,37.5015442443,126.9016568757,2020-05-06
"서울특별시 영등포구","도림로61길 33,사거리앞",대림3동 749-14 사거리앞,생활방범,2,,360도 전방면,30,2013-07,02-2670-4067,37.4997536436,126.9010274784,2020-05-06
"서울특별시 영등포구","도림로 197,대로변앞",대림3동 755-2 대로변앞,생활방범,1,,360도 전방면,30,2012-06,02-2670-4067,37.4968569334,126.9028661824,2020-05-06
"서울특별시 영등포구","대림로31가길 16,사거리앞",대림3동 727-1 사거리앞,생활방범,2,,360도 전방면,30,2014-01,02-2670-4067,37.4956095794,126.8970478015,2020-05-06
"서울특별시 영등포구","도림로 129,대로변앞",대림3동 1050-13 대로변앞,생활방범,4,,360도 전방면,30,2014-01,02-2670-4067,37.4929716549,126.8967766663,2020-05-06
"서울특별시 영등포구","대림로29길 43,대림역6번출구 삼거리앞",대림3동 808-26 삼거리앞,생활방범,4,,360도 전방면,30,2015-03,02-2670-4067,37.4938637899,126.8952815651,2020-05-06
"서울특별시 영등포구","대림로31길 35,사거리앞",대림3동 1111-1 사거리앞,생활방범,2,,360도 전방면,30,2015-03,02-2670-4067,37.4958211409,126.8951434478,2020-05-06
"서울특별시 영등포구","가마산로31길 22,삼거리앞",대림3동 801-17 삼거리앞,생활방범,1,,360도 전방면,30,2015-09,02-2670-4067,37.4999081428,126.8938336378,2020-05-06
"서울특별시 영등포구","도신로4길 17,삼거리앞",대림3동 783-13 삼거리앞,생활방범,1,,360도 전방면,30,2015-09,02-2670-4067,37.5020070802,126.8960569543,2020-05-06
"서울특별시 영등포구","대림로46길 5,사거리앞",대림3동 652-13 사거리앞,생활방범,2,,360도 전방면,30,2015-09,02-2670-4067,37.5031190823,126.8968779474,2020-05-06
"서울특별시 영등포구","대림로40다길 10,사거리앞",대림3동 659-13 사거리앞,생활방범,2,,360도 전방면,30,2015-09,02-2670-4067,37.5031200108,126.8982895354,2020-05-06
"서울특별시 영등포구","도신로 37,대로변앞",대림3동 604-180 대로변앞,생활방범,1,,360도 전방면,30,2015-09,02-2670-4067,37.5049568660,126.8971625467,2020-05-06
"서울특별시 영등포구","대림로31나길 8,코너부근앞",대림3동 732 코너부근앞,생활방범,1,,360도 전방면,30,2016-09,02-2670-4067,37.4967613764,126.8954267215,2020-05-06
"서울특별시 영등포구","도신로8가길 7-1,사거리앞",대림3동 605-48 사거리앞,생활방범,1,,360도 전방면,30,2017-02,02-2670-4067,37.5038087754,126.8970687415,2020-05-06
"서울특별시 영등포구","대림로31가길 6-1,삼거리앞",대림3동 730-3 삼거리앞,생활방범,1,,360도 전방면,30,2017-08,02-2670-4067,37.4955051291,126.8959530382,2020-05-06
"서울특별시 영등포구","대림로29길 27,사거리앞",대림3동 804-30 사거리앞,생활방범,7,,360도 전방면,30,2011-09,02-2670-4067,37.4948881784,126.8967916514,2020-05-06
"서울특별시 영등포구","도림로55길 9-2,삼거리앞",대림3동 753-30 삼거리앞,생활방범,3,,360도 전방면,30,2018-08,02-2670-4067,37.4973575508,126.9019360232,2020-05-06
"서울특별시 영등포구","도림로37길 5,삼거리앞",대림3동 812-16 삼거리앞,생활방범,1,,360도 전방면,30,2018-08,02-2670-4067,37.4933309976,126.8965066022,2020-05-06
"서울특별시 영등포구","도림로31길 4-1,삼거리앞",대림3동 1052-38 삼거리앞,생활방범,3,,360도 전방면,30,2018-08,02-2670-4067,37.4927455086,126.8956688641,2020-05-06
"서울특별시 영등포구",도림로39길 21,대림3동 713-7,생활방범,2,,360도 전방면,30,2018-10,02-2670-4067,37.4945719366,126.8981109845,2020-05-06
"서울특별시 영등포구",도림로53길 8,대림3동 755-8,생활방범,1,,360도 전방면,30,2018-10,02-2670-4067,37.4967238069,126.9017409084,2020-05-06
"서울특별시 영등포구","도신로 1,대림3동빗물펌프장 정문앞",대림3동 611 대림3동빗물펌프장 정문앞,생활방범,1,,360도 전방면,30,2018-10,02-2670-4067,37.5028557494,126.8938604648,2020-05-06
"서울특별시 영등포구",가마산로 366-2,대림3동 682-4,생활방범,3,,360도 전방면,30,2018-10,02-2670-4067,37.5008941486,126.8996052408,2020-05-06
"서울특별시 영등포구",대림로29다길 7-7,대림3동 805-14,생활방범,2,,360도 전방면,30,2018-10,02-2670-4067,37.4950656030,126.8958500278,2020-05-06
"서울특별시 영등포구",대림로44길 5,대림3동 651-4,생활방범,3,,360도 전방면,30,2014-12,02-2670-4067,37.5024602788,126.8973560980,2020-05-06
"서울특별시 영등포구","대림동 640-2,대림유수지부근 교차로하부 도림천 보행로","대림3동 640-2,대림유수지부근 교차로하부 도림천 보행로",생활방범,2,,360도 전방면,30,2015-09,02-2670-4067,37.5032751626,126.8934759170,2020-05-06
"서울특별시 영등포구",도신로10길16,대림3동 604-94,생활방범,3,,360도 전방면,30,2015-09,02-2670-4067,37.5037873180,126.8982158394,2020-05-06
"서울특별시 영등포구",대림로 33길7,대림3동 738-1,생활방범,5,,360도 전방면,30,2011-02,02-2670-4067,37.4978239803,126.8978622935,2020-05-06
"서울특별시 영등포구",대림로40길 15,대림3동 662-10,생활방범,4,,360도 전방면,30,2011-02,02-2670-4067,37.5017858420,126.8984186276,2020-05-06
"서울특별시 영등포구",가마산로46길 18-1,대림3동 676-5,생활방범,3,,360도 전방면,30,2011-02,02-2670-4067,37.5010425135,126.9013902366,2020-05-06
"서울특별시 영등포구",도림로41길11-6,대림3동 714-7,생활방범,2,,360도 전방면,30,2011-02,02-2670-4067,37.4947335419,126.8974969123,2020-05-06
"서울특별시 영등포구",도신로10길 6,대림3동 604-37,생활방범,5,,360도 전방면,30,2016-10,02-2670-4067,37.5044569834,126.8979785239,2020-05-06
"서울특별시 영등포구",도신로8길 17,대림3동 652,생활방범,4,,360도 전방면,30,2006-01,02-2670-4067,37.5033687303,126.8972925521,2020-05-06
"서울특별시 영등포구",대림로34가길 20,대림3동 688-10,생활방범,2,,360도 전방면,30,2012-09,02-2670-4067,37.4998475207,126.8982777248,2020-05-06
"서울특별시 영등포구",도신로31(현대4차입구),대림3동 608-1,생활방범,2,,360도 전방면,30,2006-01,02-2670-4067,37.5058520664,126.8944210882,2020-05-06
"서울특별시 영등포구",도신로10가길 7-1,대림3동 604-43,생활방범,4,,360도 전방면,30,2006-01,02-2670-4067,37.5040333600,126.8976606905,2020-05-06
"서울특별시 영등포구",대림동715(두암어린이공원 앞 사거리),,생활방범,4,,360도 전방면,30,2006-01,02-2670-4067,37.4954558543,126.8977840153,2020-05-06
"서울특별시 영등포구",대림로43길16,,생활방범,6,,360도 전방면,30,2006-01,02-2670-4067,37.5014799746,126.8950729918,2020-05-06
"서울특별시 영등포구",도림로31길 28(대림역 5번출구 아래),,생활방범,4,,360도 전방면,30,2013-01,02-2670-4067,37.4948948554,126.8948019248,2020-05-06
"서울특별시 영등포구","가마산로 382,사거리앞",대림3동 670 사거리앞,생활방범,4,,360도 전방면,30,2006-01,02-2670-4067,37.5023396956,126.9000779785,2020-05-06
"서울특별시 영등포구","도신로9길 16,큰나무유치원 앞",대림3동 604-122 큰나무유치원 앞,생활방범,2,,360도 전방면,30,2018-12,02-2670-4067,37.5063479500,126.8963175766,2020-05-06
"서울특별시 영등포구","도림로47길 24,원지경로당 삼거리앞",대림3동 773-12 원지경로당 삼거리앞,생활방범,3,,360도 전방면,30,2013-12,02-2670-4067,37.4973497872,126.8996278381,2020-05-06
"서울특별시 영등포구","도림로61나길 4,삼거리앞",대림3동 749-33 삼거리앞,생활방범,3,,360도 전방면,30,2011-12,02-2670-4067,37.4987057238,126.9018046576,2020-05-06
"서울특별시 영등포구","도림로53길 32-3,삼거리앞",대림3동 744-6 삼거리앞,생활방범,3,,360도 전방면,30,2005-01,02-2670-4067,37.4983381024,126.8998831675,2020-05-06
"서울특별시 영등포구",도신로4길 33,대림3동 782-7,생활방범,2,,360도 전방면,30,2005-01,02-2670-4067,37.5006799672,126.8966069012,2020-05-06
"서울특별시 영등포구",대림로39길 11,대림3동 779-3,생활방범,2,,360도 전방면,30,2006-01,02-2670-4067,37.4998926072,126.8962549510,2020-05-06
"서울특별시 영등포구","가마산로32길 5,영남중학교 담벼락 부근",대림3동 776-12,생활방범,2,,360도 전방면,30,2006-01,02-2670-4067,37.4979245496,126.8951889410,2020-05-06
"서울특별시 영등포구","도림로 187,우성1차APT 3동 근처 대로변앞",대림3동 762-11,교통단속,3,,360도 전방면,30,2009-01,02-2670-4067,37.4956554475,126.9010635897,2020-05-06
"서울특별시 영등포구","도신로12길 2,사거리앞",대림3동 603-36 사거리앞,교통단속,5,,360도 전방면,30,2011-01,02-2670-4067,37.5052324374,126.8979482892,2020-05-06
"서울특별시 영등포구",가마산로 319,대림3동 778-41,교통단속,3,,360도 전방면,30,2015-12,02-2670-4067,37.4985967816,126.8949986322,2020-05-06
"서울특별시 영등포구",가마산로 358,대림3동 682-14,교통단속,3,,360도 전방면,30,2009-06,02-2670-4067,37.5006889245,126.8986034263,2020-05-06
"서울특별시 영등포구",가마산로 332,대림3동 775-1,교통단속,3,,360도 전방면,30,2009-06,02-2670-4067,37.4990558600,126.8963963773,2020-05-06
"서울특별시 영등포구",대림로 197,대림3동 740-4,교통단속,3,,360도 전방면,30,2009-06,02-2670-4067,37.4984284037,126.8981919659,2020-05-06
"서울특별시 영등포구","도신로4길 26,사거리앞",대림3동 786-5 사거리앞,교통단속,3,,360도 전방면,30,2011-09,02-2670-4067,37.5011591621,126.8963378218,2020-05-06
"서울특별시 영등포구","도신로4길 2,현대2차APT 202동 옆 상가근처 삼거리앞",대림3동 785 현대2차APT 202동 부근 대로변앞,교통단속,3,,360도 전방면,30,2012-06,02-2670-4067,37.5033759790,126.8953938532,2020-05-06
"서울특별시 영등포구",대림로251,대림3동 784,교통단속,4,,360도 전방면,30,2013-01,02-2670-4067,37.5025728639,126.8958110338,2020-05-06
"서울특별시 영등포구",도림동 23-1 고추말어린이공원1,도림동 23-1 고추말어린이공원1,생활방범,1,,360도 전방면,30,2013-07,02-2670-4067,37.5118951553,126.9073384330,2020-05-06
"서울특별시 영등포구","도신로29사길 14,삼거리앞",도림동 130-56 삼거리앞,생활방범,1,,360도 전방면,30,2009-06,02-2670-4067,37.5104269260,126.9060798816,2020-05-06
"서울특별시 영등포구",도림로113길 22,도림동 183-19,쓰레기단속,1,,360도 전방면,30,2009-06,02-2670-4067,37.5088180600,126.8974418009,2020-05-06
"서울특별시 영등포구","도영로7길 12,도림동 주민센터앞",도림동 202-52 도림동 주민센터앞,쓰레기단속,1,,360도 전방면,30,2009-06,02-2670-4067,37.5095403692,126.8957450438,2020-05-06
"서울특별시 영등포구","도림로113길 2,삼거리앞",도림동 156-9 삼거리앞,쓰레기단속,1,,360도 전방면,30,2009-06,02-2670-4067,37.5087855462,126.8993940452,2020-05-06
"서울특별시 영등포구","영신로1길 31-1,삼거리앞",도림동 96-4 삼거리앞,쓰레기단속,1,,360도 전방면,30,2009-06,02-2670-4067,37.5115618526,126.9077299169,2020-05-06
"서울특별시 영등포구","도림로108길 15,사거리앞",도림동 141-122 사거리앞,쓰레기단속,1,,360도 전방면,30,2009-06,02-2670-4067,37.5078514086,126.9026834486,2020-05-06
"서울특별시 영등포구",도림로108길 30,도림동 138-48,쓰레기단속,1,,360도 전방면,30,2009-06,02-2670-4067,37.5085479863,126.9043401913,2020-05-06
"서울특별시 영등포구","영신로9다길 5-1,고추말어린이공원 입구앞",도림동 23-22 고추말어린이공원 입구앞,쓰레기단속,1,,360도 전방면,30,2009-06,02-2670-4067,37.5119649031,126.9073622862,2020-05-06
"서울특별시 영등포구",영신로1가길 13,도림동 8-4 삼거리 오르막길계단앞,생활방범,3,,360도 전방면,30,2014-01,02-2670-4067,37.5116836509,126.9086957478,2020-05-06
"서울특별시 영등포구","영신로9다길 5-1,고추말어린이공원내 정자앞",도림동 23-1 고추말어린이공원내 정자앞,생활방범,4,,360도 전방면,30,2014-01,02-2670-4067,37.5114455829,126.9070144868,2020-05-06
"서울특별시 영등포구",도림로 384,도림동 196-3 상승정밀앞,생활방범,2,,360도 전방면,30,2015-09,02-2670-4067,37.5112257764,126.8985023293,2020-05-06
"서울특별시 영등포구",도신로15다길 27,도림동 231-29,생활방범,1,,360도 전방면,30,2015-09,02-2670-4067,37.5082027906,126.8977316461,2020-05-06
"서울특별시 영등포구","영신로1길 8-2,삼거리앞",도림동 7-25 삼거리앞,생활방범,3,,360도 전방면,30,2016-09,02-2670-4067,37.5111712993,126.9093743894,2020-05-06
"서울특별시 영등포구",도영로11길 7-2,도림동 205-5,생활방범,1,,360도 전방면,30,2016-09,02-2670-4067,37.5105114605,126.8973524960,2020-05-06
"서울특별시 영등포구",도신로 91-13,도림동 150-12,생활방범,3,,360도 전방면,30,2016-09,02-2670-4067,37.5072863376,126.9016986396,2020-05-06
"서울특별시 영등포구","도림로108길 35,삼거리앞",도림동 137-32 삼거리앞,생활방범,3,,360도 전방면,30,2016-10,02-2670-4067,37.5086903193,126.9045813128,2020-05-06
"서울특별시 영등포구",도림로112길 34-1,도림동 141-18,생활방범,3,,360도 전방면,30,2016-10,02-2670-4067,37.5094980881,126.9039567297,2020-05-06
"서울특별시 영등포구",도신로 135-7,도림동 80-28,생활방범,3,,360도 전방면,30,2017-02,02-2670-4067,37.5092071015,126.9060531796,2020-05-06
"서울특별시 영등포구","도신로19길 5,사거리앞",도림동 251-3 사거리앞,생활방범,3,,360도 전방면,30,2017-08,02-2670-4067,37.5070128880,126.9003767737,2020-05-06
"서울특별시 영등포구","도영로11길 28,사거리앞",도림동 289-7 사거리앞,생활방범,3,,360도 전방면,30,2017-08,02-2670-4067,37.5100965694,126.8958041362,2020-05-06
"서울특별시 영등포구","도신로33가길 10-1,삼거리앞",도림동 124-2 삼거리앞,생활방범,3,,360도 전방면,30,2017-08,02-2670-4067,37.5107026068,126.9071611219,2020-05-06
"서울특별시 영등포구",도신로15길 16,도림동 232-14,생활방범,3,,360도 전방면,30,2017-09,02-2670-4067,37.5067339278,126.8980399940,2020-05-06
"서울특별시 영등포구","도신로15나길 10,현대씨티빌앞",도림동 253-114 현대씨티빌앞,생활방범,3,,360도 전방면,30,2017-09,02-2670-4067,37.5067294035,126.8992739805,2020-05-06
"서울특별시 영등포구",도림로108나길 19,도림동 141-174,생활방범,3,,360도 전방면,30,2017-09,02-2670-4067,37.5085739285,126.9032785259,2020-05-06
"서울특별시 영등포구",영신로1길 18-1,도림동 37-5,생활방범,3,,360도 전방면,30,2017-09,02-2670-4067,37.5106563624,126.9085644827,2020-05-06
"서울특별시 영등포구","도신로29다길 2,사거리앞",도림동 82-18 사거리앞,생활방범,2,,360도 전방면,30,2017-09,02-2670-4067,37.5096733642,126.9068250184,2020-05-06
"서울특별시 영등포구",도신로19길 19-1,도림동 241-25,생활방범,2,,360도 전방면,30,2017-09,02-2670-4067,37.5080913485,126.8996487986,2020-05-06
"서울특별시 영등포구",도신로33길 4-15,도림동 72-5,생활방범,5,,360도 전방면,30,2017-09,02-2670-4067,37.5102630730,126.9082629033,2020-05-06
"서울특별시 영등포구",도신로19길 21-13,도림동 237-5,생활방범,4,,360도 전방면,30,2018-08,02-2670-4067,37.5081141986,126.8986588036,2020-05-06
"서울특별시 영등포구",도영로7가길 10,도림동 205-34,생활방범,3,,360도 전방면,30,2018-08,02-2670-4067,37.5096753285,126.8961648018,2020-05-06
"서울특별시 영등포구","도영로11길 30,쌍용플레티넘시티 101동 근처 도림보도육교앞","도림동 286-2, 쌍용플레티넘시티 101동 근처 도림보도육교앞",생활방범,3,,360도 전방면,30,2018-08,02-2670-4067,37.5092525567,126.8930402822,2020-05-06
"서울특별시 영등포구","도영로11길 30,쌍용플레티넘시티 104동 근처 철길옆 보행자통로앞","도림동 286-2, 쌍용플레티넘시티 104동 근처 철길옆 보행자통로앞",생활방범,2,,360도 전방면,30,2018-10,02-2670-4067,37.5096573733,126.8938792725,2020-05-06
"서울특별시 영등포구","도림동 819-2,자이APT 108동~대우미래사랑 102동 사이","도림동 819-2,자이APT 108동~대우미래사랑 102동 사이",생활방범,2,,360도 전방면,30,2018-10,02-2670-4067,37.5110735364,126.9005003109,2020-05-06
"서울특별시 영등포구",도신로29나길 7,도림동 117-1,생활방범,3,,360도 전방면,30,2018-10,02-2670-4067,37.5102623634,126.9067814897,2020-05-06
"서울특별시 영등포구",도신로15나길 16,도림동 239-23,생활방범,2,,360도 전방면,30,2018-11,02-2670-4067,37.5073943288,126.8996102428,2020-05-06
"서울특별시 영등포구",신길로 209,도림동 32-32,생활방범,3,,360도 전방면,30,2015-09,02-2670-4067,37.5106323015,126.9098542472,2020-05-06
"서울특별시 영등포구",도림로108가길 3,도림동 152-33,생활방범,3,,360도 전방면,30,2016-10,02-2670-4067,37.5077777043,126.9013830576,2020-05-06
"서울특별시 영등포구",도신로25길 15-5,도림동 153-2,생활방범,4,,360도 전방면,30,2016-10,02-2670-4067,37.5086260903,126.9016445083,2020-05-06
"서울특별시 영등포구",도신로25길 15,도림동 147-2,생활방범,3,,360도 전방면,30,2006-01,02-2670-4067,37.5085712911,126.9021632605,2020-05-06
"서울특별시 영등포구",도림로112가길 3,도림동 143-2,생활방범,6,,360도 전방면,30,2006-01,02-2670-4067,37.5089417377,126.9022826040,2020-05-06
"서울특별시 영등포구",도신로112다길 5-1,신길동 296-34,생활방범,4,,360도 전방면,30,2012-01,02-2670-4067,37.5089067875,126.9030582120,2020-05-06
"서울특별시 영등포구",도림로112길 30-7,도림동 141-31,생활방범,3,,360도 전방면,30,2017-02,02-2670-4067,37.5091698866,126.9032144386,2020-05-06
"서울특별시 영등포구",도림로110길 7-12,도림동 253-15,생활방범,2,,360도 전방면,30,2012-11,02-2670-4067,37.5086491074,126.9013072989,2020-05-06
"서울특별시 영등포구",도신로39길 12-1 통신주 옆,도림동 1-49,생활방범,3,,360도 전방면,30,2012-11,02-2670-4067,37.5116366354,126.9094638479,2020-05-06
"서울특별시 영등포구",도림로113길 5 소공원 앞,도림동 241-19,생활방범,3,,360도 전방면,30,2012-11,02-2670-4067,37.5086411237,126.8993138704,2020-05-06
"서울특별시 영등포구",도림동 246-14 세차장앞 버스정류장 인도,도림동 246-14 세차장앞 버스정류장 인도,생활방범,3,,360도 전방면,30,2012-07,02-2670-4067,37.5072152090,126.9011876902,2020-05-06
"서울특별시 영등포구",영신로1길 46,도림동 1-9,생활방범,3,,360도 전방면,30,2011-11,02-2670-4067,37.5120421370,126.9086970938,2020-05-06
"서울특별시 영등포구",도림로113길 17,도림동 234-1,생활방범,6,,360도 전방면,30,2011-11,02-2670-4067,37.5089246784,126.8978712368,2020-05-06
"서울특별시 영등포구",도신로29바길 16,도림동 130-25,생활방범,2,,360도 전방면,30,2011-11,02-2670-4067,37.5101412255,126.9062924992,2020-05-06
"서울특별시 영등포구",도신로29다길 11,도림동 103-1,생활방범,4,,360도 전방면,30,2013-12,02-2670-4067,37.5103764545,126.9074088279,2020-05-06
"서울특별시 영등포구",영신로1길 8-14,,생활방범,5,,360도 전방면,30,2013-12,02-2670-4067,37.5113643214,126.9085826196,2020-05-06
"서울특별시 영등포구",도림로 353,,생활방범,3,,360도 전방면,30,2015-12,02-2670-4067,37.5085632923,126.8999016572,2020-05-06
"서울특별시 영등포구",영신로9바길 8,,생활방범,5,,360도 전방면,30,2018-06,02-2670-4067,37.5112305166,126.9065312274,2020-05-06
"서울특별시 영등포구",영신로9다길 11,,생활방범,3,,360도 전방면,30,2018-06,02-2670-4067,37.5115541102,126.9077939292,2020-05-06
"서울특별시 영등포구",도림로112길 32-9,,생활방범,4,,360도 전방면,30,2015-12,02-2670-4067,37.5091446935,126.9037542652,2020-05-06
"서울특별시 영등포구",도림로113길 28,,생활방범,4,,360도 전방면,30,2017-01,02-2670-4067,37.5087463597,126.8966227911,2020-05-06
"서울특별시 영등포구","도림로112길 6,사거리앞",도림동 154-21 사거리앞,생활방범,4,,360도 전방면,30,2011-09,02-2670-4067,37.5086952507,126.9007379324,2020-05-06
"서울특별시 영등포구",도림로 379,도림동 187-80,생활방범,4,,360도 전방면,30,2010-11,02-2670-4067,37.5106411644,126.8985142537,2020-05-06
"서울특별시 영등포구","도림로 382,자이APT 105동 부근 사거리앞",도림동 192-1,생활방범,3,,360도 전방면,30,2010-11,02-2670-4067,37.5107325838,126.8988126715,2020-05-06
"서울특별시 영등포구",도림로 340,도림동 152-39,교통단속,3,,360도 전방면,30,2010-11,02-2670-4067,37.5076133910,126.9009195253,2020-05-06
"서울특별시 영등포구","도림로 356,근처 삼거리앞",도림동 157-11,교통단속,3,,360도 전방면,30,2010-11,02-2670-4067,37.5091491510,126.8998574783,2020-05-06
"서울특별시 영등포구",도영로 23,도림동 268-3,교통단속,3,,360도 전방면,30,2015-09,02-2670-4067,37.5085545023,126.8959608299,2020-05-06
"서울특별시 영등포구","도림동 819-2,자이APT 108동~대우미래사랑 102동 사이","도림동 819-2,자이APT 108동~대우미래사랑 102동 사이",교통단속,1,,360도 전방면,30,2011-01,02-2670-4067,37.5110424332,126.9003686793,2020-05-06
"서울특별시 영등포구",문래동3가 60-2 문래근린공원1,문래동3가 60-2 문래근린공원1,생활방범,1,,360도 전방면,30,2012-06,02-2670-4067,37.5154000023,126.8938287298,2020-05-06
"서울특별시 영등포구",문래동3가 60-2 문래근린공원2,문래동3가 60-2 문래근린공원2,생활방범,1,,360도 전방면,30,2013-11,02-2670-4067,37.5180371416,126.8942306085,2020-05-06
"서울특별시 영등포구",문래동3가 60-2 문래근린공원3,문래동3가 60-2 문래근린공원3,생활방범,1,,360도 전방면,30,2010-11,02-2670-4067,37.5183547614,126.8937433502,2020-05-06
"서울특별시 영등포구","문래로4길 4,현대1차,2차 사이 사거리앞 글마당공원1","문래동6가 45 현대1차,2차 사이 사거리앞 글마당공원1",생활방범,1,,360도 전방면,30,2010-11,02-2670-4067,37.5198785351,126.8835624708,2020-05-06
"서울특별시 영등포구",문래동5가 22-3 진주공원1,문래동5가 22-3 진주공원1,생활방범,2,,360도 전방면,30,2010-11,02-2670-4067,37.5170867201,126.8852937321,2020-05-06
"서울특별시 영등포구",문래동6가 25-1 문래소공원1,문래동6가 25-1 문래소공원1,생활방범,1,,360도 전방면,30,2010-11,02-2670-4067,37.5196995271,126.8867405881,2020-05-06
"서울특별시 영등포구",문래동6가 25-1 문래소공원2,문래동6가 25-1 문래소공원2,생활방범,1,,360도 전방면,30,2010-11,02-2670-4067,37.5199551800,126.8870449409,2020-05-06
"서울특별시 영등포구",문래동3가 94-1 목화마을공원1,문래동3가 94-1 목화마을공원1,생활방범,1,,360도 전방면,30,2010-11,02-2670-4067,37.5193242836,126.8899745590,2020-05-06
"서울특별시 영등포구",문래동3가 94-1 목화마을공원2,문래동3가 94-1 목화마을공원2,생활방범,1,,360도 전방면,30,2010-11,02-2670-4067,37.5196771461,126.8901654435,2020-05-06
"서울특별시 영등포구","문래로 95,한국전력공사 영등포점 주차장 왼편 차없는거리공원1",문래동3가 80 한국전력공사 영등포점 주차장 왼편 차없는거리공원1,생활방범,2,,360도 전방면,30,2010-11,02-2670-4067,37.5202997809,126.8938674864,2020-05-06
"서울특별시 영등포구",선유서로9길 3 생활권 녹지공원1,문래동5가 23-1,생활방범,3,,360도 전방면,30,2014-01,02-2670-4067,37.5170908669,126.8831633411,2020-05-06
"서울특별시 영등포구",선유서로9길 3 생활권 녹지공원2,문래동5가 23-1,생활방범,2,,360도 전방면,30,2014-01,02-2670-4067,37.5170202147,126.8836513245,2020-05-06
"서울특별시 영등포구",영등포로30길 9,당산동1가 3-2,쓰레기단속,1,,360도 전방면,30,2016-09,02-2670-4067,37.5196060445,126.8997000610,2020-05-06
"서울특별시 영등포구",경인로77길 56-1,문래동4가 38-13,쓰레기단속,1,,360도 전방면,30,2016-09,02-2670-4067,37.5148351635,126.8884123056,2020-05-06
"서울특별시 영등포구","도림로143길 8-1,사거리앞",문래동4가 12-31 사거리앞,생활방범,1,,360도 전방면,30,2016-09,02-2670-4067,37.5149860980,126.8911959970,2020-05-06
"서울특별시 영등포구","경인로74길 9,사거리앞",문래동1가 83 사거리앞,생활방범,3,,360도 전방면,30,2017-02,02-2670-4067,37.5104709343,126.8935425470,2020-05-06
"서울특별시 영등포구","선유서로 3,대원화학~현대3차APT 101동 사이 삼거리앞",문래동5가 27 대원화학㈜ 건물뒷편~현대3차APT 사이도로 삼거리앞,생활방범,2,,360도 전방면,30,2017-08,02-2670-4067,37.5167523946,126.8840834045,2020-05-06
"서울특별시 영등포구","선유로13길 25,서울영문초등학교 사거리앞",선유로13길 25,생활방범,3,,360도 전방면,30,2018-08,02-2670-4067,37.5193534457,126.8869604124,2020-05-06
"서울특별시 영등포구","문래로4길 4,현대2차APT 202동 옆 서부간선도로 사잇길 육교앞",문래로4길 4,생활방범,2,,360도 전방면,30,2018-08,02-2670-4067,37.5201778962,126.8821100523,2020-05-06
"서울특별시 영등포구","선유로9나길 22,사거리앞",문래동5가 12 사거리앞,생활방범,3,,360도 전방면,30,2018-08,02-2670-4067,37.5158761573,126.8861135350,2020-05-06
"서울특별시 영등포구",경인로94길 9-13,문래동1가 2-6,생활방범,3,,360도 전방면,30,2018-08,02-2670-4067,37.5144729108,126.9036309670,2020-05-06
"서울특별시 영등포구","선유서로 31,현대6차APT 602동 근처 창대교회 사거리앞",문래동6가 55-1 현대6차APT 602동 근처 창대감리교회 사거리앞,생활방범,1,,360도 전방면,30,2018-08,02-2670-4067,37.5189357651,126.8833181722,2020-05-06
"서울특별시 영등포구","경인로 756,도림고가 보행자통행로(영등포초교방면) 내부안",문래동1가 35-2 도림고가 보행자통행로(영등포초교방면) 내부안,생활방범,1,,360도 전방면,30,2018-10,02-2670-4067,37.5123852760,126.8978292817,2020-05-06
"서울특별시 영등포구","경인로80길 7,사거리앞",문래동1가 51-2 사거리앞,생활방범,4,,360도 전방면,30,2018-10,02-2670-4067,37.5116473092,126.8956811169,2020-05-06
"서울특별시 영등포구","경인로77가길 6,사거리앞",문래동2가 33-4 사거리앞,생활방범,4,,360도 전방면,30,2013-11,02-2670-4067,37.5122131191,126.8928412599,2020-05-06
"서울특별시 영등포구","경인로90길 9-1,삼거리앞",문래동1가 18-18 삼거리앞,생활방범,3,,360도 전방면,30,2013-11,02-2670-4067,37.5133672767,126.9009934326,2020-05-06
"서울특별시 영등포구","도림로128가길 11,문래자이APT 106-107동 사이도로앞",문래동3가 54-22 ~ 문래자이APT 106-107동 사이도로앞,생활방범,3,,360도 전방면,30,2015-09,02-2670-4067,37.5150455646,126.8969818104,2020-05-06
"서울특별시 영등포구","도림로133길 15,사거리앞",문래동2가 20-2 사거리앞,생활방범,6,,360도 전방면,30,2015-09,02-2670-4067,37.5131441889,126.8941127212,2020-05-06
"서울특별시 영등포구","도림로145길 10,사거리앞",문래동4가 11-46 사거리앞,생활방범,5,,360도 전방면,30,2015-09,02-2670-4067,37.5155322848,126.8900669919,2020-05-06
"서울특별시 영등포구","영신로25길 7,문래해태APT 출입구앞",문래동3가 14-1 문래해태APT 출입구앞,생활방범,2,,360도 전방면,30,2010-12,02-2670-4067,37.5170800285,126.9012285194,2020-05-06
"서울특별시 영등포구","도림로143길 30,문래삼환APT 105동~리버뷰신안인스빌 202동사이 고가도로앞 삼거리",문래동4가 43 문래삼환APT옆 105동~리버뷰신안인스빌 202동사이 고가도로앞 삼거리,생활방범,3,,360도 전방면,30,2011-02,02-2670-4067,37.5130890391,126.8897667784,2020-05-06
"서울특별시 영등포구",경인로77길 38,문래동4가 35-2,생활방범,3,,360도 전방면,30,2011-02,02-2670-4067,37.5139004146,126.8903790407,2020-05-06
"서울특별시 영등포구",도림로147길 4,문래동4가 9-10,생활방범,4,,360도 전방면,30,2011-02,02-2670-4067,37.5164606778,126.8891675954,2020-05-06
"서울특별시 영등포구",경인로71길 6,문래동2가 36-6,생활방범,3,,360도 전방면,30,2013-01,02-2670-4067,37.5116722504,126.8914195610,2020-05-06
"서울특별시 영등포구",도림로147길 15,문래동4가 30-1,생활방범,4,,360도 전방면,30,2013-01,02-2670-4067,37.5156827458,126.8888034908,2020-05-06
"서울특별시 영등포구",경인로74길 2,문래동1가 95-1,생활방범,4,,360도 전방면,30,2013-01,02-2670-4067,37.5110399457,126.8930717747,2020-05-06
"서울특별시 영등포구","문래동2가 63,도림교하부 안양천 보행로","문래동2가 63,도림교하부 안양천 보행로",생활방범,4,,360도 전방면,30,2013-09,02-2670-4067,37.5110943320,126.8910741131,2020-05-06
"서울특별시 영등포구",영신로 83,문래동3가 2,생활방범,3,,360도 전방면,30,2013-09,02-2670-4067,37.5154696139,126.9022341335,2020-05-06
"서울특별시 영등포구",영등포로30길 17-5 일심경로당 앞,문래동3가 27-12,생활방범,2,,360도 전방면,30,2013-09,02-2670-4067,37.5190186947,126.8995669814,2020-05-06
"서울특별시 영등포구",경인로94길 6,문래동1가 13,생활방범,4,,360도 전방면,30,2013-09,02-2670-4067,37.5145217065,126.9027246542,2020-05-06
"서울특별시 영등포구",도림로 438-5,문래동3가 58-46,생활방범,11,,360도 전방면,30,2013-09,02-2670-4067,37.5148184816,126.8946566628,2020-05-06
"서울특별시 영등포구",선유서로 35 문래한신@와 문래중학교사이사거리 일방통행길 입구,문래동6가 43 문래한신@와 문래중학교사이사거리 일방통행길 입구,생활방범,4,,360도 전방면,30,2013-09,02-2670-4067,37.5196734874,126.8847970558,2020-05-06
"서울특별시 영등포구",도림로133길 8,문래동2가 14-41,생활방범,4,,360도 전방면,30,2006-01,02-2670-4067,37.5137201051,126.8945504222,2020-05-06
"서울특별시 영등포구",경인로78길 14,문래동1가 67-2,생활방범,3,,360도 전방면,30,2006-01,02-2670-4067,37.5107725578,126.8949204117,2020-05-06
"서울특별시 영등포구",문래로20길 46,문래동3가 77-10,생활방범,2,,360도 전방면,30,2013-09,02-2670-4067,37.5170709369,126.8908909493,2020-05-06
"서울특별시 영등포구",경인로71길 64,,생활방범,3,,360도 전방면,30,2016-10,02-2670-4067,37.5147012303,126.8862618799,2020-05-06
"서울특별시 영등포구",경인로78길 5,,생활방범,4,,360도 전방면,30,2015-09,02-2670-4067,37.5116209427,126.8943836443,2020-05-06
"서울특별시 영등포구",도림로128가길 11,,생활방범,2,,360도 전방면,30,2012-11,02-2670-4067,37.5146378369,126.8967634742,2020-05-06
"서울특별시 영등포구",도림로133길 2,,생활방범,7,,360도 전방면,30,2012-11,02-2670-4067,37.5140733294,126.8945102494,2020-05-06
"서울특별시 영등포구",도림로125길 3,,생활방범,3,,360도 전방면,30,2012-11,02-2670-4067,37.5132573611,126.8959025613,2020-05-06
"서울특별시 영등포구",도림로141다길 18,,생활방범,6,,360도 전방면,30,2014-12,02-2670-4067,37.5148664038,126.8905642008,2020-05-06
"서울특별시 영등포구",도림로141다길 2,,생활방범,5,,360도 전방면,30,2006-02,02-2670-4067,37.5141238122,126.8921245309,2020-05-06
"서울특별시 영등포구",선유로3길 21,,생활방범,4,,360도 전방면,30,2006-02,02-2670-4067,37.5156339784,126.8854561063,2020-05-06
"서울특별시 영등포구","문래로 104,문래초교 정문앞",문래동3가 77-7 문래초교 정문앞,생활방범,1,,360도 전방면,30,2006-02,02-2670-4067,37.5192379956,126.8936430968,2020-05-06
"서울특별시 영등포구","문래로 104,문래초교~문래공원 사잇길 근처",문래동3가 77-7 문래초교 ~ 문래공원 사잇길 부근,생활방범,1,,360도 전방면,30,2006-02,02-2670-4067,37.5182930979,126.8936738148,2020-05-06
"서울특별시 영등포구","경인로88길 12-19,도림고가차도밑 근처",영등포동 618-146 도림고가차도밑 부근,생활방범,3,,360도 전방면,30,2006-02,02-2670-4067,37.5119379588,126.8977281674,2020-05-06
"서울특별시 영등포구","선유로3길 25,삼거리앞",문래동5가 19-1 삼거리앞,생활방범,3,,360도 전방면,30,2006-02,02-2670-4067,37.5163106631,126.8850926747,2020-05-06
"서울특별시 영등포구","문래로10길 18-1,사거리앞",문래동6가 22-3 사거리앞,생활방범,4,,360도 전방면,30,2006-02,02-2670-4067,37.5183932841,126.8868764067,2020-05-06
"서울특별시 영등포구","경인로88길 9,영등포초교, 구로세무서 사이 삼거리","문래동1가 29-3 ~ 영등포초교, 구로세무서 사이 삼거리",생활방범,3,,360도 전방면,30,2006-02,02-2670-4067,37.5132228009,126.8995954127,2020-05-06
"서울특별시 영등포구","경인로 756,영등포초교 문래동사거리근처 출입문앞",문래동1가 35-2 영등포초교 문래동사거리근처 출입문앞,생활방범,4,,360도 전방면,30,2006-02,02-2670-4067,37.5131052084,126.8974916457,2020-05-06
"서울특별시 영등포구","경인로 756,영등포초교 운동장앞 출입문",문래동1가 35-2 영등포초교 운동장앞 출입문,생활방범,1,,360도 전방면,30,2007-01,02-2670-4067,37.5122747195,126.8985548725,2020-05-06
"서울특별시 영등포구","문래로 56,영문초교 후문앞",문래동6가 13 영문초교 후문앞,생활방범,3,,360도 전방면,30,2007-01,02-2670-4067,37.5200548074,126.8882805751,2020-05-06
"서울특별시 영등포구","문래로 157,사거리앞",문래동3가 29-11,교통단속,4,,360도 전방면,30,2006-01,02-2670-4067,37.5186514709,126.8994694994,2020-05-06
"서울특별시 영등포구",도림로 428-1,문래동3가 58-85,교통단속,3,,360도 전방면,30,2011-01,02-2670-4067,37.5140479789,126.8956270959,2020-05-06
"서울특별시 영등포구",도림로 465,문래동4가 6-1,교통단속,3,,360도 전방면,30,2011-01,02-2670-4067,37.5157915158,126.8915497329,2020-05-06
"서울특별시 영등포구","선유로 59,삼거리앞",문래동6가 5-2,교통단속,4,,360도 전방면,30,2015-12,02-2670-4067,37.5190318702,126.8891220361,2020-05-06
"서울특별시 영등포구","선유로 75,GS강서타워 정문앞 대로변",문래동6가 10,교통단속,3,,360도 전방면,30,2016-11,02-2670-4067,37.5207746562,126.8895682753,2020-05-06
"서울특별시 영등포구","문래로 92,사거리앞",문래동3가 77-13 사거리앞,교통단속,1,,360도 전방면,30,2017-01,02-2670-4067,37.5194369924,126.8919456148,2020-05-06
"서울특별시 영등포구",경인로 767,문래동3가 54-54,교통단속,4,,360도 전방면,30,2011-09,02-2670-4067,37.5139644198,126.8991427027,2020-05-06
"서울특별시 영등포구","당산로26,문래역 7번츌구앞",문래동3가 54 문래역 7번출구앞,교통단속,1,,360도 전방면,30,2011-09,02-2670-4067,37.5171233152,126.8946534419,2020-05-06
"서울특별시 영등포구","경인로77길 18,맞은편앞",문래동2가 49-19 맞은편 대로변앞,교통단속,3,,360도 전방면,30,2011-09,02-2670-4067,37.5130175851,126.8922938412,2020-05-06
"서울특별시 영등포구","도림로139길 12-1,사거리앞",문래동2가 57-4 사거리앞,교통단속,3,,360도 전방면,30,2009-06,02-2670-4067,37.5138362083,126.8927246457,2020-05-06
"서울특별시 영등포구","도림로 486,영등포노인종합복지관앞",문래동3가 76-2 영등포노인종합복지관앞,교통단속,5,,360도 전방면,30,2009-06,02-2670-4067,37.5172314585,126.8887832989,2020-05-06
"서울특별시 영등포구","경인로77길 48,사거리앞",문래동4가 37-16 사거리앞,교통단속,1,,360도 전방면,30,2009-06,02-2670-4067,37.5144748014,126.8892917947,2020-05-06
"서울특별시 영등포구","선유로13길 25,서울영문초등학교 사거리앞",문래동6가 23 서울영문초교부근 사거리앞,교통단속,1,,360도 전방면,30,2009-06,02-2670-4067,37.5193712936,126.8869282113,2020-05-06
"서울특별시 영등포구","문래로10길 18-1,사거리앞",문래동6가 22-3 사거리앞,교통단속,1,,360도 전방면,30,2009-06,02-2670-4067,37.5184038837,126.8867447041,2020-05-06
"서울특별시 영등포구",경인로88길 9,,교통단속,4,,360도 전방면,30,2009-06,02-2670-4067,37.5128502690,126.8997971467,2020-05-06
"서울특별시 영등포구",신길동 4934-4 매낙골근린공원1,신길1동 4934-4 매낙골근린공원1,생활방범,1,,360도 전방면,30,2009-06,02-2670-4067,37.5062646808,126.9156066873,2020-05-06
"서울특별시 영등포구",신길동 4934-4 매낙골근린공원2,신길1동 4934-4 매낙골근린공원2,생활방범,1,,360도 전방면,30,2009-06,02-2670-4067,37.5068938342,126.9153411378,2020-05-06
"서울특별시 영등포구",신길동 4934-4 매낙골근린공원3,신길1동 4934-4 매낙골근린공원3,생활방범,1,,360도 전방면,30,2009-06,02-2670-4067,37.5077533040,126.9154478780,2020-05-06
"서울특별시 영등포구","여의대방로49길 16,근처 신일어린이공원1",신길1동 454-8 앞 신일어린이공원1,생활방범,1,,360도 전방면,30,2009-06,02-2670-4067,37.5100781925,126.9222801832,2020-05-06
"서울특별시 영등포구",영등포로65길 23,신길1동 63-31,생활방범,1,,360도 전방면,30,2009-06,02-2670-4067,37.5154906929,126.9199496345,2020-05-06
"서울특별시 영등포구",영등포로67가길 12-7,신길1동 97-12,생활방범,1,,360도 전방면,30,2013-01,02-2670-4067,37.5145542804,126.9197075030,2020-05-06
"서울특별시 영등포구","영등포로79길 9,삼거리앞",신길1동 65-103 삼거리앞,생활방범,5,,360도 전방면,30,2013-01,02-2670-4067,37.5146210686,126.9213381749,2020-05-06
"서울특별시 영등포구","영등포로79길 4-7,길 코너앞",신길1동 65-93 길 코너앞,생활방범,1,,360도 전방면,30,2014-02,02-2670-4067,37.5139888349,126.9215587806,2020-05-06
"서울특별시 영등포구","영등포로84길 38,삼거리앞",신길1동 456-32 삼거리앞,생활방범,1,,360도 전방면,30,2014-01,02-2670-4067,37.5098903361,126.9221389401,2020-05-06
"서울특별시 영등포구","영등포로80길 13,사거리앞",신길1동 95-201 사거리앞,생활방범,1,,360도 전방면,30,2014-01,02-2670-4067,37.5123116726,126.9203003955,2020-05-06
"서울특별시 영등포구","여의대방로47다길 26,사거리앞",신길1동 88-36 사거리앞,생활방범,4,,360도 전방면,30,2014-12,02-2670-4067,37.5111114221,126.9204248358,2020-05-06
"서울특별시 영등포구","여의대방로47나길 28,사거리앞",신길1동 92-76 사거리앞,생활방범,1,,360도 전방면,30,2015-09,02-2670-4067,37.5108379321,126.9195555166,2020-05-06
"서울특별시 영등포구","여의대방로53나길 28,오거리앞",신길1동 88-41 오거리앞,생활방범,2,,360도 전방면,30,2015-11,02-2670-4067,37.5107241004,126.9207785347,2020-05-06
"서울특별시 영등포구",여의대방로53나길 41-4,신길1동 89-69,생활방범,1,,360도 전방면,30,2015-12,02-2670-4067,37.5100553874,126.9208605421,2020-05-06
"서울특별시 영등포구","영등포로84길 16,사거리앞",신길1동 466-13 사거리앞,생활방범,1,,360도 전방면,30,2007-01,02-2670-4067,37.5119508515,126.9218479577,2020-05-06
"서울특별시 영등포구","여의대방로53나길 19,사거리앞",신길1동 89-11 사거리앞,쓰레기단속,1,,360도 전방면,30,2016-09,02-2670-4067,37.5113161080,126.9208169980,2020-05-06
"서울특별시 영등포구",여의대방로61길 18-2,신길1동 1-10,쓰레기단속,1,,360도 전방면,30,2016-09,02-2670-4067,37.5149764147,126.9244798069,2020-05-06
"서울특별시 영등포구",영등포로86길 22,신길1동 453-1,쓰레기단속,1,,360도 전방면,30,2017-08,02-2670-4067,37.5112186962,126.9228847810,2020-05-06
"서울특별시 영등포구",영등포로78길 8,신길1동 95-159,쓰레기단속,1,,360도 전방면,30,2017-12,02-2670-4067,37.5131475142,126.9203221262,2020-05-06
"서울특별시 영등포구",여의대방로59길 30,신길1동 4-35,쓰레기단속,1,,360도 전방면,30,2017-12,02-2670-4067,37.5144057843,126.9226812262,2020-05-06
"서울특별시 영등포구",여의대방로47길 29,신길1동 462-5,쓰레기단속,1,,360도 전방면,30,2018-08,02-2670-4067,37.5089318410,126.9208105705,2020-05-06
"서울특별시 영등포구",도신로60길 17-12,신길1동 117-25 참아름 어린이집앞,생활방범,1,,360도 전방면,30,2018-08,02-2670-4067,37.5105540584,126.9182826837,2020-05-06
"서울특별시 영등포구",여의대방로61길 36,신길1동 9-53 사러가마켓앞,생활방범,1,,360도 전방면,30,2018-10,02-2670-4067,37.5154466595,126.9225552434,2020-05-06
"서울특별시 영등포구",도신로54길 11,신길1동 157-28 성신머리방앞,생활방범,1,,360도 전방면,30,2018-10,02-2670-4067,37.5104849084,126.9150043286,2020-05-06
"서울특별시 영등포구","여의대방로59길 16-1,삼거리앞",신길1동 2-27 삼거리앞,생활방범,3,,360도 전방면,30,2018-11,02-2670-4067,37.5137644295,126.9240717417,2020-05-06
"서울특별시 영등포구",도신로62길 40,신길1동 124-31,생활방범,3,,360도 전방면,30,2017-06,02-2670-4067,37.5092654740,126.9202095994,2020-05-06
"서울특별시 영등포구",도신로56길 30-1,신길1동 202-212,생활방범,3,,360도 전방면,30,2015-09,02-2670-4067,37.5089386298,126.9158441918,2020-05-06
"서울특별시 영등포구",영등포로67길 6-9,신길1동 61-64,생활방범,2,,360도 전방면,30,2012-09,02-2670-4067,37.5151869285,126.9193479939,2020-05-06
"서울특별시 영등포구","도신로64길 13-13,승원베스트빌 라동 뒷편앞",신길1동 95-302 승원베스트빌 라동 뒷편앞,생활방범,4,,360도 전방면,30,2013-09,02-2670-4067,37.5131853005,126.9189771093,2020-05-06
"서울특별시 영등포구","도신로64길 14,삼거리앞",신길1동 113-90 삼거리앞,생활방범,3,,360도 전방면,30,2012-06,02-2670-4067,37.5122609580,126.9187241053,2020-05-06
"서울특별시 영등포구","도신로60길 17,삼거리앞",신길1동 117-14 삼거리앞,생활방범,4,,360도 전방면,30,2012-11,02-2670-4067,37.5104114672,126.9173100237,2020-05-06
"서울특별시 영등포구",여의대방로47나길 14,신길1동 89-201,생활방범,3,,360도 전방면,30,2013-06,02-2670-4067,37.5098568927,126.9205105435,2020-05-06
"서울특별시 영등포구","영등포로67가길 11-2,삼거리앞",신길1동 64-30 삼거리앞,생활방범,3,,360도 전방면,30,2015-06,02-2670-4067,37.5148299796,126.9198896202,2020-05-06
"서울특별시 영등포구","도신로62길 32-1,영신초교 담벼락앞",신길1동 121-3 영신초교 담벼락앞,생활방범,2,,360도 전방면,30,2005-01,02-2670-4067,37.5097947964,126.9191963303,2020-05-06
"서울특별시 영등포구","여의대방로59나길 1,지하통행로입구앞",신길1동 5-10 옆 지하로입구앞,생활방범,5,,360도 전방면,30,2017-01,02-2670-4067,37.5147144220,126.9222877872,2020-05-06
"서울특별시 영등포구","도신로58길 10,사거리앞",신길1동 154-15 사거리앞,생활방범,1,,360도 전방면,30,2011-09,02-2670-4067,37.5111132323,126.9166841859,2020-05-06
"서울특별시 영등포구",여의대방로59길 16-17,신길1동 2-5,생활방범,5,,360도 전방면,30,2011-09,02-2670-4067,37.5146953920,126.9242887024,2020-05-06
"서울특별시 영등포구",영등포로72길 32,신길1동 113-42,생활방범,3,,360도 전방면,30,2011-09,02-2670-4067,37.5112409739,126.9185961208,2020-05-06
"서울특별시 영등포구",도신로52길 5-3,신길1동 160-31,생활방범,3,,360도 전방면,30,2007-08,02-2670-4067,37.5109184240,126.9142942579,2020-05-06
"서울특별시 영등포구",신길로42가길 47,신길1동 147-25,생활방범,4,,360도 전방면,30,2007-08,02-2670-4067,37.5088777128,126.9165101892,2020-05-06
"서울특별시 영등포구",신길동 28-5,신길1동 28-5,생활방범,3,,360도 전방면,30,2007-08,02-2670-4067,37.5175110341,126.9168111318,2020-05-06
"서울특별시 영등포구",도신로62길 25,신길1동 120-110,생활방범,2,,360도 전방면,30,2007-08,02-2670-4067,37.5101786321,126.9191679045,2020-05-06
"서울특별시 영등포구",여의대방로61길 57,신길1동 18-1,생활방범,2,,360도 전방면,30,2007-08,02-2670-4067,37.5165855425,126.9197057615,2020-05-06
"서울특별시 영등포구","여의대방로47길 23,오거리앞",신길1동 458-20 오거리앞,생활방범,1,,360도 전방면,30,2007-08,02-2670-4067,37.5087761587,126.9214780584,2020-05-06
"서울특별시 영등포구","영등포로86길 16,사거리앞",신길1동 452-1 사거리앞,생활방범,1,,360도 전방면,30,2007-08,02-2670-4067,37.5116544773,126.9230771552,2020-05-06
"서울특별시 영등포구",여의대방로61길 25-13,신길1동 4-74,생활방범,4,,360도 전방면,30,2007-08,02-2670-4067,37.5145628905,126.9232185194,2020-05-06
"서울특별시 영등포구",도신로64가길 8,신길1동 113-126,생활방범,3,,360도 전방면,30,2007-08,02-2670-4067,37.5117484950,126.9191415346,2020-05-06
"서울특별시 영등포구",도신로62길 15,신길1동 119-21,생활방범,3,,360도 전방면,30,2013-01,02-2670-4067,37.5109743828,126.9183057392,2020-05-06
"서울특별시 영등포구",도신로54길3-9,신길1동 159-11,생활방범,4,,360도 전방면,30,2013-07,02-2670-4067,37.5113096795,126.9155208006,2020-05-06
"서울특별시 영등포구",도신로56길15,신길1동 151-11,생활방범,4,,360도 전방면,30,2007-08,02-2670-4067,37.5102628739,126.9159574172,2020-05-06
"서울특별시 영등포구",영등포로76길 7-1,신길1동 95-290,생활방범,3,,360도 전방면,30,2014-01,02-2670-4067,37.5131245444,126.9196031774,2020-05-06
"서울특별시 영등포구",도신로56길 4-1,신길1동 156-4,생활방범,5,,360도 전방면,30,2014-12,02-2670-4067,37.5112919072,126.9160008767,2020-05-06
"서울특별시 영등포구",도신로 208,신길1동 160-38,생활방범,5,,360도 전방면,30,2015-03,02-2670-4067,37.5115034590,126.9146729784,2020-05-06
"서울특별시 영등포구",여의대방로47가길 10,신길1동 458-28,생활방범,6,,360도 전방면,30,2015-09,02-2670-4067,37.5079520402,126.9216198366,2020-05-06
"서울특별시 영등포구",여의대방로47길 24-13,신길1동 463-12,생활방범,3,,360도 전방면,30,2015-12,02-2670-4067,37.5096215543,126.9212558232,2020-05-06
"서울특별시 영등포구",영등포로86가길 16-1,,생활방범,4,,360도 전방면,30,2016-09,02-2670-4067,37.5124901346,126.9215212509,2020-05-06
"서울특별시 영등포구",영등포로65길 15,,생활방범,5,,360도 전방면,30,2016-09,02-2670-4067,37.5158521591,126.9191432868,2020-05-06
"서울특별시 영등포구",영등포로74길 11,,생활방범,3,,360도 전방면,30,2016-09,02-2670-4067,37.5132041866,126.9184656897,2020-05-06
"서울특별시 영등포구",도신로68길 13-1,,생활방범,4,,360도 전방면,30,2016-09,02-2670-4067,37.5119255866,126.9181018603,2020-05-06
"서울특별시 영등포구",영등포로80길 7,,생활방범,3,,360도 전방면,30,2017-02,02-2670-4067,37.5129943277,126.9205900718,2020-05-06
"서울특별시 영등포구",도신로60길 28,신길1동 137-27,생활방범,2,,360도 전방면,30,2018-08,02-2670-4067,37.5097085235,126.9174322290,2020-05-06
"서울특별시 영등포구",신길1동 4934-4,신길1동 4934-4,생활방범,3,,360도 전방면,30,2017-08,02-2670-4067,37.5071294869,126.9150601648,2020-05-06
"서울특별시 영등포구","도신로 234,오거리앞",신길1동 114-1 사거리앞,교통단속,5,,360도 전방면,30,2017-08,02-2670-4067,37.5120897098,126.9170306374,2020-05-06
"서울특별시 영등포구",도신로 244,신길1동 110-34,교통단속,3,,360도 전방면,30,2017-09,02-2670-4067,37.5127892691,126.9178394943,2020-05-06
"서울특별시 영등포구",도신로60길 28,신길1동 137-27,교통단속,1,,360도 전방면,30,2018-08,02-2670-4067,37.5095631320,126.9174683024,2020-05-06
"서울특별시 영등포구",영등포로 359,신길1동 103-33,교통단속,4,,360도 전방면,30,2018-08,02-2670-4067,37.5145562762,126.9185119549,2020-05-06
"서울특별시 영등포구","신길로41다길 4-1,감나무마을마당공원1",신길3동 281-2 감나무마을마당1,생활방범,1,,360도 전방면,30,2018-08,02-2670-4067,37.5081337337,126.9087953786,2020-05-06
"서울특별시 영등포구",신길로41라길 5-1 감나무마을마당공원2,신길3동 281-9감나무마을마당공원2,생활방범,1,,360도 전방면,30,2018-08,02-2670-4067,37.5078822336,126.9083029758,2020-05-06
"서울특별시 영등포구","도신로68,신길우성1차 103동 근처 차없는거리공원1",신길3동 376 신길우성1차 102동 근처 차없는거리공원 1,생활방범,3,,360도 전방면,30,2018-10,02-2670-4067,37.5046125800,126.8989269279,2020-05-06
"서울특별시 영등포구",가마산로61나길 10-1,신길3동 315-55,쓰레기단속,1,,360도 전방면,30,2018-10,02-2670-4067,37.5067031160,126.9058620552,2020-05-06
"서울특별시 영등포구",가마산로65길 3,신길3동 323-2,쓰레기단속,1,,360도 전방면,30,2010-12,02-2670-4067,37.5063266020,126.9067849026,2020-05-06
"서울특별시 영등포구","신길로39길 13,사거리앞",신길3동 257-43 사거리앞,생활방범,1,,360도 전방면,30,2014-12,02-2670-4067,37.5069041476,126.9093930864,2020-05-06
"서울특별시 영등포구",도림로100길 10-1,신길3동 347-171,생활방범,1,,360도 전방면,30,2015-09,02-2670-4067,37.5054605987,126.9035580031,2020-05-06
"서울특별시 영등포구",신길로39길 27,신길3동 266-30,생활방범,1,,360도 전방면,30,2015-09,02-2670-4067,37.5070793217,126.9080523402,2020-05-06
"서울특별시 영등포구",가마산로49길 2,신길3동 370-17,생활방범,1,,360도 전방면,30,2016-10,02-2670-4067,37.5032847763,126.9005143674,2020-05-06
"서울특별시 영등포구",가마산로 431-6,신길3동 347-184,생활방범,1,,360도 전방면,30,2006-01,02-2670-4067,37.5051551628,126.9043533616,2020-05-06
"서울특별시 영등포구",도림로100길 15-18,신길3동 359-11,생활방범,1,,360도 전방면,30,2013-09,02-2670-4067,37.5062910681,126.9033558158,2020-05-06
"서울특별시 영등포구",가마산로65길 13-17,신길3동 315-82,생활방범,1,,360도 전방면,30,2012-09,02-2670-4067,37.5067727054,126.9054042665,2020-05-06
"서울특별시 영등포구","가마산로69길 6-1,사거리앞",신길3동 269-22 사거리앞,생활방범,3,,360도 전방면,30,2012-09,02-2670-4067,37.5065135148,126.9081897392,2020-05-06
"서울특별시 영등포구",신길로41다길 4-2,신길3동 281-1,생활방범,3,,360도 전방면,30,2013-06,02-2670-4067,37.5082414753,126.9085565847,2020-05-06
"서울특별시 영등포구",신길로47길 7-2,신길3동 225-78,생활방범,1,,360도 전방면,30,2013-06,02-2670-4067,37.5097715449,126.9096488480,2020-05-06
"서울특별시 영등포구","가마산로63길 25,사거리앞",신길3동 307-3 사거리앞,생활방범,1,,360도 전방면,30,2005-01,02-2670-4067,37.5077531425,126.9050611657,2020-05-06
"서울특별시 영등포구","도림로86길 16,대영고 후문 출입문앞",신길3동 344-13,생활방범,1,,360도 전방면,30,2011-09,02-2670-4067,37.5040092664,126.9059944972,2020-05-06
"서울특별시 영등포구","신길로 167,사거리앞",신길3동 233-178 사거리앞,생활방범,3,,360도 전방면,30,2011-09,02-2670-4067,37.5069209555,126.9105645189,2020-05-06
"서울특별시 영등포구","도신로36길 14,사거리앞",신길3동 278-102 사거리앞,생활방범,6,,360도 전방면,30,2011-09,02-2670-4067,37.5086538914,126.9090074254,2020-05-06
"서울특별시 영등포구","신길로41길 8,사거리앞",신길3동 227-13 사거리앞,생활방범,1,,360도 전방면,30,2007-08,02-2670-4067,37.5078699603,126.9099727001,2020-05-06
"서울특별시 영등포구",도림로98길 7,신길3동 355-389,생활방범,3,,360도 전방면,30,2007-08,02-2670-4067,37.5051554041,126.9034792867,2020-05-06
"서울특별시 영등포구",가마산로61다길 3-3,신길3동 308-44,생활방범,6,,360도 전방면,30,2018-08,02-2670-4067,37.5066562950,126.9042685569,2020-05-06
"서울특별시 영등포구","도신로 152,삼거리앞",신길3동 347-180 사거리앞,생활방범,1,,360도 전방면,30,2007-08,02-2670-4067,37.5097440010,126.9085459283,2020-05-06
"서울특별시 영등포구",도신로 90-11,신길3동 359-1,생활방범,1,,360도 전방면,30,2007-08,02-2670-4067,37.5065548614,126.9023691948,2020-05-06
"서울특별시 영등포구","신길로43길 10-8,삼거리앞",신길3동 226-54 삼거리앞,생활방범,3,,360도 전방면,30,2007-08,02-2670-4067,37.5085569552,126.9096550418,2020-05-06
"서울특별시 영등포구",가마산로61라길 1,신길3동 296-48,생활방범,3,,360도 전방면,30,2007-08,02-2670-4067,37.5073729150,126.9041354270,2020-05-06
"서울특별시 영등포구",도림로 324-4,신길3동 362-12,생활방범,3,,360도 전방면,30,2007-08,02-2670-4067,37.5065192751,126.9018878491,2020-05-06
"서울특별시 영등포구",도신로 148,신길3동 287-14,생활방범,3,,360도 전방면,30,2007-08,02-2670-4067,37.5095161846,126.9080145119,2020-05-06
"서울특별시 영등포구",신길로 195,신길3동 225-45,생활방범,3,,360도 전방면,30,2013-01,02-2670-4067,37.5095351884,126.9105961064,2020-05-06
"서울특별시 영등포구",신길로41길 34,신길3동 287-12,생활방범,2,,360도 전방면,30,2013-07,02-2670-4067,37.5087906860,126.9074443394,2020-05-06
"서울특별시 영등포구",신길로39길 29-10,신길3동 266-26,생활방범,3,,360도 전방면,30,2013-07,02-2670-4067,37.5067350658,126.9077048376,2020-05-06
"서울특별시 영등포구",도림로104길 6-1,신길3동 355-240,생활방범,3,,360도 전방면,30,2012-01,02-2670-4067,37.5061821475,126.9025523593,2020-05-06
"서울특별시 영등포구",도림로102길 7-2,신길3동 355-268,생활방범,4,,360도 전방면,30,2014-01,02-2670-4067,37.5057265627,126.9030849968,2020-05-06
"서울특별시 영등포구",신길동 335-17 래미안프레비뉴 109동앞,신길3동 335-17 래미안프레비뉴 109동앞,생활방범,4,,360도 전방면,30,2015-03,02-2670-4067,37.5044452412,126.9065529677,2020-05-06
"서울특별시 영등포구",가마산로61길 6,신길3동 325-65,생활방범,6,,360도 전방면,30,2015-09,02-2670-4067,37.5056958085,126.9052673651,2020-05-06
"서울특별시 영등포구",가마산로 466-4,신길3동 261-12,생활방범,3,,360도 전방면,30,2015-09,02-2670-4067,37.5053930096,126.9081662558,2020-05-06
"서울특별시 영등포구",가마산로61가길5,신길3동 324-25,생활방범,4,,360도 전방면,30,2016-09,02-2670-4067,37.5059490096,126.9058939427,2020-05-06
"서울특별시 영등포구",가마산로67길 6-1,신길3동 264-3,생활방범,5,,360도 전방면,30,2016-09,02-2670-4067,37.5063732629,126.9072788791,2020-05-06
"서울특별시 영등포구",신길로45길 5-1,신길3동 226-67,생활방범,3,,360도 전방면,30,2017-08,02-2670-4067,37.5091570902,126.9100750882,2020-05-06
"서울특별시 영등포구",가마산로61다길 7-1,신길3동 312-24,생활방범,7,,360도 전방면,30,2017-08,02-2670-4067,37.5063295187,126.9041956269,2020-05-06
"서울특별시 영등포구",가마산로65길 28-6,,생활방범,3,,360도 전방면,30,2018-08,02-2670-4067,37.5083854766,126.9064261400,2020-05-06
"서울특별시 영등포구",신길동 329-57,,생활방범,3,,360도 전방면,30,2018-10,02-2670-4067,37.5054277769,126.9100915446,2020-05-06
"서울특별시 영등포구",가마산로69가길 9,,생활방범,5,,360도 전방면,30,2018-10,02-2670-4067,37.5063170896,126.9093027443,2020-05-06
"서울특별시 영등포구",가마산로 440( 센트럴아이파크-프레비뉴 사이,,생활방범,3,,360도 전방면,30,2018-11,02-2670-4067,37.5051479742,126.9056405355,2020-05-06
"서울특별시 영등포구","가마산로65길 23-2,횡단보도앞",신길3동 305-23,생활방범,3,,360도 전방면,30,2012-06,02-2670-4067,37.5078216712,126.9059918986,2020-05-06
"서울특별시 영등포구","도신로 68,우성1차APT 상가앞 대로변",신길3동 365 우성1차APT 상가앞 대로변,생활방범,2,,360도 전방면,30,2012-06,02-2670-4067,37.5061647655,126.9003321713,2020-05-06
"서울특별시 영등포구",신길로41라길 12,신길3동 284-14,생활방범,3,,360도 전방면,30,2013-11,02-2670-4067,37.5076717255,126.9075731093,2020-05-06
"서울특별시 영등포구","신길로39길 33,오거리앞",신길3동 268-6 오거리앞,생활방범,4,,360도 전방면,30,2014-12,02-2670-4067,37.5070911857,126.9070705118,2020-05-06
"서울특별시 영등포구",가마산로 401-3,신길3동 355-538,생활방범,4,,360도 전방면,30,2011-02,02-2670-4067,37.5039090927,126.9013332192,2020-05-06
"서울특별시 영등포구",가마산로 403,신길3동 355-86,교통단속,5,,360도 전방면,30,2016-10,02-2670-4067,37.5037012086,126.9016136453,2020-05-06
"서울특별시 영등포구","도신로68,신길우성1차 103동 근처 대로변앞",신길3동 376 신길우성1차 103동 근처,교통단속,3,,360도 전방면,30,2016-10,02-2670-4067,37.5045551056,126.8988526565,2020-05-06
"서울특별시 영등포구","도신로 120,사거리앞",신길3동 289-6 사거리앞,교통단속,5,,360도 전방면,30,2013-09,02-2670-4067,37.5085308900,126.9055209589,2020-05-06
"서울특별시 영등포구","신길로 155,사거리앞",신길3동 254-1 사거리앞,교통단속,5,,360도 전방면,30,2013-09,02-2670-4067,37.5058201442,126.9110142744,2020-05-06
"서울특별시 영등포구",가마산로65길 18,,교통단속,3,,360도 전방면,30,2013-09,02-2670-4067,37.5072341795,126.9064259824,2020-05-06
"서울특별시 영등포구","신길로40길 6-1,근처 공영주차장 위 덕천길마을마당공원1",신길4동 232-20 덕천길마을마당1,생활방범,1,,360도 전방면,30,2011-11,02-2670-4067,37.5070113414,126.9117102398,2020-05-06
"서울특별시 영등포구","신길로40길 6-1,근처 공영주차장 위 덕천길마을마당공원2",신길4동 232-20 덕천길마을마당2,생활방범,1,,360도 전방면,30,2011-11,02-2670-4067,37.5074397671,126.9113915061,2020-05-06
"서울특별시 영등포구",신길로42길 30-7,신길4동 4912-12,쓰레기단속,1,,360도 전방면,30,2011-11,02-2670-4067,37.5064868422,126.9135447829,2020-05-06
"서울특별시 영등포구",신길로 184,신길4동 223-33,생활방범,1,,360도 전방면,30,2012-07,02-2670-4067,37.5084637982,126.9110369780,2020-05-06
"서울특별시 영등포구",신길로42가길22,신길4동 205-149,생활방범,5,,360도 전방면,30,2014-12,02-2670-4067,37.5088812470,126.9134901506,2020-05-06
"서울특별시 영등포구",도신로 186-9,신길4동 214-8,생활방범,1,,360도 전방면,30,2009-01,02-2670-4067,37.5104698514,126.9123001651,2020-05-06
"서울특별시 영등포구",도신로48길24-4와24-6 사이길,신길4동 207-29,생활방범,3,,360도 전방면,30,2009-01,02-2670-4067,37.5091560215,126.9131090090,2020-05-06
"서울특별시 영등포구",신길로38길13-2(중앙슈퍼앞),신길4동 4910,생활방범,3,,360도 전방면,30,2009-01,02-2670-4067,37.5058275642,126.9126475794,2020-05-06
"서울특별시 영등포구",도신로 184 홍어거리 대로 앞 인도,신길4동 214-58,생활방범,3,,360도 전방면,30,2009-01,02-2670-4067,37.5109240770,126.9118353372,2020-05-06
"서울특별시 영등포구",신길로38길 29,신길4동 4916-27,생활방범,2,,360도 전방면,30,2009-01,02-2670-4067,37.5052075609,126.9143304480,2020-05-06
"서울특별시 영등포구","신길로40길 12,삼거리앞",신길4동 233-141 삼거리앞,생활방범,3,,360도 전방면,30,2009-01,02-2670-4067,37.5068787978,126.9121857597,2020-05-06
"서울특별시 영등포구","신길로38가길 12,사거리앞",신길4동 4907 사거리앞,생활방범,3,,360도 전방면,30,2009-01,02-2670-4067,37.5066416986,126.9130385546,2020-05-06
"서울특별시 영등포구",신길로42나길 15-1,신길4동 209-39 근처,생활방범,3,,360도 전방면,30,2009-01,02-2670-4067,37.5077890499,126.9131654808,2020-05-06
"서울특별시 영등포구",신길로42가길 13-4,신길4동 207-4,생활방범,3,,360도 전방면,30,2009-01,02-2670-4067,37.5089140793,126.9127424516,2020-05-06
"서울특별시 영등포구","도신로48길 9,사거리앞",신길4동 196-37 사거리앞,생활방범,6,,360도 전방면,30,2011-02,02-2670-4067,37.5103286460,126.9131278120,2020-05-06
"서울특별시 영등포구","신길로42길 44,삼성래미안APT 106동옆 도로앞",신길4동 4920-2 인근 삼성래미안APT 106동옆 도로앞,생활방범,1,,360도 전방면,30,2009-01,02-2670-4067,37.5060441892,126.9158154372,2020-05-06
"서울특별시 영등포구",신길로 172-3,신길4동 232-8,생활방범,1,,360도 전방면,30,2016-11,02-2670-4067,37.5075222882,126.9114281966,2020-05-06
"서울특별시 영등포구",신길로40길 6-1,신길4동 4902-4,생활방범,1,,360도 전방면,30,2011-09,02-2670-4067,37.5069326365,126.9118346749,2020-05-06
"서울특별시 영등포구",가마산로 504,신길4동 236-11,생활방범,1,,360도 전방면,30,2011-09,02-2670-4067,37.5053606755,126.9122453060,2020-05-06
"서울특별시 영등포구",신길로42나길 17-12,신길4동 208-45,생활방범,3,,360도 전방면,30,2011-09,02-2670-4067,37.5082383461,126.9128803918,2020-05-06
"서울특별시 영등포구",신길로38길 3-7,신길4동 4902-10,생활방범,3,,360도 전방면,30,2007-01,02-2670-4067,37.5063451679,126.9115900551,2020-05-06
"서울특별시 영등포구",신길로38나길 9-7,신길4동 4914-16,생활방범,3,,360도 전방면,30,2007-01,02-2670-4067,37.5059003390,126.9138756466,2020-05-06
"서울특별시 영등포구",가마산로77길 14와 13-5 사이길,신길4동 4920-8,생활방범,2,,360도 전방면,30,2007-01,02-2670-4067,37.5060496724,126.9146480650,2020-05-06
"서울특별시 영등포구",신길로40길 17-2,신길4동 233-83,생활방범,4,,360도 전방면,30,2007-01,02-2670-4067,37.5074078847,126.9122914684,2020-05-06
"서울특별시 영등포구",도신로48길 15-24,신길4동 158-62,생활방범,3,,360도 전방면,30,2007-01,02-2670-4067,37.5099383171,126.9139085679,2020-05-06
"서울특별시 영등포구",신길로42나길 7-2,신길4동 209-61,생활방범,3,,360도 전방면,30,2007-01,02-2670-4067,37.5079599665,126.9123394416,2020-05-06
"서울특별시 영등포구",도신로48길 4,신길4동 197-14,생활방범,1,,360도 전방면,30,2007-01,02-2670-4067,37.5107848617,126.9130137180,2020-05-06
"서울특별시 영등포구",신길로38가길8-9,신길4동 4911-5,생활방범,4,,360도 전방면,30,2007-01,02-2670-4067,37.5061690501,126.9129362378,2020-05-06
"서울특별시 영등포구",신길로42가길 27-1,신길4동 205-84,생활방범,4,,360도 전방면,30,2007-01,02-2670-4067,37.5090427420,126.9144983409,2020-05-06
"서울특별시 영등포구",도신로52길 2,신길4동 159-34,생활방범,4,,360도 전방면,30,2007-01,02-2670-4067,37.5113094356,126.9137887703,2020-05-06
"서울특별시 영등포구",가마산로 530,신길4동 4934-5,생활방범,4,,360도 전방면,30,2007-01,02-2670-4067,37.5045413006,126.9158685445,2020-05-06
"서울특별시 영등포구",신길로42라길 13-2,,생활방범,4,,360도 전방면,30,2013-01,02-2670-4067,37.5080303178,126.9143639115,2020-05-06
"서울특별시 영등포구","신길로38길 20,삼거리앞",신길4동 238-28 삼거리앞,생활방범,1,,360도 전방면,30,2013-07,02-2670-4067,37.5056389930,126.9130097751,2020-05-06
"서울특별시 영등포구","신길로38가길 6-1,삼거리앞",신길4동 4908-1 삼거리앞,생활방범,1,,360도 전방면,30,2010-01,02-2670-4067,37.5062590372,126.9124826671,2020-05-06
"서울특별시 영등포구",신길로42길 22-1,신길4동 4905,생활방범,5,,360도 전방면,30,2014-01,02-2670-4067,37.5074199700,126.9128947893,2020-05-06
"서울특별시 영등포구","신길로 134,영신교회 대로변앞",신길4동 239 대로변앞,생활방범,2,,360도 전방면,30,2015-09,02-2670-4067,37.5040871563,126.9103295239,2020-05-06
"서울특별시 영등포구","신길로 188,우신초교 정문앞",신길4동 223-32 옆 우신초교 정문앞,생활방범,3,,360도 전방면,30,2015-09,02-2670-4067,37.5091448016,126.9109034726,2020-05-06
"서울특별시 영등포구",신길로42가길 3,신길4동 209-165,생활방범,2,,360도 전방면,30,2016-09,02-2670-4067,37.5085328196,126.9117069920,2020-05-06
"서울특별시 영등포구",신길로42가길 13-26,신길4동 206-22,생활방범,3,,360도 전방면,30,2016-09,02-2670-4067,37.5097791075,126.9127587132,2020-05-06
"서울특별시 영등포구","도신로56길 62,삼성래미안 2단지 111동 부근 삼거리앞",신길4동 4934-1 삼성래미안 2단지 111동 부근 삼거리앞,교통단속,1,,360도 전방면,30,2016-09,02-2670-4067,37.5077277373,126.9151700372,2020-05-06
"서울특별시 영등포구",신길로 184,신길4동 223-33,교통단속,3,,360도 전방면,30,2016-09,02-2670-4067,37.5085009387,126.9110313085,2020-05-06
"서울특별시 영등포구",신길로 204,신길4동 221-44,교통단속,3,,360도 전방면,30,2016-09,02-2670-4067,37.5106177128,126.9103360609,2020-05-06
"서울특별시 영등포구","도림로80길 6,신길근린공원1",신길5동 341-3 신길근린공원1,생활방범,1,,360도 전방면,30,2017-04,02-2670-4067,37.5013567064,126.9063216180,2020-05-06
"서울특별시 영등포구","도림로80길 6,신길근린공원2",신길5동 341-3 신길근린공원2,생활방범,1,,360도 전방면,30,2017-08,02-2670-4067,37.5009600712,126.9066549131,2020-05-06
"서울특별시 영등포구","도림로80길 6,신길근린공원3",신길5동 341-3 신길근린공원3,생활방범,4,,360도 전방면,30,2018-08,02-2670-4067,37.5003410011,126.9071397527,2020-05-06
"서울특별시 영등포구",신길동 431-28 꽃섬길마을마당공원1,신길5동 431-28 꽃섬길마을마당공원1,생활방범,1,,360도 전방면,30,2018-08,02-2670-4067,37.5000378323,126.9060803540,2020-05-06
"서울특별시 영등포구","신길로29가길 10,근처 꿈에그린어린이공원1",신길5동 337-230 앞 꿈에그린어린이공원1,생활방범,1,,360도 전방면,30,2014-12,02-2670-4067,37.5033310018,126.9086591139,2020-05-06
"서울특별시 영등포구",도림로86길 16,,생활방범,4,,360도 전방면,30,2014-12,02-2670-4067,37.5042116893,126.9068508238,2020-05-06
"서울특별시 영등포구","가마산로50길 23,삼거리앞",신길5동 403-31 삼거리앞,생활방범,2,,360도 전방면,30,2011-02,02-2670-4067,37.5015481268,126.9025247472,2020-05-06
"서울특별시 영등포구",가마산로50길 23-13,신길5동 403-12,생활방범,2,,360도 전방면,30,2011-02,02-2670-4067,37.5022014878,126.9027780983,2020-05-06
"서울특별시 영등포구",도림로 273-13,신길5동 402-32,생활방범,1,,360도 전방면,30,2010-01,02-2670-4067,37.5021349388,126.9034115189,2020-05-06
"서울특별시 영등포구","도림로87길 6-1,사거리앞",신길5동 355-361 사거리앞,생활방범,5,,360도 전방면,30,2012-09,02-2670-4067,37.5029779722,126.9028489198,2020-05-06
"서울특별시 영등포구","가마산로56길 13,사거리앞",신길5동 355-567 사거리앞,생활방범,2,,360도 전방면,30,2006-01,02-2670-4067,37.5026855598,126.9030423891,2020-05-06
"서울특별시 영등포구","도림로81길 14-1,삼거리앞",신길5동 402-35 삼거리앞,생활방범,2,,360도 전방면,30,2006-01,02-2670-4067,37.5012099715,126.9035769634,2020-05-06
"서울특별시 영등포구","가마산로50길 5-1,삼거리앞",신길5동 387-17 삼거리앞,생활방범,2,,360도 전방면,30,2012-09,02-2670-4067,37.5026249280,126.9012557052,2020-05-06
"서울특별시 영등포구","도림로63길 30,사거리앞",신길5동 404-42 사거리앞,생활방범,2,,360도 전방면,30,2013-01,02-2670-4067,37.5000259106,126.9023827959,2020-05-06
"서울특별시 영등포구",도림로63다길 5,신길5동 410-2,생활방범,1,,360도 전방면,30,2013-01,02-2670-4067,37.4998565033,126.9030438398,2020-05-06
"서울특별시 영등포구","가마산로56길 18,사거리앞",신길5동 355-60 사거리앞,생활방범,2,,360도 전방면,30,2015-09,02-2670-4067,37.5024145860,126.9032178493,2020-05-06
"서울특별시 영등포구",도림로63길 22-1,신길5동 410-18,쓰레기단속,1,,360도 전방면,30,2005-01,02-2670-4067,37.4995084994,126.9027719615,2020-05-06
"서울특별시 영등포구",신길로13길 14,신길5동 440-19,쓰레기단속,1,,360도 전방면,30,2006-01,02-2670-4067,37.4973816485,126.9065675239,2020-05-06
"서울특별시 영등포구","도림로63나길 3,사거리앞",신길5동 410-35 사거리앞,생활방범,1,,360도 전방면,30,2014-05,02-2670-4067,37.4991484634,126.9025465534,2020-05-06
"서울특별시 영등포구",도림로81길 6-21,신길5동 402-28,생활방범,1,,360도 전방면,30,2011-01,02-2670-4067,37.5012588474,126.9032264008,2020-05-06
"서울특별시 영등포구",신길로13가길 5-3,신길5동 440-30 삼거리앞,생활방범,1,,360도 전방면,30,2011-01,02-2670-4067,37.4978875081,126.9063353533,2020-05-06
"서울특별시 영등포구",신길로17길 4,신길5동 447-4 사거리앞,생활방범,2,,360도 전방면,30,2017-01,02-2670-4067,37.4981177359,126.9076350552,2020-05-06
"서울특별시 영등포구",도림로61가길 24-7,신길5동 409-17,생활방범,1,,360도 전방면,30,2007-01,02-2670-4067,37.4995437948,126.9019763715,2020-05-06
"서울특별시 영등포구",도림로85길 17-1,신길5동 388-15,생활방범,1,,360도 전방면,30,2007-01,02-2670-4067,37.5021563601,126.9017986197,2020-05-06
"서울특별시 영등포구","도림로63라길 3-1,사거리앞",신길5동 407-33 사거리앞,생활방범,2,,360도 전방면,30,2007-01,02-2670-4067,37.4998500482,126.9020519203,2020-05-06
"서울특별시 영등포구",신길로13길 28,신길5동 436-21,생활방범,1,,360도 전방면,30,2011-09,02-2670-4067,37.4976614777,126.9052353566,2020-05-06
"서울특별시 영등포구",도림로61가길 10,신길5동 411-19,생활방범,1,,360도 전방면,30,2007-01,02-2670-4067,37.4981661662,126.9027255923,2020-05-06
"서울특별시 영등포구","도림로69길 8,삼거리앞",신길5동 420-135 삼거리앞,생활방범,3,,360도 전방면,30,2007-01,02-2670-4067,37.5001370461,126.9045697443,2020-05-06
"서울특별시 영등포구","대방천로 152,대로변앞",신길5동 444-32 대로변앞,생활방범,6,,360도 전방면,30,2007-01,02-2670-4067,37.4993381564,126.9075374662,2020-05-06
"서울특별시 영등포구",대방천로8길 4-1,신길5동 433-37,생활방범,1,,360도 전방면,30,2007-01,02-2670-4067,37.4991025399,126.9056129025,2020-05-06
"서울특별시 영등포구",도림로75길 8,신길5동 420-108,생활방범,1,,360도 전방면,30,2007-01,02-2670-4067,37.5006155252,126.9045444768,2020-05-06
"서울특별시 영등포구",도림로63가길 8,신길5동 415-10,생활방범,1,,360도 전방면,30,2007-01,02-2670-4067,37.4987027183,126.9038507503,2020-05-06
"서울특별시 영등포구","도림로65길 5-2,삼거리앞",신길5동 417-37 삼거리앞,생활방범,2,,360도 전방면,30,2007-01,02-2670-4067,37.4991570435,126.9042249270,2020-05-06
"서울특별시 영등포구","대방천로8길 16-4,삼거리앞",신길5동 442-31 삼거리앞,생활방범,1,,360도 전방면,30,2007-01,02-2670-4067,37.4986581383,126.9066558226,2020-05-06
"서울특별시 영등포구",대방천로6다길 11,신길5동 417-72 전주옆,생활방범,2,,360도 전방면,30,2011-02,02-2670-4067,37.4990869724,126.9037353487,2020-05-06
"서울특별시 영등포구",대방천로8길 12,신길5동 442-49,생활방범,3,,360도 전방면,30,2007-08,02-2670-4067,37.4989788680,126.9061429287,2020-05-06
"서울특별시 영등포구","도림로 264-12,삼거리앞",신길5동 421-3 삼거리앞,생활방범,2,,360도 전방면,30,2011-09,02-2670-4067,37.5011041109,126.9060492033,2020-05-06
"서울특별시 영등포구","신길로23마길 2,삼거리앞",신길5동 336-196 삼거리앞,생활방범,3,,360도 전방면,30,2011-09,02-2670-4067,37.5033100436,126.9066670743,2020-05-06
"서울특별시 영등포구",대방천로6가길 14-1,신길5동 417-91,생활방범,3,,360도 전방면,30,2013-01,02-2670-4067,37.4998218352,126.9042714396,2020-05-06
"서울특별시 영등포구",도림로63길 11-9,신길5동 410-86,생활방범,3,,360도 전방면,30,2013-01,02-2670-4067,37.4984553180,126.9027271075,2020-05-06
"서울특별시 영등포구",도림로61가길 2-1,신길5동 412-16,생활방범,3,,360도 전방면,30,2014-02,02-2670-4067,37.4976733615,126.9035416033,2020-05-06
"서울특별시 영등포구",도림로 231-6,신길5동 417-19,생활방범,2,,360도 전방면,30,2014-01,02-2670-4067,37.4992898559,126.9045242515,2020-05-06
"서울특별시 영등포구",도림로 268-2,신길5동 342-337,생활방범,3,,360도 전방면,30,2015-09,02-2670-4067,37.5021535779,126.9051121462,2020-05-06
"서울특별시 영등포구",신길로23다길 11,신길5동 340-8,생활방범,3,,360도 전방면,30,2015-09,02-2670-4067,37.5017545174,126.9075528042,2020-05-06
"서울특별시 영등포구",신길로13길 24-7,신길5동 438-12,생활방범,8,,360도 전방면,30,2016-09,02-2670-4067,37.4979623719,126.9055532741,2020-05-06
"서울특별시 영등포구",도림로 218-8,신길5동 436-6,생활방범,2,,360도 전방면,30,2016-09,02-2670-4067,37.4978515210,126.9046234149,2020-05-06
"서울특별시 영등포구",도림로86길 4,신길5동 342-132,생활방범,7,,360도 전방면,30,2017-08,02-2670-4067,37.5032480256,126.9043802959,2020-05-06
"서울특별시 영등포구",신길동 4945레미안정문 앞,신길동 4945레미안정문 앞,생활방범,3,,360도 전방면,30,2017-08,02-2670-4067,37.5042792737,126.9080756964,2020-05-06
"서울특별시 영등포구",신풍로2길 4,,생활방범,5,,360도 전방면,30,2018-08,02-2670-4067,37.5000800805,126.9077286040,2020-05-06
"서울특별시 영등포구",신길로17길 6-14,,생활방범,5,,360도 전방면,30,2018-08,02-2670-4067,37.4985860167,126.9075304396,2020-05-06
"서울특별시 영등포구",가마산로54길 1,,생활방범,4,,360도 전방면,30,2018-08,02-2670-4067,37.5032430809,126.9018184730,2020-05-06
"서울특별시 영등포구",신길로23길 8,,생활방범,5,,360도 전방면,30,2018-10,02-2670-4067,37.5005746549,126.9077997358,2020-05-06
"서울특별시 영등포구","신길로13길 21,구립 신길5동 어린이집 근처",대림동 906-50,생활방범,2,,360도 전방면,30,2018-10,02-2670-4067,37.4976166147,126.9058206441,2020-05-06
"서울특별시 영등포구","신길로 107-1,성미유치원앞",신길동 253-248 성미유치원앞,생활방범,1,,360도 전방면,30,2015-09,02-2670-4067,37.5020890549,126.9099913379,2020-05-06
"서울특별시 영등포구","도림로80길 3,삼거리앞",신길동 337-138 영복교회 주차장 삼거리앞,생활방범,1,,360도 전방면,30,2011-02,02-2670-4067,37.5026854605,126.9067792014,2020-05-06
"서울특별시 영등포구","도림로80길 3,삼거리앞",신길동 342-145 삼거리앞,생활방범,2,,360도 전방면,30,2016-10,02-2670-4067,37.5018479444,126.9052709346,2020-05-06
"서울특별시 영등포구","신길로23길 43,대명초교~신길근린공원 사이 배드민턴장 근처",신길5동 341-1 대명초교 ~ 신길근린공원 배드민턴장 부근,교통단속,3,,360도 전방면,30,2012-09,02-2670-4067,37.5020737444,126.9058268643,2020-05-06
"서울특별시 영등포구","가마산로 394,근처 사거리 코너 부근",신길5동 379-5 사거리 코너 부근,교통단속,3,,360도 전방면,30,2013-12,02-2670-4067,37.5029678366,126.9007194046,2020-05-06
"서울특별시 영등포구",도림로 223,신길5동 414-24,교통단속,3,,360도 전방면,30,2013-09,02-2670-4067,37.4984674549,126.9044247586,2020-05-06
"서울특별시 영등포구",신풍로 13,신길5동 425-1,교통단속,3,,360도 전방면,30,2006-01,02-2670-4067,37.5002728760,126.9073421216,2020-05-06
"서울특별시 영등포구","도림로69길 25,대로변앞 사거리",신길5동 410-6,교통단속,3,,360도 전방면,30,2012-09,02-2670-4067,37.5009286760,126.9029623383,2020-05-06
"서울특별시 영등포구",도림로 281,신길5동 355-57,교통단속,3,,360도 전방면,30,2013-12,02-2670-4067,37.5029493225,126.9037507002,2020-05-06
"서울특별시 영등포구","도림로 260,신길5동주민센터 앞",신길5동 401-2,교통단속,3,,360도 전방면,30,2013-12,02-2670-4067,37.5015257387,126.9049871273,2020-05-06
"서울특별시 영등포구","신풍로 지하27,신풍역소공원1",신길6동 3599 신풍역소공원1,생활방범,2,,360도 전방면,30,2011-11,02-2670-4067,37.5002359113,126.9096441550,2020-05-06
"서울특별시 영등포구",신길6동 4503-2,신길6동 4503-2,쓰레기단속,1,,360도 전방면,30,2014-05,02-2670-4067,37.4968154086,126.9118871695,2020-05-06
"서울특별시 영등포구","신풍로12가길 1-6,사거리앞",신길6동 3829 사거리앞,쓰레기단속,1,,360도 전방면,30,2007-01,02-2670-4067,37.4992367157,126.9125936130,2020-05-06
"서울특별시 영등포구",대방천로 165,신길6동 2579-30,쓰레기단속,1,,360도 전방면,30,2011-09,02-2670-4067,37.4993454450,126.9093819433,2020-05-06
"서울특별시 영등포구",신풍로20길1(새마을금고 옆),신길6동 4145,쓰레기단속,1,,360도 전방면,30,2007-01,02-2670-4067,37.4997980509,126.9168411730,2020-05-06
"서울특별시 영등포구",대방천로 165-13,신길6동 3661,쓰레기단속,1,,360도 전방면,30,2007-01,02-2670-4067,37.4995194717,126.9100692897,2020-05-06
"서울특별시 영등포구",여의대방로9가길 3,신길6동 4465,쓰레기단속,1,,360도 전방면,30,2015-09,02-2670-4067,37.4974873631,126.9155774240,2020-05-06
"서울특별시 영등포구","신풍로25가길 11,사거리앞",신길6동 619-1 사거리앞,생활방범,2,,360도 전방면,30,2007-01,02-2670-4067,37.5008766313,126.9185810564,2020-05-06
"서울특별시 영등포구",신풍로25가길19-6,신길6동 1481,생활방범,4,,360도 전방면,30,2007-01,02-2670-4067,37.5006143408,126.9178676809,2020-05-06
"서울특별시 영등포구","대방천로14길 18,영신고교 출입문 근처 사거리앞",신길6동 4656-2 영신고교 출입문 근처 사거리앞,생활방범,2,,360도 전방면,30,2007-01,02-2670-4067,37.4969421794,126.9103578807,2020-05-06
"서울특별시 영등포구",신풍로19가길 11,신길6동 1571,생활방범,1,,360도 전방면,30,2007-01,02-2670-4067,37.5013035647,126.9174375269,2020-05-06
"서울특별시 영등포구","신풍로12나길 16,사거리앞",신길6동 3946 서거리앞,생활방범,3,,360도 전방면,30,2007-01,02-2670-4067,37.4991930311,126.9149195064,2020-05-06
"서울특별시 영등포구",신길로16길 3,신길6동 4619,생활방범,1,,360도 전방면,30,2007-01,02-2670-4067,37.4978558538,126.9084315754,2020-05-06
"서울특별시 영등포구","여의대방로23길 15,사거리앞",신길6동 4273-2 사거리앞,생활방범,1,,360도 전방면,30,2007-01,02-2670-4067,37.4983649766,126.9181480975,2020-05-06
"서울특별시 영등포구",여의대방로13길 6,신길6동 4354,생활방범,1,,360도 전방면,30,2007-01,02-2670-4067,37.4975468481,126.9163161506,2020-05-06
"서울특별시 영등포구","신풍로10길 3-1,사거리앞",신길6동 3747 사거리앞,생활방범,2,,360도 전방면,30,2013-01,02-2670-4067,37.4996233307,126.9116785412,2020-05-06
"서울특별시 영등포구","대방천로14길34, 자율방범대 인근 삼거리잎",신길6동 4944,생활방범,1,,360도 전방면,30,2013-06,02-2670-4067,37.4957368821,126.9104517535,2020-05-06
"서울특별시 영등포구",신풍로6길7-1,신길6동 3683,생활방범,1,,360도 전방면,30,2012-06,02-2670-4067,37.4997452089,126.9095903847,2020-05-06
"서울특별시 영등포구",신길로28길 6,신길6동 3500 공영주차장앞,생활방범,1,,360도 전방면,30,2014-01,02-2670-4067,37.5027175965,126.9112767779,2020-05-06
"서울특별시 영등포구","신풍로25길 6,사거리앞",신길6동 625-3 사거리앞,생활방범,4,,360도 전방면,30,2015-09,02-2670-4067,37.5004322664,126.9198022884,2020-05-06
"서울특별시 영등포구",신풍로30,신길6동 3668,생활방범,3,,360도 전방면,30,2016-09,02-2670-4067,37.5000482424,126.9091667966,2020-05-06
"서울특별시 영등포구","신길로10길 6,삼거리앞",신길6동 4694 삼거리앞,생활방범,1,,360도 전방면,30,2016-09,02-2670-4067,37.4963066925,126.9088715584,2020-05-06
"서울특별시 영등포구","신풍로24길 6,사거리앞",신길6동 484 사거리앞,생활방범,1,,360도 전방면,30,2017-08,02-2670-4067,37.4993910190,126.9185415015,2020-05-06
"서울특별시 영등포구",신풍로 31-14,신길6동 3574-15,생활방범,1,,360도 전방면,30,2015-09,02-2670-4067,37.5004591105,126.9103868801,2020-05-06
"서울특별시 영등포구",대방천로 232-1,신길6동 4300-55,생활방범,1,,360도 전방면,30,2011-02,02-2670-4067,37.4984247630,126.9168551126,2020-05-06
"서울특별시 영등포구",대방천로 177-8,신길6동 3716 삼거리앞,생활방범,2,,360도 전방면,30,2011-02,02-2670-4067,37.4995680301,126.9107295440,2020-05-06
"서울특별시 영등포구","대방천로 239-8,사거리앞",신길6동 4173 사거리앞,생활방범,4,,360도 전방면,30,2012-09,02-2670-4067,37.4991667423,126.9175922551,2020-05-06
"서울특별시 영등포구",신풍로 44,신길6동 3846 신풍역 1번출구 부근,생활방범,4,,360도 전방면,30,2013-09,02-2670-4067,37.5000205876,126.9107814625,2020-05-06
"서울특별시 영등포구",신길로28길 1 (공영주차장 진입로),신길6동 3518,생활방범,2,,360도 전방면,30,2010-01,02-2670-4067,37.5030506910,126.9104295676,2020-05-06
"서울특별시 영등포구",대방천로12길 5-9,신길6동 4632,생활방범,3,,360도 전방면,30,2013-04,02-2670-4067,37.4986235290,126.9093205551,2020-05-06
"서울특별시 영등포구",신풍로22길 2-4,신길6동 4146,생활방범,2,,360도 전방면,30,2013-04,02-2670-4067,37.4996484979,126.9172903469,2020-05-06
"서울특별시 영등포구",여의대방로35길 35,신길6동 1551,생활방범,3,,360도 전방면,30,2013-12,02-2670-4067,37.5015063867,126.9171919027,2020-05-06
"서울특별시 영등포구",신풍로19가길 2,신길6동 1537,생활방범,3,,360도 전방면,30,2013-12,02-2670-4067,37.5003275080,126.9169629264,2020-05-06
"서울특별시 영등포구",신풍로17길 7,신길6동 2341,생활방범,4,,360도 전방면,30,2019-11,02-2670-4067,37.5010470883,126.9164560608,2020-05-06
"서울특별시 영등포구",신풍로25가길 8-4,신길6동 609,생활방범,4,,360도 전방면,30,2019-11,02-2670-4067,37.5013009413,126.9189604487,2020-05-06
"서울특별시 영등포구",대방천로 259,신길6동 476,생활방범,4,,360도 전방면,30,2019-11,02-2670-4067,37.4993861920,126.9195801343,2020-05-06
"서울특별시 영등포구",대방천로16길 8,신길6동 4560,생활방범,3,,360도 전방면,30,2015-12,02-2670-4067,37.4988682463,126.9116683702,2020-05-06
"서울특별시 영등포구",신풍로12가길 8-1,신길6동 3811,생활방범,5,,360도 전방면,30,2010-11,02-2670-4067,37.4992602157,126.9125629405,2020-05-06
"서울특별시 영등포구",신풍로12나길 31-1,,생활방범,9,,360도 전방면,30,2010-11,02-2670-4067,37.4989733610,126.9168277601,2020-05-06
"서울특별시 영등포구",신풍로16길 11-2,,생활방범,4,,360도 전방면,30,2010-11,02-2670-4067,37.4996655341,126.9140737802,2020-05-06
"서울특별시 영등포구","대방천로14길 18,영신고~우성3차APT 306동 사이 삼거리앞",신길6동 4656-2 영신고등학교~우성3차APT 306동 사이 삼거리앞,생활방범,3,,360도 전방면,30,2010-11,02-2670-4067,37.4981909935,126.9102035167,2020-05-06
"서울특별시 영등포구","대방천로 196,대길초교 펜스 차도앞",신길6동 4524 옆 대길초교 펜스 차도앞,생활방범,3,,360도 전방면,30,2010-11,02-2670-4067,37.4989150621,126.9127138968,2020-05-06
"서울특별시 영등포구",신풍로12길 8,신길6동 3821,생활방범,2,,360도 전방면,30,2010-11,02-2670-4067,37.4992917084,126.9130067695,2020-05-06
"서울특별시 영등포구",여의대방로7길 13,신길6동 4511,교통단속,3,,360도 전방면,30,2010-11,02-2670-4067,37.4978019087,126.9127944691,2020-05-06
"서울특별시 영등포구",신풍로 108,신길6동 1520,교통단속,3,,360도 전방면,30,2010-11,02-2670-4067,37.4998824928,126.9182461348,2020-05-06
"서울특별시 영등포구",신풍로 97,신길6동 1544,교통단속,3,,360도 전방면,30,2010-11,02-2670-4067,37.4999276553,126.9162319398,2020-05-06
"서울특별시 영등포구",신길로 18,신길6동 4679,교통단속,5,,360도 전방면,30,2010-11,02-2670-4067,37.4944775858,126.9088515353,2020-05-06
"서울특별시 영등포구",신풍로39,신길6동 2863,교통단속,4,,360도 전방면,30,2010-11,02-2670-4067,37.5001795794,126.9106084738,2020-05-06
"서울특별시 영등포구","영등포로 423,신양치안센터건물 뒷편 경부3녹지대1",신길7동 1376-1 신양치안센터건물 뒷편 경부3녹지대1,생활방범,1,,360도 전방면,30,2010-11,02-2670-4067,37.5130409752,126.9254327267,2020-05-06
"서울특별시 영등포구","노량진로 7,헌혈의집 뒷편 경부3녹지대2",신길7동 4890 헌혈의집 뒷편 경부3녹지대2,생활방범,1,,360도 전방면,30,2011-09,02-2670-4067,37.5129380708,126.9261512364,2020-05-06
"서울특별시 영등포구","여의대방로61길 2,천록빌딩 뒷편 전철아파트소공원1",신길7동 1351-3 천록빌딩 뒷편 전철아파트소공원1,생활방범,2,,360도 전방면,30,2012-06,02-2670-4067,37.5145674076,126.9260228053,2020-05-06
