"관리기관명",소재지도로명주소,소재지지번주소,설치목적구분,카메라대수,카메라화소수,촬영방면정보,보관일수,설치년월,관리기관전화번호,위도,경도,데이터기준일자
"서울특별시 중구청",서울특별시 중구 손기정로 101 (만리동2가),서울특별시 중구 만리동1가 57-7,생활방범,1,200,회전형,30,2018-02,02-3396-4744,37.55686883,126.9660066,2020-06-25
"서울특별시 중구청",서울특별시 중구 손기정로 101 (만리동2가),서울특별시 중구 만리동2가 6-1,생활방범,1,130,회전형,30,2012-07,02-3396-4744,37.55686883,126.9660066,2020-06-25
"서울특별시 중구청",서울특별시 중구 손기정로 101 (만리동2가),서울특별시 중구 만리동2가 6-1,생활방범,1,200,회전형,30,2018-02,02-3396-4744,37.55686883,126.9660066,2020-06-25
"서울특별시 중구청",서울특별시 중구 손기정로 101 (만리동2가),서울특별시 중구 만리동2가 6-1,생활방범,1,130,회전형,30,2012-07,02-3396-4744,37.55686883,126.9660066,2020-06-25
"서울특별시 중구청",서울특별시 중구 매봉18길 79 (금호동2가),서울특별시 중구 약수동 333-771,생활방범,1,200,회전형,30,2017-04,02-3396-4744,37.55453372,127.0169896,2020-06-25
"서울특별시 중구청",서울특별시 중구 칠패로 27 (순화동),서울특별시 중구 순화동 9-5,생활방범,1,200,회전형,30,2016-12,02-3396-4744,37.56026537,126.9720353,2020-06-25
"서울특별시 중구청",서울특별시 중구 칠패로 27 (순화동),서울특별시 중구 순화동 9-5,생활방범,1,200,회전형,30,2014-01,02-3396-4744,37.56026537,126.9720353,2020-06-25
"서울특별시 중구청",서울특별시 중구 매봉18길 11 (금호동3가),서울특별시 중구 약수동 산55,생활방범,1,200,회전형,30,2017-09,02-3396-4744,37.550378,127.013653,2020-06-25
"서울특별시 중구청",서울특별시 중구 매봉18길 11 (금호동3가),서울특별시 중구 약수동 844-10,생활방범,1,200,회전형,30,2017-09,02-3396-4744,37.548794,127.010394,2020-06-25
"서울특별시 중구청",서울특별시 중구 매봉18길 11 (금호동3가),서울특별시 중구 약수동 351-104,생활방범,1,200,회전형,30,2017-09,02-3396-4744,37.544995,127.008171,2020-06-25
"서울특별시 중구청",서울특별시 중구 정동길 21-8,서울특별시 중구 정동 15-1,생활방범,2,200,회전형,30,2014-01,02-3396-4744,37.56773987,126.971341,2020-06-25
"서울특별시 중구청",서울특별시 중구 정동길 21-8,서울특별시 중구 정동 15-1,생활방범,2,200,회전형,30,2014-01,02-3396-4744,37.56773987,126.9713579,2020-06-25
"서울특별시 중구청",서울특별시 중구 통일로 102 옆,서울특별시 중구 의주로1가 44-2,생활방범,2,200,회전형,30,2014-01,02-3396-4744,37.563955,126.968679,2020-06-25
"서울특별시 중구청",서울특별시 중구 중구 남대문로10길 29 옆,서울특별시 중구 삼각동 118,생활방범,2,200,회전형,30,2018-02,02-3396-4744,37.568213,126.984877,2020-06-25
"서울특별시 중구청",서울특별시 중구 을지로 3길 49,서울특별시 중구 다동 51-2,생활방범,2,200,회전형,30,2014-01,02-3396-4744,37.56817065,126.9807618,2020-06-25
"서울특별시 중구청",서울특별시 중구 을지로 3길 49,서울특별시 중구 다동 51-2,생활방범,2,200,회전형,30,2014-01,02-3396-4744,37.56817065,126.9807618,2020-06-25
"서울특별시 중구청",서울특별시 중구 퇴계로 303-9 옆,서울특별시 중구 광희동 1가 238,생활방범,2,200,회전형,30,2018-02,02-3396-4744,37.564287,127.005003,2020-06-25
"서울특별시 중구청",서울특별시 중구 퇴계로 45길 32-12,서울특별시 중구 충무로5가 21,생활방범,2,200,회전형,30,2018-05,02-3396-4744,37.56368166,126.9998008,2020-06-25
"서울특별시 중구청",서울특별시 중구 퇴계로 45길 32-12,서울특별시 중구 충무로5가 21,생활방범,2,200,회전형,30,2014-01,02-3396-4744,37.56368166,126.9998008,2020-06-25
"서울특별시 중구청",서울특별시 중구 서소문로11길 34 앞,서울특별시 중구 정동 34-31,생활방범,2,200,회전형,30,2014-01,02-3396-4744,37.564228,126.9727401,2020-06-25
"서울특별시 중구청",서울특별시 중구 동호로 11차길 1 옆,서울특별시 중구 다산동 432-517,생활방범,2,200,회전형,30,2014-01,02-3396-4744,37.552099,127.005081,2020-06-25
"서울특별시 중구청",서울특별시 중구 동호로 11차길 1 옆,서울특별시 중구 다산동 432-517,생활방범,2,200,회전형,30,2016-12,02-3396-4744,37.552165,127.004883,2020-06-25
"서울특별시 중구청",서울특별시 중구 동호로 11자길 19 옆,서울특별시 중구 다산동 432-1971,생활방범,2,200,회전형,30,2014-01,02-3396-4744,37.551162,127.005732,2020-06-25
"서울특별시 중구청",서울특별시 중구 다산로14길 47,서울특별시 중구 청구동 340-15,생활방범,2,200,회전형,30,2014-01,02-3396-4744,37.555803,127.0135718,2020-06-25
"서울특별시 중구청",서울특별시 중구 다산로14길 47,서울특별시 중구 청구동 340-15,생활방범,2,200,회전형,30,2014-01,02-3396-4744,37.55582058,127.0135718,2020-06-25
"서울특별시 중구청",서울특별시 중구 난계로 6길 8,서울특별시 중구 신당5동 산12-75,생활방범,2,200,회전형,30,2014-01,02-3396-4744,37.5622339,127.024522,2020-06-25
"서울특별시 중구청",서울특별시 중구 난계로 6길 8,서울특별시 중구 신당5동 산12-75,생활방범,2,200,회전형,30,2014-01,02-3396-4744,37.5622339,127.0245744,2020-06-25
"서울특별시 중구청",서울특별시 중구 난계로 6길 8,서울특별시 중구 신당5동 산12-75,생활방범,2,200,회전형,30,2018-02,02-3396-4744,37.5622339,127.0245744,2020-06-25
"서울특별시 중구청",서울특별시 중구 다산로42나길 12 앞,서울특별시 중구 다산동 122-10,생활방범,2,200,회전형,30,2014-01,02-3396-4744,37.563662,127.018424,2020-06-25
"서울특별시 중구청",서울특별시 중구 다산로42나길 12 앞,서울특별시 중구 다산동 122-10,생활방범,2,200,회전형,30,2018-02,02-3396-4744,37.563894,127.018922,2020-06-25
"서울특별시 중구청",서울특별시 중구 다산로33가길 17 앞,서울특별시 중구 신당동 241-26,생활방범,2,200,회전형,30,2016-12,02-3396-4744,37.5631438,127.014276,2020-06-25
"서울특별시 중구청",서울특별시 중구 동호로 8나길 15,서울특별시 중구 약수동 349-214,생활방범,2,200,회전형,30,2014-01,02-3396-4744,37.55275365,127.0129692,2020-06-25
"서울특별시 중구청",서울특별시 중구 다산로 24길 23 맞은편,서울특별시 중구 청구동 333-370,생활방범,2,200,회전형,30,2014-01,02-3396-4744,37.556129,127.016358,2020-06-25
"서울특별시 중구청",서울특별시 중구 다산로 24길 23 맞은편,서울특별시 중구 청구동 333-370,생활방범,2,200,회전형,30,2018-04,02-3396-4744,37.555859,127.016294,2020-06-25
"서울특별시 중구청",서울특별시 중구 퇴계로 36가길 60 앞,서울특별시 중구 필동 2가 111-2,생활방범,2,200,회전형,30,2014-01,02-3396-4744,37.557823,126.995394,2020-06-25
"서울특별시 중구청",서울특별시 중구 동호로11차길 1 옆,서울특별시 중구 다산동 432-813,생활방범,2,200,회전형,30,2018-02,02-3396-4744,37.552579,127.005797,2020-06-25
"서울특별시 중구청",서울특별시 중구 동호로 15길 60 옆,서울특별시 중구 다산동 432-1584,생활방범,2,200,회전형,30,2014-01,02-3396-4744,37.554279,127.008593,2020-06-25
"서울특별시 중구청",서울특별시 중구 서소문로2길 46 위,서울특별시 중구 중림동 1046,생활방범,2,200,회전형,30,2014-01,02-3396-4744,37.557191,126.963249,2020-06-25
"서울특별시 중구청",서울특별시 중구 청구로1길 23,서울특별시 중구 신당동 843,생활방범,2,200,회전형,30,2014-01,02-3396-4744,37.55853733,127.018448,2020-06-25
"서울특별시 중구청",서울특별시 중구 다산로36가길26-14,서울특별시 중구 신당5동57-295,생활방범,3,200,회전형,30,2014-11,02-3396-4744,37.56090481,127.0204949,2020-06-25
"서울특별시 중구청",서울특별시 중구 다산로36길64 114동뒤,서울특별시 중구 동화동45-42,생활방범,3,200,회전형,30,2014-11,02-3396-4744,37.560174,127.018256,2020-06-25
"서울특별시 중구청",서울특별시 중구 다산로36길64 114동뒤,서울특별시 중구 동화동45-42,생활방범,3,200,회전형,30,2018-05,02-3396-4744,37.560058,127.018157,2020-06-25
"서울특별시 중구청",서울특별시 중구 동호로5길19,서울특별시 중구 약수동309-262,생활방범,3,200,회전형,30,2014-11,02-3396-4744,37.5518563,127.0125662,2020-06-25
"서울특별시 중구청",서울특별시 중구 다산로48길33,서울특별시 중구 황학동 755,생활방범,5,200,회전형,30,2015-12,02-3396-4744,37.56748249,127.018011,2020-06-25
"서울특별시 중구청",서울특별시 중구 다산로48길33,서울특별시 중구 황학동 755,생활방범,3,200,회전형,30,2015-12,02-3396-4744,37.56748249,127.018011,2020-06-25
"서울특별시 중구청",서울특별시 중구 신당동294-40,서울특별시 중구 신당동294-40,생활방범,3,200,회전형,30,2015-12,02-3396-4744,37.559914,127.013956,2020-06-25
"서울특별시 중구청",서울특별시 중구 태평로1가2-2,서울특별시 중구 태평로1가2-2,생활방범,3,200,회전형,30,2015-12,02-3396-4744,37.568953,126.977344,2020-06-25
"서울특별시 중구청",서울특별시 중구 신당동296-15,서울특별시 중구 신당동296-15,생활방범,2,130,회전형,30,2012-07,02-3396-4744,37.560564,127.013461,2020-06-25
"서울특별시 중구청",서울특별시 중구 서소문로89-31,서울특별시 중구 순화동 3-12,생활방범,3,200,회전형,30,2016-07,02-3396-4744,37.56387277,126.9712553,2020-06-25
"서울특별시 중구청",서울특별시 중구 서소문로89-31,서울특별시 중구 순화동 3-12,생활방범,3,200,회전형,30,2016-07,02-3396-4744,37.56387277,126.9712553,2020-06-25
"서울특별시 중구청",서울특별시 중구 퇴계로 36가길 60 앞,서울특별시 중구 필동 2가 111-2,생활방범,2,200,고정형,30,2016-06,02-3396-4744,37.557949,126.995473,2020-06-25
"서울특별시 중구청",서울특별시 중구 삼일대로 340,서울특별시 중구 저동1가 1-14,생활방범,3,200,회전형,30,2016-12,02-3396-4744,37.56504698,126.9881832,2020-06-25
"서울특별시 중구청",서울특별시 중구 명동길 91-1,서울특별시 중구 저동1가 90-10,생활방범,4,200,회전형,30,2016-12,02-3396-4744,37.564718,126.987226,2020-06-25
"서울특별시 중구청",서울특별시 중구 명동길 91-1,서울특별시 중구 저동1가 90-10,생활방범,4,200,회전형,30,2016-12,02-3396-4744,37.564796,126.987226,2020-06-25
"서울특별시 중구청",서울특별시 중구 명동길 91-1,서울특별시 중구 저동1가 90-10,생활방범,4,200,회전형,30,2016-12,02-3396-4744,37.56478739,126.9872053,2020-06-25
"서울특별시 중구청",서울특별시 중구 명동길 91-1,서울특별시 중구 저동1가 90-10,생활방범,4,200,회전형,30,2016-12,02-3396-4744,37.56478739,126.9872053,2020-06-25
"서울특별시 중구청",서울특별시 중구 다동길13,서울특별시 중구 다동 45-6,생활방범,4,200,회전형,30,2017-07,02-3396-4744,37.56813092,126.9802139,2020-06-25
"서울특별시 중구청",서울특별시 중구 만리재로 21길 9,서울특별시 중구 만리동2가 218-26,생활방범,3,200,회전형,30,2017-09,02-3396-4744,37.55281706,126.9630706,2020-06-25
"서울특별시 중구청",서울특별시 중구 만리재로 21길 9,서울특별시 중구 만리동2가 218-26,생활방범,3,200,회전형,30,2017-09,02-3396-4744,37.55281706,126.9630706,2020-06-25
"서울특별시 중구청",,서울특별시 중구 신당동 837-4,생활방범,1,200,고정형,30,2018-09,02-3396-4744,37.559501,127.020601,2020-06-25
"서울특별시 중구청",,서울특별시 중구 신당동 837-4,생활방범,3,200,회전형,30,2018-09,02-3396-4744,37.559301,127.0208001,2020-06-25
"서울특별시 중구청",,서울특별시 중구 신당동 837-4,생활방범,2,200,고정형,30,2018-09,02-3396-4744,37.559251,127.0209001,2020-06-25
"서울특별시 중구청",서울특별시 중구 칠패로 5,서울특별시 중구 의주로2가 16-4,생활방범,2,200,회전형,30,2019-04,02-3396-4744,37.56056731,126.9688661,2020-06-25
"서울특별시 중구청",서울특별시 중구 칠패로 5,서울특별시 중구 의주로2가 16-4,생활방범,1,200,고정형,30,2019-04,02-3396-4744,37.56056731,126.9688661,2020-06-25
"서울특별시 중구청",서울특별시 중구 칠패로 5,서울특별시 중구 의주로2가 16-4,생활방범,2,200,고정형,30,2019-04,02-3396-4744,37.56056731,126.9688661,2020-06-25
"서울특별시 중구청",서울특별시 중구 칠패로 5,서울특별시 중구 의주로2가 16-4,생활방범,2,200,고정형,30,2019-04,02-3396-4744,37.56056731,126.9688661,2020-06-25
"서울특별시 중구청",서울특별시 중구 칠패로 5,서울특별시 중구 의주로2가 16-4,생활방범,2,200,회전형,30,2019-04,02-3396-4744,37.56056731,126.9688661,2020-06-25
"서울특별시 중구청",서울특별시 중구 칠패로 5,서울특별시 중구 의주로2가 16-4,생활방범,2,200,고정형,30,2019-04,02-3396-4744,37.56056731,126.9688661,2020-06-25
"서울특별시 중구청",서울특별시 중구 칠패로 5,서울특별시 중구 의주로2가 16-4,생활방범,1,200,회전형,30,2019-04,02-3396-4744,37.56056731,126.9688661,2020-06-25
"서울특별시 중구청",서울특별시 중구 칠패로 5,서울특별시 중구 의주로2가 16-4,생활방범,2,200,고정형,30,2019-04,02-3396-4744,37.56056731,126.9688661,2020-06-25
"서울특별시 중구청",서울특별시 중구 칠패로 5,서울특별시 중구 의주로2가 16-4,생활방범,2,200,회전형,30,2019-04,02-3396-4744,37.56056731,126.9688661,2020-06-25
"서울특별시 중구청",서울특별시 중구 세종대로 69-14,서울특별시 중구 서소문동 116,생활방범,2,200,회전형,30,2019-06,02-3396-4744,37.5627899,126.975456,2020-06-25
"서울특별시 중구청",서울특별시 중구 난계로 6길 8,서울특별시 중구 신당5동 산12-75,생활방범,3,200,회전형,30,2019-06,02-3396-4744,37.5622339,127.0245744,2020-06-25
"서울특별시 중구청",서울특별시 중구 난계로 6길 8,서울특별시 중구 신당5동 산12-75,생활방범,3,200,회전형,30,2019-06,02-3396-4744,37.5622339,127.0245744,2020-06-25
"서울특별시 중구청",서울특별시 중구 장교동 1,서울특별시 중구 삼일대로 363,생활방범,2,200,회전형,30,2020-03,02-3396-4744,37.567851,126.9867001,2020-06-25
"서울특별시 중구청",서울특별시 중구 다산로 269,서울특별시 중구 신당동 254,시설물관리,18,200,고정형,30,,02-3396-4744,37.56729901,127.0156883,2020-06-25
"서울특별시 중구청",서울특별시 중구 남대문로1길 16 (북창동),서울특별시 중구 북창동 118,생활방범,4,200,회전형,30,2015-12,02-3396-4744,37.56178384,126.9776215,2020-06-25
"서울특별시 중구청",서울특별시 중구 을지로 35 (을지로1가),서울특별시 중구 을지로1가 101-1,생활방범,4,200,회전형,30,2016-12,02-3396-4744,37.56649137,126.981867,2020-06-25
"서울특별시 중구청",서울특별시 중구 소공로 109 (소공동),서울특별시 중구 소공동 110-1,생활방범,4,200,회전형,30,2017-09,02-3396-4744,37.56419508,126.9785489,2020-06-25
"서울특별시 중구청",서울특별시 중구 다동길 43 (다동),서울특별시 중구 다동 70,생활방범,4,200,회전형,30,2016-12,02-3396-4744,37.56821764,126.981613,2020-06-25
"서울특별시 중구청",서울특별시 중구 세종대로 74 (태평로2가),서울특별시 중구 태평로2가 69-5,생활방범,2,200,회전형,30,2016-12,02-3396-4744,37.56267748,126.9768606,2020-06-25
"서울특별시 중구청",서울특별시 중구 남대문로9길 39 (을지로1가),서울특별시 중구 을지로1가 42,생활방범,4,200,회전형,30,2017-09,02-3396-4744,37.5666641,126.980246,2020-06-25
"서울특별시 중구청",서울특별시 중구 무교로 32 (무교동),서울특별시 중구 무교동 1,생활방범,4,200,회전형,30,2017-09,02-3396-4744,37.56876511,126.9795618,2020-06-25
"서울특별시 중구청",서울특별시 중구 남대문로1길 42 (북창동),서울특별시 중구 북창동 18-9,생활방범,1,200,회전형,30,2015-12,02-3396-4744,37.56296592,126.9774853,2020-06-25
"서울특별시 중구청",서울특별시 중구 다동길 27 (다동),서울특별시 중구 다동 53-8,생활방범,2,200,회전형,30,2017-09,02-3396-4744,37.5678427,126.9808388,2020-06-25
"서울특별시 중구청",서울특별시 중구 무교로 6 (을지로1가),서울특별시 중구 을지로1가 16,생활방범,4,200,회전형,30,2014-11,02-3396-4744,37.56648017,126.9794719,2020-06-25
"서울특별시 중구청",서울특별시 중구 세종대로 136 (무교동),서울특별시 중구 태평로1가 84,생활방범,3,200,회전형,30,2012-06,02-3396-4744,37.5684225,126.9782579,2020-06-25
"서울특별시 중구청",서울특별시 중구 남대문로 73 (소공동),서울특별시 중구 소공동 7,생활방범,4,200,회전형,30,2014-11,02-3396-4744,37.56420281,126.9816366,2020-06-25
"서울특별시 중구청",서울특별시 중구 남대문로 39 (남대문로3가),서울특별시 중구 남대문로3가 110,생활방범,1,200,회전형,30,2016-12,02-3396-4744,37.56251583,126.9797219,2020-06-25
"서울특별시 중구청",서울특별시 중구 남대문로9길 6 (다동),서울특별시 중구 다동 155,생활방범,3,200,회전형,30,2018-10,02-3396-4744,37.56694188,126.9819529,2020-06-25
"서울특별시 중구청",서울특별시 중구 남대문로25-13,서울특별시 중구 북창동 110-2,생활방범,5,200,회전형,30,2015-12,02-3396-4744,37.561861,126.978257,2020-06-25
"서울특별시 중구청",서울특별시 중구 청파로 426 (봉래동2가),서울특별시 중구 봉래동2가 122,생활방범,1,200,회전형,30,2017-08,02-3396-4744,37.55744643,126.9695103,2020-06-25
"서울특별시 중구청",서울특별시 중구 퇴계로 24 (남대문로5가),서울특별시 중구 남대문로5가 267-4,생활방범,1,200,회전형,30,2016-12,02-3396-4744,37.556619,126.9759616,2020-06-25
"서울특별시 중구청",서울특별시 중구 세종대로2길 7 (남대문로5가),서울특별시 중구 남대문로5가 12-16,생활방범,1,200,회전형,30,2016-12,02-3396-4744,37.557562,126.973986,2020-06-25
"서울특별시 중구청",서울특별시 중구 청파로 426 (봉래동2가),서울특별시 중구 봉래동2가 122,생활방범,1,200,회전형,30,2014-11,02-3396-4744,37.55744643,126.9695103,2020-06-25
"서울특별시 중구청",서울특별시 중구 통일로 21 (봉래동2가),서울특별시 중구 봉래동2가 123번지,생활방범,2,200,회전형,30,2014-11,02-3396-4744,37.55758745,126.9714025,2020-06-25
"서울특별시 중구청",서울특별시 중구 세종대로 30 (남대문로5가),서울특별시 중구 남대문로5가 21-1,생활방범,1,200,회전형,30,2016-12,02-3396-4744,37.55900823,126.9749196,2020-06-25
"서울특별시 중구청",서울특별시 중구 칠패로 26 (순화동),서울특별시 중구 순화동 207-25,생활방범,4,200,회전형,30,2017-09,02-3396-4744,37.55949228,126.9717461,2020-06-25
"서울특별시 중구청",서울특별시 중구 세종대로 12 (남대문로5가),서울특별시 중구 남대문로5가 12-8,생활방범,1,200,회전형,30,2017-09,02-3396-4744,37.557841,126.973515,2020-06-25
"서울특별시 중구청",서울특별시 중구 소월로2길 30,서울특별시 중구 남대문로5가 827,생활방범,4,200,회전형,30,2018-10,02-3396-4744,37.55399522,126.9756139,2020-06-25
"서울특별시 중구청",서울특별시 중구 세종대로5길 39 (봉래동1가),서울특별시 중구 봉래동1가 126-1,생활방범,3,200,회전형,30,2018-10,02-3396-4744,37.5584202,126.9723348,2020-06-25
"서울특별시 중구청",서울특별시 중구 한강대로 416 서울역지하보도,서울특별시 중구 봉래동2가 84-11,생활방범,1,200,고정형,30,2014-07,02-3396-4744,37.556236,126.973279,2020-06-25
"서울특별시 중구청",서울특별시 중구 한강대로 416 서울역지하보도,서울특별시 중구 봉래동2가 84-11,생활방범,1,200,고정형,30,2014-07,02-3396-4744,37.556236,126.973279,2020-06-25
"서울특별시 중구청",서울특별시 중구 한강대로 416 서울역지하보도,서울특별시 중구 봉래동2가 84-11,생활방범,1,200,고정형,30,2014-07,02-3396-4744,37.556236,126.973279,2020-06-25
"서울특별시 중구청",서울특별시 중구 한강대로 416 서울역지하보도,서울특별시 중구 봉래동2가 84-11,생활방범,1,200,고정형,30,2014-07,02-3396-4744,37.556236,126.973279,2020-06-25
"서울특별시 중구청",서울특별시 중구 한강대로 416 서울역지하보도,서울특별시 중구 봉래동2가 84-11,생활방범,1,200,고정형,30,2014-07,02-3396-4744,37.556236,126.973279,2020-06-25
"서울특별시 중구청",서울특별시 중구 명동8길 27 (명동2가),서울특별시 중구 명동2가 31-1,생활방범,1,200,회전형,30,2016-12,02-3396-4744,37.56253105,126.9851684,2020-06-25
"서울특별시 중구청",서울특별시 중구 명동10길 52 (충무로2가),서울특별시 중구 충무로2가 65-4,생활방범,1,200,회전형,30,2017-09,02-3396-4744,37.56146074,126.9857073,2020-06-25
"서울특별시 중구청",서울특별시 중구 퇴계로 115 (충무로1가),서울특별시 중구 충무로1가 64,생활방범,4,200,회전형,30,2017-09,02-3396-4744,37.56105333,126.9845122,2020-06-25
"서울특별시 중구청",서울특별시 중구 명동길 20 (명동2가),서울특별시 중구 명동2가 55-1,생활방범,1,200,회전형,30,2016-12,02-3396-4744,37.56355075,126.9833979,2020-06-25
"서울특별시 중구청",서울특별시 중구 퇴계로20나길 15 (남산동2가),서울특별시 중구 남산동2가 27-2,생활방범,1,200,회전형,30,2015-12,02-3396-4744,37.55848022,126.9855404,2020-06-25
"서울특별시 중구청",서울특별시 중구 명동8나길 21 (충무로1가),서울특별시 중구 충무로1가 24-11,생활방범,1,200,회전형,30,2016-12,02-3396-4744,37.56119378,126.9837244,2020-06-25
"서울특별시 중구청",서울특별시 중구 명동9길 29 (을지로2가),서울특별시 중구 을지로2가 195,생활방범,1,200,회전형,30,2016-12,02-3396-4744,37.56506813,126.9841718,2020-06-25
"서울특별시 중구청",서울특별시 중구 명동길 74 (명동2가),서울특별시 중구 명동2가 1-1,생활방범,1,200,회전형,30,2018-03,02-3396-4744,37.56367731,126.9867754,2020-06-25
"서울특별시 중구청",서울특별시 중구 명동길 93 (저동1가),서울특별시 중구 저동1가 43-3,생활방범,1,200,회전형,30,2017-09,02-3396-4744,37.56481983,126.9873049,2020-06-25
"서울특별시 중구청",서울특별시 중구 소공로6길 25 (남산동1가),서울특별시 중구 남산동1가 15,생활방범,1,200,회전형,30,2015-12,02-3396-4744,37.55861343,126.9844855,2020-06-25
"서울특별시 중구청",서울특별시 중구 퇴계로18길 5 (남산동2가),서울특별시 중구 남산동2가 6-1,생활방범,1,200,회전형,30,2016-12,02-3396-4744,37.56038315,126.9857754,2020-06-25
"서울특별시 중구청",서울특별시 중구 소공로6가길 13 (남산동1가),서울특별시 중구 남산동1가 21-4,생활방범,1,200,회전형,30,2017-09,02-3396-4744,37.55791422,126.9841688,2020-06-25
"서울특별시 중구청",서울특별시 중구 퇴계로20길 56,서울특별시 중구 남산동2가 26-8,생활방범,3,200,회전형,30,2016-12,02-3396-4744,37.557673,126.9861924,2020-06-25
"서울특별시 중구청",서울특별시 중구 퇴계로22길 17 (남산동2가),서울특별시 중구 남산동2가 2,생활방범,1,200,회전형,30,2017-09,02-3396-4744,37.55978501,126.9867761,2020-06-25
"서울특별시 중구청",서울특별시 중구 소공로6나길 6 (회현동2가),서울특별시 중구 회현동2가 42-9,생활방범,1,200,회전형,30,2016-12,02-3396-4744,37.55819885,126.9836028,2020-06-25
"서울특별시 중구청",서울특별시 중구 퇴계로18길 70 (남산동1가),서울특별시 중구 남산동1가 21-1,생활방범,1,200,회전형,30,2016-12,02-3396-4744,37.55792144,126.9843318,2020-06-25
"서울특별시 중구청",서울특별시 중구 명동길 43 (명동1가),서울특별시 중구 명동1가 53-1,생활방범,1,200,회전형,30,2017-09,02-3396-4744,37.56399782,126.984738,2020-06-25
"서울특별시 중구청",서울특별시 중구 퇴계로20길 19 (남산동2가),서울특별시 중구 남산동2가 15-10,생활방범,1,200,회전형,30,2017-09,02-3396-4744,37.55937766,126.9859477,2020-06-25
"서울특별시 중구청",서울특별시 중구 퇴계로16길 21 (남산동1가),서울특별시 중구 남산동1가 8-1,생활방범,1,200,회전형,30,2017-09,02-3396-4744,37.55985685,126.9847841,2020-06-25
"서울특별시 중구청",서울특별시 중구 명동길 42 (명동2가),서울특별시 중구 명동2가 33-2,생활방범,1,200,회전형,30,2017-09,02-3396-4744,37.56364823,126.984729,2020-06-25
"서울특별시 중구청",서울특별시 중구 명동13길 14 (저동1가),서울특별시 중구 저동1가 79-5,생활방범,1,200,회전형,30,2017-09,02-3396-4744,37.56487741,126.9865624,2020-06-25
"서울특별시 중구청",서울특별시 중구 소공로4길 21 (회현동2가),서울특별시 중구 회현동2가 48-19,생활방범,1,200,회전형,30,2017-09,02-3396-4744,37.55727986,126.9837434,2020-06-25
"서울특별시 중구청",서울특별시 중구 퇴계로16길 14-7,서울특별시 중구 회현동3가 4-7,생활방범,1,200,회전형,30,2017-09,02-3396-4744,37.55999371,126.9841457,2020-06-25
"서울특별시 중구청",서울특별시 중구 퇴계로20가길 16 (남산동2가),서울특별시 중구 남산동2가 15-1,생활방범,1,200,회전형,30,2016-12,02-3396-4744,37.55947142,126.9864139,2020-06-25
"서울특별시 중구청",서울특별시 중구 퇴계로20가길 16,서울특별시 중구 남산동2가 15-1,생활방범,1,200,고정형,30,2017-11,02-3396-4744,37.55947142,126.9864139,2020-06-25
"서울특별시 중구청",서울특별시 중구 퇴계로20나길 15-20 (예장동),서울특별시 중구 예장동 8-85,생활방범,1,200,회전형,30,2017-09,02-3396-4744,37.55766574,126.9857488,2020-06-25
"서울특별시 중구청",서울특별시 중구 소공로 36 (회현동2가),서울특별시 중구 회현동2가 27,생활방범,1,200,회전형,30,2016-12,02-3396-4744,37.55874299,126.9831681,2020-06-25
"서울특별시 중구청",서울특별시 중구 퇴계로20길26-1,서울특별시 중구 남산동2가29-6,생활방범,4,200,회전형,30,2015-12,02-3396-4744,37.55901725,126.9858572,2020-06-25
"서울특별시 중구청",서울특별시 중구 남대문로 12 (남대문로4가),서울특별시 중구 남대문로4가 18,생활방범,1,200,회전형,30,2013-02,02-3396-4744,37.56056201,126.9772144,2020-06-25
"서울특별시 중구청",서울특별시 중구 남대문로 42 (충무로1가),서울특별시 중구 충무로1가 53,생활방범,1,200,회전형,30,2017-09,02-3396-4744,37.56103472,126.9805056,2020-06-25
"서울특별시 중구청",서울특별시 중구 소월로 3 (남창동),서울특별시 중구 남창동 51-1,생활방범,1,200,회전형,30,2017-09,02-3396-4744,37.55937249,126.9762007,2020-06-25
"서울특별시 중구청",서울특별시 중구 퇴계로 39-2 (남창동),서울특별시 중구 남창동 47,생활방범,1,200,회전형,30,2014-11,02-3396-4744,37.55792747,126.9770748,2020-06-25
"서울특별시 중구청",서울특별시 중구 남대문시장길 45-4 (남창동),서울특별시 중구 남창동 4-3,생활방범,1,200,회전형,30,2014-11,02-3396-4744,37.56073166,126.9786404,2020-06-25
"서울특별시 중구청",서울특별시 중구 퇴계로 71 (회현동1가),서울특별시 중구 회현동1가 23-1,생활방범,1,200,회전형,30,2017-09,02-3396-4744,37.5597772,126.9799939,2020-06-25
"서울특별시 중구청",서울특별시 중구 남대문시장8길 2 (남창동),서울특별시 중구 남창동 31-1,생활방범,1,200,회전형,30,2016-12,02-3396-4744,37.56030996,126.9784459,2020-06-25
"서울특별시 중구청",서울특별시 중구 퇴계로 37 (남창동),서울특별시 중구 남창동 281,생활방범,1,200,회전형,30,2016-12,02-3396-4744,37.55794175,126.9764229,2020-06-25
"서울특별시 중구청",서울특별시 중구 남대문시장10길 2 (회현동1가),서울특별시 중구 회현동1가 204,생활방범,1,200,회전형,30,2017-09,02-3396-4744,37.56037504,126.9796003,2020-06-25
"서울특별시 중구청",서울특별시 중구 남대문로 42 (충무로1가),서울특별시 중구 충무로1가 52,생활방범,1,200,회전형,30,2017-09,02-3396-4744,37.56103472,126.9805056,2020-06-25
"서울특별시 중구청",서울특별시 중구 남대문시장4길 29 (남창동),서울특별시 중구 남창동 49,생활방범,1,200,회전형,30,2016-12,02-3396-4744,37.55882492,126.9773824,2020-06-25
"서울특별시 중구청",서울특별시 중구 남대문시장4길 28-16 (회현동1가),서울특별시 중구 남창동 51-1,생활방범,1,200,회전형,30,2017-09,02-3396-4744,37.55901213,126.9763909,2020-06-25
"서울특별시 중구청",서울특별시 중구 남대문시장8길 25 (남창동),서울특별시 중구 남창동 9-28,생활방범,1,200,회전형,30,2017-09,02-3396-4744,37.55934775,126.9787132,2020-06-25
"서울특별시 중구청",서울특별시 중구 퇴계로 53 (남창동),서울특별시 중구 남창동 47-17,생활방범,1,200,회전형,30,2014-11,02-3396-4744,37.5586953,126.9780615,2020-06-25
"서울특별시 중구청",서울특별시 중구 서소문로6길 9 (중림동),서울특별시 중구 중림동 565,생활방범,1,200,회전형,30,2016-12,02-3396-4744,37.55999353,126.9661682,2020-06-25
"서울특별시 중구청",서울특별시 중구 중림로4길46,서울특별시 중구 중림동392-8,생활방범,1,200,회전형,30,2017-09,02-3396-4744,37.55731148,126.9638561,2020-06-25
"서울특별시 중구청",서울특별시 중구 중림로4길 24 (중림동),서울특별시 중구 중림동 396-8,생활방범,1,200,회전형,30,2015-12,02-3396-4744,37.55820175,126.9641363,2020-06-25
"서울특별시 중구청",서울특별시 중구 손기정로 101 (만리동2가),서울특별시 중구 만리동2가 6-1,생활방범,3,200,고정형,30,2020-02,02-3396-4744,37.55686883,126.9660066,2020-06-25
"서울특별시 중구청","서울특별시 중구 중림로8길 10 (중림동, 용궁빌라)",서울특별시 중구 중림동 324-4,생활방범,1,200,회전형,30,2016-12,02-3396-4744,37.55766561,126.9670475,2020-06-25
"서울특별시 중구청",서울특별시 중구 만리재로21길 9 (만리동2가),서울특별시 중구 만리동2가 218-26,생활방범,1,200,회전형,30,2017-09,02-3396-4744,37.55281706,126.9630706,2020-06-25
"서울특별시 중구청",서울특별시 중구 손기정로 73 (만리동2가),서울특별시 중구 만리동2가 2,생활방범,2,200,회전형,30,2017-09,02-3396-4744,37.5564109,126.9652508,2020-06-25
"서울특별시 중구청",서울특별시 중구 만리재로37길 68 (만리동1가),서울특별시 중구 만리동1가 56-30,생활방범,3,200,회전형,30,2017-09,02-3396-4744,37.55672082,126.9651646,2020-06-25
"서울특별시 중구청",서울특별시 중구 만리재로37길 30 (만리동1가),서울특별시 중구 만리동1가 54-5,생활방범,1,200,회전형,30,2017-09,02-3396-4744,37.55729791,126.9667217,2020-06-25
"서울특별시 중구청",서울특별시 중구 만리재로35길 30 (만리동1가),서울특별시 중구 만리동1가 35-10,생활방범,4,200,회전형,30,2016-12,02-3396-4744,37.55656226,126.967628,2020-06-25
"서울특별시 중구청",서울특별시 중구 중림로8길 28 (중림동),서울특별시 중구 중림동 324-9,생활방범,1,200,회전형,30,2016-12,02-3396-4744,37.55764371,126.9660787,2020-06-25
"서울특별시 중구청",서울특별시 중구 청파로 441-2 (중림동),서울특별시 중구 중림동 61,생활방범,1,200,회전형,30,2017-09,02-3396-4744,37.55891667,126.9688034,2020-06-25
"서울특별시 중구청",서울특별시 중구 중림로 51 (중림동),서울특별시 중구 중림동 129-23,생활방범,4,200,회전형,30,2012-06,02-3396-4744,37.5573489,126.9686909,2020-06-25
"서울특별시 중구청",서울특별시 중구 중림로2길 26 (중림동),서울특별시 중구 중림동 395-2,생활방범,1,200,회전형,30,2017-09,02-3396-4744,37.55805015,126.9633577,2020-06-25
"서울특별시 중구청",서울특별시 중구 중림로2길 16,서울특별시 중구 중림동 398-16,생활방범,2,200,고정형,30,2018-11,02-3396-4744,37.55848622,126.9633168,2020-06-25
"서울특별시 중구청",서울특별시 중구 서소문로2길 18 (중림동),서울특별시 중구 중림동 399-2,생활방범,1,200,회전형,30,2016-12,02-3396-4744,37.55827342,126.9628053,2020-06-25
"서울특별시 중구청",서울특별시 중구 만리재로37길 50 (만리동1가),서울특별시 중구 만리동1가 56-51,생활방범,1,200,회전형,30,2016-12,02-3396-4744,37.55723275,126.9657031,2020-06-25
"서울특별시 중구청",서울특별시 중구 만리재로37길 59-3,서울특별시 중구 만리동1가 56-20,생활방범,3,200,고정형,30,2017-12,02-3396-4744,37.556818,126.965621,2020-06-25
"서울특별시 중구청",서울특별시 중구 청파로103길 15 (중림동),서울특별시 중구 중림동 116,생활방범,1,200,회전형,30,2016-12,02-3396-4744,37.55844453,126.9687312,2020-06-25
"서울특별시 중구청",서울특별시 중구 만리재로35길 12 (만리동1가),서울특별시 중구 만리동1가 62-12,생활방범,4,200,고정형,30,2020-03,02-3396-4744,37.55565837,126.9677364,2020-06-25
"서울특별시 중구청",서울특별시 중구 중림로 2-1 (중림동),서울특별시 중구 중림동 397-2,생활방범,4,200,회전형,30,2018-04,02-3396-4744,37.55895493,126.9639368,2020-06-25
"서울특별시 중구청",서울특별시 중구 서소문로2길 33-8 (중림동),서울특별시 중구 중림동 392-2,생활방범,1,200,회전형,30,2017-09,02-3396-4744,37.557575,126.9633987,2020-06-25
"서울특별시 중구청",서울특별시 중구 서소문로2길 33,서울특별시 중구 중림동 395-7,생활방범,2,200,고정형,30,2018-11,02-3396-4744,37.55769328,126.963118,2020-06-25
"서울특별시 중구청",서울특별시 중구 만리재로 181 (만리동2가),서울특별시 중구 만리동2가 32,생활방범,4,200,회전형,30,2014-11,02-3396-4744,37.554491,126.9662663,2020-06-25
"서울특별시 중구청",서울특별시 중구 환일길 67-12 (만리동2가),서울특별시 중구 만리동2가 231-65,생활방범,1,200,회전형,30,2017-09,02-3396-4744,37.55230001,126.962294,2020-06-25
"서울특별시 중구청",서울특별시 중구 서소문로6길 34 (중림동),서울특별시 중구 중림동 149,생활방범,2,200,회전형,30,2011-09,02-3396-4744,37.55959019,126.9672232,2020-06-25
"서울특별시 중구청",서울특별시 중구 중림로 11-2 (중림동),서울특별시 중구 중림동 184-1,생활방범,1,200,회전형,30,2016-05,02-3396-4744,37.55910301,126.964987,2020-06-25
"서울특별시 중구청",서울특별시 중구 중림로4길 46 (중림동),서울특별시 중구 중림동 1044,생활방범,4,200,회전형,30,2012-06,02-3396-4744,37.55731148,126.9638561,2020-06-25
"서울특별시 중구청",서울특별시 중구 청파로 464 (중림동),서울특별시 중구 중림동 352,생활방범,4,200,회전형,30,2012-06,02-3396-4744,37.56081942,126.9682277,2020-06-25
"서울특별시 중구청",서울특별시 중구 중림로7길 10 (중림동),서울특별시 중구 중림동 149-57,어린이보호,2,200,회전형,30,2012-09,02-3396-4744,37.55836491,126.9675089,2020-06-25
"서울특별시 중구청",서울특별시 중구 퇴계로8길 80 (회현동1가),서울특별시 중구 회현동1가 100-239,생활방범,1,200,회전형,30,2015-12,02-3396-4744,37.556436,126.9803121,2020-06-25
"서울특별시 중구청",서울특별시 중구 퇴계로6길 36 (남창동),서울특별시 중구 남창동 202,생활방범,3,200,회전형,30,2017-09,02-3396-4744,37.55670605,126.9788996,2020-06-25
"서울특별시 중구청",서울특별시 중구 퇴계로6가길 24,서울특별시 중구 남창동 205-94,생활방범,2,200,고정형,30,2018-10,02-3396-4744,37.55640321,126.9783157,2020-06-25
"서울특별시 중구청",서울특별시 중구 퇴계로12길 62-5 (회현동1가),서울특별시 중구 회현동1가 109,생활방범,1,200,회전형,30,2016-12,02-3396-4744,37.55682899,126.9812763,2020-06-25
"서울특별시 중구청",서울특별시 중구 퇴계로12길 62-5,서울특별시 중구 회현동1가 109,생활방범,1,200,고정형,30,2017-12,02-3396-4744,37.55682899,126.9812763,2020-06-25
"서울특별시 중구청",서울특별시 중구 퇴계로10길 8 (회현동),서울특별시 중구 회현동1가 94-2,생활방범,1,200,회전형,30,2016-12,02-3396-4744,37.5589948,126.9801213,2020-06-25
"서울특별시 중구청",서울특별시 중구 소공로3길 7 (회현동2가),서울특별시 중구 회현동2가 56,생활방범,1,200,회전형,30,2016-12,02-3396-4744,37.55767614,126.9826387,2020-06-25
"서울특별시 중구청",서울특별시 중구 퇴계로 48-1 (남창동),서울특별시 중구 회현동1가 194-15,생활방범,1,200,회전형,30,2016-12,02-3396-4744,37.55803217,126.9780844,2020-06-25
"서울특별시 중구청",서울특별시 중구 퇴계로12가길 19 (회현동1가),서울특별시 중구 회현동1가 148,생활방범,3,200,회전형,30,2016-12,02-3396-4744,37.55606134,126.9812583,2020-06-25
"서울특별시 중구청",서울특별시 중구 퇴계로8길 43 (회현동),서울특별시 중구 회현동 100-121,생활방범,1,200,회전형,30,2015-12,02-3396-4744,37.55748103,126.979583,2020-06-25
"서울특별시 중구청",서울특별시 중구 퇴계로4길 52-5,서울특별시 중구 회현동1가 82-8,생활방범,1,200,고정형,30,2018-11,02-3396-4744,37.55773345,126.9804204,2020-06-25
"서울특별시 중구청",서울특별시 중구 퇴계로2길 1 (남창동),서울특별시 중구 남창동 168-21,생활방범,1,200,회전형,30,2017-09,02-3396-4744,37.55756353,126.9774099588,2020-06-25
"서울특별시 중구청",서울특별시 중구 소파로 46 (회현동1가),서울특별시 중구 회현동1가 100-115,생활방범,1,200,회전형,30,2017-09,02-3396-4744,37.55454767,126.9812814,2020-06-25
"서울특별시 중구청",서울특별시 중구 퇴계로12가길 21 (회현동1가),서울특별시 중구 회현동1가 148-23,생활방범,1,200,회전형,30,2016-12,02-3396-4744,37.55587751,126.9810773,2020-06-25
"서울특별시 중구청",서울특별시 중구 소공로3길 10-10 (회현동1가),서울특별시 중구 회현동1가 51-2,생활방범,4,200,회전형,30,2012-06,02-3396-4744,37.5575391,126.9820774,2020-06-25
"서울특별시 중구청",서울특별시 중구 퇴계로6가길 36-2 (남창동),서울특별시 중구 남창동 205-105,생활방범,3,200,회전형,30,2012-06,02-3396-4744,37.55633823,126.9777136,2020-06-25
"서울특별시 중구청",서울특별시 중구 퇴계로6길 36 (남창동),서울특별시 중구 남창동 202,어린이보호,3,200,회전형,30,2012-12,02-3396-4744,37.55670605,126.9788996,2020-06-25
"서울특별시 중구청",서울특별시 중구 서소문로11길 1 (서소문동),서울특별시 중구 서소문동 55-3,생활방범,1,200,회전형,30,2014-11,02-3396-4744,37.5629974,126.9729126,2020-06-25
"서울특별시 중구청",서울특별시 중구 덕수궁길 83 (정동),서울특별시 중구 정동 1-8,생활방범,2,200,회전형,30,2016-12,02-3396-4744,37.56857661,126.9739927,2020-06-25
"서울특별시 중구청",서울특별시 중구 정동길 21 (정동),서울특별시 중구 정동 16-1,생활방범,1,200,회전형,30,2016-12,02-3396-4744,37.56689641,126.9708421,2020-06-25
"서울특별시 중구청",서울특별시 중구 통일로4길 22 (순화동),서울특별시 중구 순화동 1-1,생활방범,1,200,회전형,30,2016-12,02-3396-4744,37.56445241,126.9688872,2020-06-25
"서울특별시 중구청",서울특별시 중구 세종대로11길 26 (서소문동),서울특별시 중구 서소문동 120,생활방범,1,200,회전형,30,2017-09,02-3396-4744,37.56231301,126.9745835,2020-06-25
"서울특별시 중구청",서울특별시 중구 통일로 92 (순화동),서울특별시 중구 순화동 1-88,생활방범,1,200,회전형,30,2017-09,02-3396-4744,37.56359475,126.9692225,2020-06-25
"서울특별시 중구청",서울특별시 중구 덕수궁길 140 (정동),서울특별시 중구 정동 1-68,생활방범,3,200,회전형,30,2010-10,02-3396-4744,37.56908852,126.9746581,2020-06-25
"서울특별시 중구청",서울특별시 중구 정동길 22 (정동),서울특별시 중구 정동 28,생활방범,3,200,회전형,30,2012-06,02-3396-4744,37.56643109,126.9692123,2020-06-25
"서울특별시 중구청",서울특별시 중구 세종대로9길 53 (서소문동),서울특별시 중구 서소문동 58-12,생활방범,1,200,회전형,30,2013-02,02-3396-4744,37.56189456,126.9728406,2020-06-25
"서울특별시 중구청",서울특별시 중구 서소문로83-1,서울특별시 중구 순화동 6-19,생활방범,4,200,회전형,30,2015-12,02-3396-4744,37.56240935,126.9704183,2020-06-25
"서울특별시 중구청",서울특별시 중구 소파로 141,서울특별시 중구 남산동3가 30-7,어린이보호,4,200,회전형,30,2016-12,02-3396-4744,37.55975628,126.9877539,2020-06-25
"서울특별시 중구청",서울특별시 중구 퇴계로20나길42,서울특별시 중구 남산동2가 49-14,생활방범,3,200,회전형,30,2016-12,02-3396-4744,37.55734492,126.9852011,2020-06-25
"서울특별시 중구청",서울특별시 중구 퇴계로 20길 41-6,서울특별시 중구 남산동2가19-2,생활방범,3,200,회전형,30,2016-12,02-3396-4744,37.55849476,126.9866359,2020-06-25
"서울특별시 중구청",서울특별시 중구 소공로6가길 37,서울특별시 중구 회현동1가 144-39,생활방범,3,200,회전형,30,2017-09,02-3396-4744,37.55701683,126.9842007,2020-06-25
"서울특별시 중구청",서울특별시 중구 퇴계로18길 88,서울특별시 중구 회현동1가 144-35,생활방범,2,200,고정형,30,2018-10,02-3396-4744,37.55716101,126.9843908,2020-06-25
"서울특별시 중구청",서울특별시 중구 다동길 11,서울특별시 중구 다동 46,생활방범,3,200,회전형,30,2016-12,02-3396-4744,37.56800835,126.9799921,2020-06-25
"서울특별시 중구청",서울특별시 중구 서소문로 11길 19,서울특별시 중구 서소문동 37,어린이보호,3,200,회전형,30,2017-09,02-3396-4744,37.56378648,126.9720883,2020-06-25
"서울특별시 중구청",서울특별시 중구 정동길 12-11,서울특별시 중구 정동 28-11,생활방범,2,200,회전형,30,2019-09,02-3396-4744,37.56721313,126.969123,2020-06-25
"서울특별시 중구청",,서울특별시 중구 순화동 1-144,생활방범,2,200,회전형,30,2019-09,02-3396-4744,37.564991,126.971343,2020-06-25
"서울특별시 중구청",서울특별시 중구 남대문로1길 31-5,,생활방범,3,200,회전형,30,2020-03,02-3396-4744,37.56242163,126.9770418,2020-06-25
"서울특별시 중구청",서울특별시 중구 중림로 7길 23-22,서울특별시 중구 중림동 149-28,생활방범,3,200,회전형,30,2016-12,02-3396-4744,37.55895616,126.9682421,2020-06-25
"서울특별시 중구청",서울특별시 중구 만리재로 33길22,서울특별시 중구 만리동1가 62-15,어린이보호,3,200,회전형,30,2018-10,02-3396-4744,37.55552489,126.9672431,2020-06-25
"서울특별시 중구청",서울특별시 중구 중림로5길 11,서울특별시 중구 중림동 156-5,생활방범,2,200,회전형,30,2019-12,02-3396-4744,37.55942035,126.9656387,2020-06-25
"서울특별시 중구청",서울특별시 중구 후암로 60길 17,서울특별시 중구 남대문로5가 542,생활방범,3,200,회전형,30,2016-12,02-3396-4744,37.554795,126.9741786,2020-06-25
"서울특별시 중구청",서울특별시 중구 퇴계로8길 70,서울특별시 중구 회현동1가 100-38,생활방범,3,200,회전형,30,2016-12,02-3396-4744,37.55658736,126.9802758,2020-06-25
"서울특별시 중구청",서울특별시 중구 퇴계로8길 101,서울특별시 중구 회현동 147-25,생활방범,3,200,고정형,30,2017-09,02-3396-4744,37.55561806,126.9813082,2020-06-25
"서울특별시 중구청",서울특별시 중구 소공로3길 34,서울특별시 중구 회현동1가 142-16,생활방범,3,200,회전형,30,2017-09,02-3396-4744,37.556742,126.982532,2020-06-25
"서울특별시 중구청",서울특별시 중구 퇴계로12길 79,서울특별시 중구 회현동1가 147-16,생활방범,2,200,회전형,30,2017-09,02-3396-4744,37.55627409,126.9820143,2020-06-25
"서울특별시 중구청",서울특별시 중구 퇴계로12길 41,서울특별시 중구 회현동1가 55-3,생활방범,4,200,회전형,30,2017-09,02-3396-4744,37.55785977,126.9815023,2020-06-25
"서울특별시 중구청",서울특별시 중구 퇴계로8길 65-8,서울특별시 중구 회현동1가 100-171,생활방범,3,200,회전형,30,2017-12,02-3396-4744,37.556777,126.9805882,2020-06-25
"서울특별시 중구청",서울특별시 중구 퇴계로8길 49-17,서울특별시 중구 회현동1가 100-197,생활방범,1,200,고정형,30,2017-12,02-3396-4744,37.55728299,126.9806514,2020-06-25
"서울특별시 중구청",서울특별시 중구 퇴계로12길 62-22,서울특별시 중구 회현동1가 105-1,생활방범,2,200,고정형,30,2017-12,02-3396-4744,37.55696948,126.9808416,2020-06-25
"서울특별시 중구청",서울특별시 중구 남대문로5가 9-2,서울특별시 중구 세종대로 지하 2,생활방범,3,200,회전형,30,2018-07,02-3396-4744,37.557375,126.971766,2020-06-25
"서울특별시 중구청",서울특별시 중구 남대문로5가 9-2,서울특별시 중구 세종대로 지하 2,생활방범,3,200,회전형,30,2018-07,02-3396-4744,37.557546,126.972037,2020-06-25
"서울특별시 중구청",서울특별시 중구 남대문로 39,서울특별시 중구 남대문로3가 110,생활방범,3,200,고정형,30,2019-05,02-3396-4744,37.56251583,126.9797219,2020-06-25
"서울특별시 중구청",서울특별시 중구 남대문로 39,서울특별시 중구 남대문로3가 110,생활방범,2,200,고정형,30,2019-05,02-3396-4744,37.56251583,126.9797219,2020-06-25
"서울특별시 중구청",서울특별시 중구 퇴계로6길 24,,생활방범,3,200,회전형,30,2020-03,02-3396-4744,37.55721416,126.9785599,2020-06-25
"서울특별시 중구청",서울특별시 중구 후암로 58길 13,서울특별시 중구 남대문로5가 622,생활방범,1,200,회전형,30,2017-09,02-3396-4744,37.55437343,126.9745952,2020-06-25
"서울특별시 중구청",서울특별시 중구 후암로 60길 23,서울특별시 중구 남대문로5가 548,생활방범,1,200,회전형,30,2015-12,02-3396-4744,37.55492118,126.9743687,2020-06-25
"서울특별시 중구청",서울특별시 중구 소공로 30,서울특별시 중구 회현동2가 33,생활방범,1,200,회전형,30,2020-05,02-3396-4744,37.55820963,126.9833629,2020-06-25
"서울특별시 중구청",서울특별시 중구 소공로 30,서울특별시 중구 회현동2가 33,생활방범,1,200,고정형,30,2020-05,02-3396-4744,37.55820963,126.9833629,2020-06-25
"서울특별시 중구청",서울특별시 중구 소공로 30,서울특별시 중구 회현동2가 33,생활방범,1,200,고정형,30,2020-05,02-3396-4744,37.55820963,126.9833629,2020-06-25
"서울특별시 중구청",서울특별시 중구 퇴계로22길 17,서울특별시 중구 남산동2가 2,시설물관리,16,200,고정형,30,2017-01,02-3396-4744,37.55978501,126.9867761,2020-06-25
"서울특별시 중구청",서울특별시 중구 덕수궁길 140,서울특별시 중구 정동 1-76,시설물관리,16,130,고정형,30,2017-01,02-3396-4744,37.56908852,126.9746581,2020-06-25
"서울특별시 중구청",서울특별시 중구 매봉18길 109,서울특별시 중구 청구동 333-579,시설물관리,5,41,고정형,30,,02-3396-4744,37.5562058,127.0167272,2020-06-25
"서울특별시 중구청",서울특별시 중구 소공로 112(환구단1),서울특별시 중구 소공동 87-14,시설물관리,1,200,회전형,30,2013-02,02-3396-4744,37.56462407,126.9792234,2020-06-25
"서울특별시 중구청",서울특별시 중구 소공로 112(환구단2),서울특별시 중구 소공동 87-14,시설물관리,1,200,회전형,30,2013-02,02-3396-4744,37.56462407,126.9792234,2020-06-25
"서울특별시 중구청",서울특별시 중구 소공로 112(환구단3),서울특별시 중구 소공동 87-14,시설물관리,1,200,회전형,30,2013-02,02-3396-4744,37.56462407,126.9792234,2020-06-25
"서울특별시 중구청",서울특별시 중구 소공로 112(환구단4),서울특별시 중구 소공동 87-14,시설물관리,1,200,회전형,30,2013-02,02-3396-4744,37.56462407,126.9792234,2020-06-25
"서울특별시 중구청",서울특별시 중구 소공로 112(환구단 정문1),서울특별시 중구 소공동 87-14,시설물관리,1,200,회전형,30,2013-02,02-3396-4744,37.56462407,126.9792234,2020-06-25
"서울특별시 중구청",서울특별시 중구 소공로 112(환구단 정문2),서울특별시 중구 소공동 87-14,시설물관리,1,200,회전형,30,2013-02,02-3396-4744,37.56462407,126.9792234,2020-06-25
"서울특별시 중구청",서울특별시 중구 소공로 112(환구단 실내),서울특별시 중구 소공동 87-14,시설물관리,1,130,고정형,30,2013-02,02-3396-4744,37.56462407,126.9792234,2020-06-25
"서울특별시 중구청",서울특별시 중구 정동길 21-18 (구러시아공사관),서울특별시 중구 정동 15-3,시설물관리,1,200,회전형,30,2013-02,02-3396-4744,37.56773987,126.9713579,2020-06-25
"서울특별시 중구청",서울특별시 중구 정동길 21-18 (구러시아공사관),서울특별시 중구 정동 15-3,시설물관리,1,200,회전형,30,2013-02,02-3396-4744,37.56773987,126.9713579,2020-06-25
"서울특별시 중구청",서울특별시 중구 정동길 21-18 (구러시아공사관),서울특별시 중구 정동 15-3,시설물관리,1,200,회전형,30,2013-02,02-3396-4744,37.56773987,126.9713579,2020-06-25
"서울특별시 중구청",서울특별시 중구 정동길 21-18 (구러시아공사관),서울특별시 중구 정동 15-3,시설물관리,1,130,고정형,30,2013-02,02-3396-4744,37.56773987,126.9713579,2020-06-25
"서울특별시 중구청",서울특별시 중구 퇴계로68길 (광희문1),서울특별시 중구 광희동2가 105,시설물관리,1,200,회전형,30,2013-01,02-3396-4744,37.564182,127.009885,2020-06-25
"서울특별시 중구청",서울특별시 중구 퇴계로68길 (광희문2),서울특별시 중구 광희동2가 105,시설물관리,1,200,회전형,30,2013-01,02-3396-4744,37.564218,127.010137,2020-06-25
"서울특별시 중구청",서울특별시 중구 퇴계로68길 (광희문 실내),서울특별시 중구 광희동2가 105,시설물관리,1,130,고정형,30,2009-06,02-3396-4744,37.564341,127.009974,2020-06-25
"서울특별시 중구청",서울특별시 중구 퇴계로68길 (광희문 성벽1),서울특별시 중구 광희동2가 105,시설물관리,1,200,회전형,30,2013-01,02-3396-4744,37.564421,127.009847,2020-06-25
"서울특별시 중구청",서울특별시 중구 퇴계로68길 (광희문 성벽2),서울특별시 중구 광희동2가 105,시설물관리,1,200,회전형,30,2013-01,02-3396-4744,37.563271,127.010266,2020-06-25
"서울특별시 중구청",서울특별시 중구 퇴계로68길 (광희문 성벽3),서울특별시 중구 광희동2가 105,시설물관리,1,200,회전형,30,2013-01,02-3396-4744,37.563849,127.009909,2020-06-25
"서울특별시 중구청",서울특별시 중구 퇴계로68길 (광희문 성벽4),서울특별시 중구 광희동2가 105,시설물관리,1,200,회전형,30,2013-01,02-3396-4744,37.563851,127.010169,2020-06-25
"서울특별시 중구청",서울특별시 중구 퇴계로68길 (광희문 성벽5),서울특별시 중구 광희동2가 105,시설물관리,1,200,회전형,30,2013-01,02-3396-4744,37.563264,127.009807,2020-06-25
"서울특별시 중구청",서울특별시 중구 퇴계로68길 (광희문 뒷편1),서울특별시 중구 광희동2가 105,시설물관리,1,41,고정형,30,2009-06,02-3396-4744,37.563007,127.010196,2020-06-25
"서울특별시 중구청",서울특별시 중구 퇴계로68길 (광희문 뒷편2),서울특별시 중구 광희동2가 105,시설물관리,1,41,고정형,30,2009-06,02-3396-4744,37.562991,127.009965,2020-06-25
"서울특별시 중구청",서울특별시 중구 동호로 385-1(성제묘),서울특별시 중구 방산동 4-96,시설물관리,1,200,회전형,30,2013-02,02-3396-4744,37.568815,127.001822,2020-06-25
"서울특별시 중구청",서울특별시 중구 동호로 385-1(성제묘),서울특별시 중구 방산동 4-96,시설물관리,1,130,고정형,30,2013-02,02-3396-4744,37.56884615,127.0018066,2020-06-25
"서울특별시 중구청",서울특별시 중구 장충단로 60(서울성곽 팔각정1),서울특별시 중구 장충동2가 산5-5,시설물관리,1,41,회전형,30,2010-01,02-3396-4744,37.55006939,127.0004979,2020-06-25
"서울특별시 중구청",서울특별시 중구 장충단로 60(서울성곽 팔각정2),서울특별시 중구 장충동2가 산5-6,시설물관리,1,41,회전형,30,2010-01,02-3396-4744,37.55006939,127.0004979,2020-06-25
"서울특별시 중구청",서울특별시 중구 장충단로 60(서울성곽 토끼굴),서울특별시 중구 장충동2가 산5-5,시설물관리,1,200,고정형,30,2013-02,02-3396-4744,37.55006939,127.0004979,2020-06-25
"서울특별시 중구청",서울특별시 중구 세종대로 93(대한문 앞),서울특별시 중구 태평로2가 360-1,시설물관리,1,200,회전형,30,2018-02,02-3396-4744,37.56470287,126.9766291,2020-06-25
"서울특별시 중구청",서울특별시 중구 필동로 1길 30,서울특별시 중구 장충동2가 192-5,시설물관리,1,200,고정형,30,2012-12,02-3396-4744,37.55817835,126.9980035,2020-06-25
"서울특별시 중구청",서울특별시 중구 필동로 1길 30,서울특별시 중구 장충동2가 192-5,시설물관리,1,200,고정형,30,2012-12,02-3396-4744,37.55817835,126.9980035,2020-06-25
"서울특별시 중구청",서울특별시 중구 필동로 1길 30,서울특별시 중구 장충동2가 192-5,시설물관리,1,200,고정형,30,2012-12,02-3396-4744,37.55817835,126.9980035,2020-06-25
"서울특별시 중구청",서울특별시 중구 필동로 1길 30,서울특별시 중구 장충동2가 192-5,시설물관리,1,200,고정형,30,2012-12,02-3396-4744,37.55817835,126.9980035,2020-06-25
"서울특별시 중구청",서울특별시 중구 필동로 1길 30,서울특별시 중구 장충동2가 192-5,시설물관리,1,200,회전형,30,2012-12,02-3396-4744,37.55817835,126.9980035,2020-06-25
"서울특별시 중구청",서울특별시 중구 필동로 1길 30,서울특별시 중구 장충동2가 192-5,시설물관리,1,200,회전형,30,2012-12,02-3396-4744,37.55817835,126.9980035,2020-06-25
"서울특별시 중구청",서울특별시 중구 필동로 1길 30,서울특별시 중구 장충동2가 192-5,시설물관리,1,200,회전형,30,2012-12,02-3396-4744,37.55817835,126.9980035,2020-06-25
"서울특별시 중구청",서울특별시 중구 필동로 1길 30,서울특별시 중구 장충동2가 192-5,시설물관리,1,200,회전형,30,2012-12,02-3396-4744,37.55817835,126.9980035,2020-06-25
"서울특별시 중구청",서울특별시 중구 동호로30길 2 (장충동2가 ),서울특별시 중구 장충동2가 186-140,시설물관리,1,200,회전형,30,2012-12,02-3396-4744,37.560839,127.0031148,2020-06-25
"서울특별시 중구청",서울특별시 중구 동호로30길 2 (장충동2가 ),서울특별시 중구 장충동2가 186-140,시설물관리,1,200,회전형,30,2012-12,02-3396-4744,37.56089213,127.0031148,2020-06-25
"서울특별시 중구청",서울특별시 중구 동호로30길 2 (장충동2가 ),서울특별시 중구 장충동2가 186-140,시설물관리,1,200,고정형,30,2012-12,02-3396-4744,37.56089213,127.0031148,2020-06-25
"서울특별시 중구청",서울특별시 중구 서소문로11길 19,서울특별시 중구 정동 34-5,시설물관리,1,200,회전형,30,2012-12,02-3396-4744,37.56378648,126.9720883,2020-06-25
"서울특별시 중구청",서울특별시 중구 서소문로11길 19,서울특별시 중구 정동 34-5,시설물관리,1,200,회전형,30,2012-12,02-3396-4744,37.56378648,126.9720883,2020-06-25
"서울특별시 중구청",서울특별시 중구 서소문로11길 19,서울특별시 중구 정동 34-5,시설물관리,1,200,회전형,30,2012-12,02-3396-4744,37.56378648,126.9720883,2020-06-25
"서울특별시 중구청",서울특별시 중구 서소문로11길 19,서울특별시 중구 정동 34-5,시설물관리,1,200,고정형,30,2012-12,02-3396-4744,37.56378648,126.9720883,2020-06-25
"서울특별시 중구청",서울특별시 중구 세종대로 19길 16,서울특별시 중구 정동 3-7,시설물관리,1,41,고정형,30,2012-12,02-3396-4744,37.56672109,126.9765334,2020-06-25
"서울특별시 중구청",서울특별시 중구 세종대로 19길 16,서울특별시 중구 정동 3-7,시설물관리,1,41,고정형,30,2012-12,02-3396-4744,37.56672109,126.9765334,2020-06-25
"서울특별시 중구청",서울특별시 중구 세종대로 19길 16,서울특별시 중구 정동 3-7,시설물관리,1,41,고정형,30,2012-12,02-3396-4744,37.56672109,126.9765334,2020-06-25
"서울특별시 중구청",서울특별시 중구 세종대로 19길 16,서울특별시 중구 정동 3-7,시설물관리,1,41,고정형,30,2012-12,02-3396-4744,37.56672109,126.9765334,2020-06-25
"서울특별시 중구청",서울특별시 중구 세종대로 19길 16,서울특별시 중구 정동 3-7,시설물관리,1,41,고정형,30,2012-12,02-3396-4744,37.56672109,126.9765334,2020-06-25
"서울특별시 중구청",서울특별시 중구 남대문로 118 (남대문로1가 ),서울특별시 중구 남대문로1가 19,시설물관리,1,130,고정형,30,2012-12,02-3396-4744,37.5676989,126.983148,2020-06-25
"서울특별시 중구청",서울특별시 중구 남대문로 118 (남대문로1가 ),서울특별시 중구 남대문로1가 19,시설물관리,1,200,고정형,30,2012-12,02-3396-4744,37.5676989,126.983148,2020-06-25
"서울특별시 중구청",서울특별시 중구 덕수궁길 130,서울특별시 중구 정동 1-23,시설물관리,1,200,회전형,30,2012-12,02-3396-4744,37.56799636,126.9739567,2020-06-25
"서울특별시 중구청",서울특별시 중구 덕수궁길 130,서울특별시 중구 정동 1-23,시설물관리,1,200,회전형,30,2012-12,02-3396-4744,37.56799636,126.9739567,2020-06-25
"서울특별시 중구청",서울특별시 중구 덕수궁길 130,서울특별시 중구 정동 1-23,시설물관리,1,200,회전형,30,2012-12,02-3396-4744,37.56799636,126.9739567,2020-06-25
"서울특별시 중구청",서울특별시 중구 덕수궁길 130,서울특별시 중구 정동 1-23,시설물관리,1,200,회전형,30,2012-12,02-3396-4744,37.567934,126.973951,2020-06-25
"서울특별시 중구청",서울특별시 중구 청파로 447-1,서울특별시 중구 중림동 149-2,시설물관리,1,200,고정형,30,2012-12,02-3396-4744,37.55915782,126.9676308,2020-06-25
"서울특별시 중구청",서울특별시 중구 청파로 447-1,서울특별시 중구 중림동 149-2,시설물관리,1,200,고정형,30,2012-12,02-3396-4744,37.55915782,126.9676308,2020-06-25
"서울특별시 중구청",서울특별시 중구 청파로 447-1,서울특별시 중구 중림동 149-2,시설물관리,1,200,고정형,30,2012-12,02-3396-4744,37.55915782,126.9676308,2020-06-25
"서울특별시 중구청",서울특별시 중구 청파로 447-1,서울특별시 중구 중림동 149-2,시설물관리,1,200,고정형,30,2012-12,02-3396-4744,37.55915782,126.9676308,2020-06-25
"서울특별시 중구청",서울특별시 중구 청파로 447-1,서울특별시 중구 중림동 149-2,시설물관리,1,200,고정형,30,2012-12,02-3396-4744,37.55915782,126.9676308,2020-06-25
"서울특별시 중구청",서울특별시 중구 청파로 447-1,서울특별시 중구 중림동 149-2,시설물관리,1,200,회전형,30,2012-12,02-3396-4744,37.55915782,126.9676308,2020-06-25
"서울특별시 중구청",서울특별시 중구 청파로 447-1,서울특별시 중구 중림동 149-2,시설물관리,1,200,회전형,30,2012-12,02-3396-4744,37.55915782,126.9676308,2020-06-25
"서울특별시 중구청",서울특별시 중구 청파로 447-1,서울특별시 중구 중림동 149-2,시설물관리,1,200,회전형,30,2012-12,02-3396-4744,37.55915782,126.9676308,2020-06-25
"서울특별시 중구청",서울특별시 중구 청파로 447-1,서울특별시 중구 중림동 149-2,시설물관리,1,200,회전형,30,2012-12,02-3396-4744,37.55915782,126.9676308,2020-06-25
"서울특별시 중구청",서울특별시 중구 손기정로73,서울특별시 중구 만리동2가 2,시설물관리,16,200,고정형,30,2016-01,02-3396-4744,37.5564109,126.9652508,2020-06-25
"서울특별시 중구청",서울특별시 중구 소파로2길 10,서울특별시 중구 예장동 8-3,시설물관리,4,41,고정형,30,,02-3396-4744,37.55785335,126.9874826,2020-06-25
"서울특별시 중구청",서울특별시 중구 난계로 141,서울특별시 중구 신당동 161-2,시설물관리,10,130,고정형,30,,02-3396-4744,37.56362522,127.0236739,2020-06-25
"서울특별시 중구청",서울특별시 중구 남대문로1길 24 (북창동),서울특별시 중구 북창동 24-3,쓰레기단속,1,200,고정형,30,2017-09,02-3396-4744,37.56203972,126.977635,2020-06-25
"서울특별시 중구청",서울특별시 중구 동호로11아길 5,서울특별시 중구 신당동 432-556,쓰레기단속,1,200,고정형,30,2017-09,02-3396-4744,37.551702,127.005532,2020-06-25
"서울특별시 중구청",서울특별시 중구 퇴계로12길 62-5,서울특별시 중구 회현동1가 109,쓰레기단속,1,200,고정형,30,2017-09,02-3396-4744,37.55682899,126.9812763,2020-06-25
"서울특별시 중구청",서울특별시 중구 퇴계로6가길 14,서울특별시 중구 남창동 205-6,쓰레기단속,1,200,고정형,30,2017-09,02-3396-4744,37.5566267,126.9785284,2020-06-25
"서울특별시 중구청",서울특별시 중구 퇴계로6길 36 (남창동),서울특별시 중구 남창동 206-61,쓰레기단속,1,200,고정형,30,2017-09,02-3396-4744,37.55670605,126.9788996,2020-06-25
"서울특별시 중구청",서울특별시 중구 퇴계로8길 80 (회현동),서울특별시 중구 회현동 100-239,쓰레기단속,1,200,고정형,30,2017-09,02-3396-4744,37.556436,126.9803121,2020-06-25
"서울특별시 중구청",서울특별시 중구 퇴계로20나길 36-2 (남산동2가),서울특별시 중구 남산동2가 49-10,쓰레기단속,1,200,고정형,30,2017-09,02-3396-4744,37.55752871,126.9851014,2020-06-25
"서울특별시 중구청",서울특별시 중구 소공로6길 14,서울특별시 중구 회현동2가 32-2,쓰레기단속,1,200,고정형,30,2017-09,02-3396-4744,37.55846197,126.9837748,2020-06-25
"서울특별시 중구청",서울특별시 중구 퇴계로24길 14,서울특별시 중구 남산동3가 18-2,쓰레기단속,1,200,고정형,30,2017-09,02-3396-4744,37.56032926,126.9872377,2020-06-25
"서울특별시 중구청",서울특별시 중구 퇴계로20길 25-26,서울특별시 중구 남산동2가 18-5,쓰레기단속,1,200,고정형,30,2017-09,02-3396-4744,37.55898127,126.9863506,2020-06-25
"서울특별시 중구청",서울특별시 중구 수표로2길 13,서울특별시 중구 충무로3가 59-24,쓰레기단속,1,200,고정형,30,2017-09,02-3396-4744,37.56223613,126.991217,2020-06-25
"서울특별시 중구청",서울특별시 중구 퇴계로31길 10,서울특별시 중구 필동1가 43-3,쓰레기단속,1,200,고정형,30,2017-09,02-3396-4744,37.5616284,126.9924856,2020-06-25
"서울특별시 중구청",서울특별시 중구 필동로1길 31 (필동3가),서울특별시 중구 필동3가 28-32,쓰레기단속,1,200,고정형,30,2017-09,02-3396-4744,37.5587458,126.9978933,2020-06-25
"서울특별시 중구청",서울특별시 중구 퇴계로36가길 38 (필동2가),서울특별시 중구 필동2가 104-1,쓰레기단속,1,200,고정형,30,2017-09,02-3396-4744,37.55863598,126.9953144,2020-06-25
"서울특별시 중구청",서울특별시 중구 동호로30길 17 (장충동2가),서울특별시 중구 장충동2가 186-20,쓰레기단속,1,200,고정형,30,2017-09,02-3396-4744,37.56129214,127.0040655,2020-06-25
"서울특별시 중구청",서울특별시 중구 퇴계로50길 53 (묵정동),서울특별시 중구 묵정동 22-22,쓰레기단속,1,200,고정형,30,2017-09,02-3396-4744,37.56033715,127.0011363,2020-06-25
"서울특별시 중구청",서울특별시 중구 장충단로6가길 21-2 (장충동1가),서울특별시 중구 장충동1가 44-10,쓰레기단속,1,200,고정형,30,2017-09,02-3396-4744,37.56110091,127.0083709,2020-06-25
"서울특별시 중구청",서울특별시 중구 동호로28길 34 (장충동2가),서울특별시 중구 장충동2가 186-25,쓰레기단속,1,200,고정형,30,2017-09,02-3396-4744,37.56072272,127.0038391,2020-06-25
"서울특별시 중구청",서울특별시 중구 장충단로8가길 26 (광희동2가),서울특별시 중구 광희동2가 303-24,쓰레기단속,1,200,고정형,30,2017-09,02-3396-4744,37.56329938,127.0077645,2020-06-25
"서울특별시 중구청",서울특별시 중구 퇴계로41길 40 (인현동2가),서울특별시 중구 인현동2가 181-70,쓰레기단속,1,200,고정형,30,2017-09,02-3396-4744,37.56356627,126.9961834,2020-06-25
"서울특별시 중구청",서울특별시 중구 다산로42길 55 (신당5동),서울특별시 중구 신당5동 132-9,쓰레기단속,1,200,고정형,30,2017-09,02-3396-4744,37.56420601,127.0192453,2020-06-25
"서울특별시 중구청",서울특별시 중구 창경궁로1길 37 (충무로4가),서울특별시 중구 충무로4가 109-1,쓰레기단속,1,200,고정형,30,2017-09,02-3396-4744,37.5623622,126.9963779,2020-06-25
"서울특별시 중구청",서울특별시 중구 을지로39길 40 (을지로6가),서울특별시 중구 을지로6가 18-14,쓰레기단속,1,200,고정형,30,2017-09,02-3396-4744,37.56898658,127.0057955,2020-06-25
"서울특별시 중구청",서울특별시 중구 을지로 127 (을지로3가),서울특별시 중구 을지로3가 118-6,쓰레기단속,1,200,고정형,30,2017-09,02-3396-4744,37.5665862,126.9920631,2020-06-25
"서울특별시 중구청",서울특별시 중구 을지로27가길 10 (주교동),서울특별시 중구 주교동 273-5,쓰레기단속,1,200,고정형,30,2017-09,02-3396-4744,37.56778299,126.9997148,2020-06-25
"서울특별시 중구청",서울특별시 중구 마른내로4길 11,서울특별시 중구 인현동1가 114-2,쓰레기단속,1,200,고정형,30,2017-09,02-3396-4744,37.56374277,126.9939513,2020-06-25
"서울특별시 중구청",서울특별시 중구 다산로31길 16 (신당동),서울특별시 중구 신당동 304-362,쓰레기단속,1,200,고정형,30,2017-09,02-3396-4744,37.561814,127.0136453,2020-06-25
"서울특별시 중구청",서울특별시 중구 다산로39길 46,서울특별시 중구 신당동 248-34,쓰레기단속,1,200,고정형,30,2017-09,02-3396-4744,37.56473687,127.0133652,2020-06-25
"서울특별시 중구청",서울특별시 중구 퇴계로73가길 26 (신당동),서울특별시 중구 신당동 251-91,쓰레기단속,1,200,고정형,30,2017-09,02-3396-4744,37.56660372,127.0134832,2020-06-25
"서울특별시 중구청",서울특별시 중구 청구로8길 22 (신당동),서울특별시 중구 신당동 304-720,쓰레기단속,1,200,고정형,30,2017-09,02-3396-4744,37.56132385,127.0136996,2020-06-25
"서울특별시 중구청",서울특별시 중구 다산로35길 25-31,서울특별시 중구 신당동 241-25,쓰레기단속,1,200,고정형,30,2017-09,02-3396-4744,37.56320869,127.0141572,2020-06-25
"서울특별시 중구청",서울특별시 중구 다산로29길 45 (신당동),서울특별시 중구 신당동 305-26,쓰레기단속,1,200,고정형,30,2017-09,02-3396-4744,37.5617751,127.0116774,2020-06-25
"서울특별시 중구청",서울특별시 중구 동호로11다길 18 (신당동),서울특별시 중구 다산동 353-47,쓰레기단속,1,200,고정형,30,2017-09,02-3396-4744,37.55193965,127.0070707,2020-06-25
"서울특별시 중구청",서울특별시 중구 동호로11마길 20-4 (신당동),서울특별시 중구 다산동 432-503,쓰레기단속,1,200,고정형,30,2017-09,02-3396-4744,37.5512117,127.0060431,2020-06-25
"서울특별시 중구청",서울특별시 중구 동호로14길 42 (신당동),서울특별시 중구 다산동 417-10,쓰레기단속,1,200,고정형,30,2017-09,02-3396-4744,37.5571436,127.0099776,2020-06-25
"서울특별시 중구청",서울특별시 중구 동호로11길 98 (신당동),서울특별시 중구 다산동 353-26,쓰레기단속,1,200,고정형,30,2017-09,02-3396-4744,37.55139184,127.007147,2020-06-25
"서울특별시 중구청",서울특별시 중구 동호로15가길 14 (신당동),서울특별시 중구 다산동 429-17,쓰레기단속,1,200,고정형,30,2017-09,02-3396-4744,37.55563729,127.0078724,2020-06-25
"서울특별시 중구청",서울특별시 중구 동호로12길 29 (신당동),서울특별시 중구 신당동 381-27,쓰레기단속,1,200,고정형,30,2017-09,02-3396-4744,37.55652723,127.0110187,2020-06-25
"서울특별시 중구청",서울특별시 중구 다산로8길 16-14 (신당동),서울특별시 중구 약수동 366-72,쓰레기단속,1,200,고정형,30,2017-09,02-3396-4744,37.5522139,127.010174,2020-06-25
"서울특별시 중구청",서울특별시 중구 동호로8나길 69 (약수동),서울특별시 중구 약수동 309-216,쓰레기단속,1,200,고정형,30,2017-09,02-3396-4744,37.5525632,127.014355,2020-06-25
"서울특별시 중구청","서울특별시 중구 청구로1길 39 (신당동, 청구아파트)",서울특별시 중구 청구동 841,쓰레기단속,1,200,고정형,30,2017-09,02-3396-4744,37.55783848,127.0162024,2020-06-25
"서울특별시 중구청",서울특별시 중구 청구로3길 80 (신당동),서울특별시 중구 청구동 340-15,쓰레기단속,1,200,고정형,30,2017-09,02-3396-4744,37.55622419,127.0138435,2020-06-25
"서울특별시 중구청",서울특별시 중구 다산로44길 22-3,서울특별시 중구 신당동 121-19,쓰레기단속,1,200,고정형,30,2017-09,02-3396-4744,37.564835,127.018209,2020-06-25
"서울특별시 중구청",서울특별시 중구 퇴계로88나길 23 (신당동),서울특별시 중구 신당동 67-32,쓰레기단속,1,200,고정형,30,2017-09,02-3396-4744,37.56254457,127.020767,2020-06-25
"서울특별시 중구청",서울특별시 중구 퇴계로90길 42 (신당동),서울특별시 중구 신당5동 155-10,쓰레기단속,1,200,고정형,30,2017-09,02-3396-4744,37.56343821,127.0216365,2020-06-25
"서울특별시 중구청",서울특별시 중구 퇴계로88가길 48-11(신당5동),서울특별시 중구 신당5동 166-5,쓰레기단속,1,200,고정형,30,2017-09,02-3396-4744,37.56260904,127.0229492,2020-06-25
"서울특별시 중구청",서울특별시 중구 퇴계로88다길 26 (신당동),서울특별시 중구 동화동 52-80,쓰레기단속,1,200,고정형,30,2017-09,02-3396-4744,37.56227441,127.0200109,2020-06-25
"서울특별시 중구청",서울특별시 중구 다산로38길 60 (신당동),서울특별시 중구 동화동 52-33,쓰레기단속,1,200,고정형,30,2017-09,02-3396-4744,37.56216287,127.018879,2020-06-25
"서울특별시 중구청",서울특별시 중구 다산로36가길 32 (신당동),서울특별시 중구 동화동 62-61,쓰레기단속,1,200,고정형,30,2017-09,02-3396-4744,37.56131568,127.0203773,2020-06-25
"서울특별시 중구청",서울특별시 중구 다산로36나길 14 (신당동),서울특별시 중구 동화동 55-29,쓰레기단속,1,200,고정형,30,2017-09,02-3396-4744,37.56061299,127.0198701,2020-06-25
"서울특별시 중구청",서울특별시 중구 퇴계로83길 30-11 (황학동),서울특별시 중구 황학동 340,쓰레기단속,1,200,고정형,30,2017-09,02-3396-4744,37.56713635,127.0190116,2020-06-25
"서울특별시 중구청",서울특별시 중구 퇴계로 431 (황학동),서울특별시 중구 황학동 729,쓰레기단속,1,200,고정형,30,2017-09,02-3396-4744,37.56585685,127.0195138,2020-06-25
"서울특별시 중구청",서울특별시 중구 마장로 90 (황학동),서울특별시 중구 황학동 507,쓰레기단속,1,200,고정형,30,2017-09,02-3396-4744,37.56821021,127.0197408,2020-06-25
"서울특별시 중구청",서울특별시 중구 중림로4길 8 (중림동),서울특별시 중구 중림동 397-9,쓰레기단속,1,200,고정형,30,2017-09,02-3396-4744,37.55876758,126.964127,2020-06-25
"서울특별시 중구청",서울특별시 중구 서소문로2길 25 (중림동),서울특별시 중구 중림동 395-10,쓰레기단속,1,200,고정형,30,2017-09,02-3396-4744,37.5580259,126.9631641,2020-06-25
"서울특별시 중구청",서울특별시 중구 서소문로6길 16,서울특별시 중구 중림동 155-1,쓰레기단속,1,200,고정형,30,2017-09,02-3396-4744,37.55943134,126.966259,2020-06-25
"서울특별시 중구청",서울특별시 중구 손기정로1길 50 (중림동),서울특별시 중구 중림동 400-15,쓰레기단속,1,200,고정형,30,2017-09,02-3396-4744,37.55894733,126.9626737,2020-06-25
"서울특별시 중구청",서울특별시 중구 다산로8길 11,서울특별시 중구 신당동 368-74,쓰레기단속,1,200,고정형,30,2017-09,02-3396-4744,37.55297016,127.0102305,2020-06-25
"서울특별시 중구청",서울특별시 중구 청구로1길 82 (신당동),서울특별시 중구 청구동 333-504,쓰레기단속,1,200,고정형,30,2017-09,02-3396-4744,37.55619881,127.0151382,2020-06-25
"서울특별시 중구청","서울특별시 중구 난계로17길 30 (황학동, 엠피에스산업)",서울특별시 중구 황학동 1540,쓰레기단속,1,200,고정형,30,2017-09,02-3396-4744,37.56953253,127.0217334,2020-06-25
"서울특별시 중구청",서울특별시 중구 을지로7가 54,서울특별시 중구 을지로 282-6,쓰레기단속,1,200,고정,30,2019-01,02-3396-4744,37.5652503,127.0092926,2020-06-25
"서울특별시 중구청",서울특별시 중구 퇴계로56길 10-6,서울특별시 중구 쌍림동 225,쓰레기단속,1,200,고정,30,2019-01,02-3396-4744,37.56331032,127.0054148,2020-06-25
"서울특별시 중구청",서울특별시 중구 청구로17길 40,서울특별시 중구 다산동 386,시설물관리,32,200,고정형,30,,02-3396-4744,37.55997257,127.0117028,2020-06-25
"서울특별시 중구청",서울특별시 중구 퇴계로34길 28,서울특별시 중구 필동2가 84-1,재난재해,2,200,회전형,30,2019-06,02-3396-4744,37.55954776,126.9946806,2020-06-25
"서울특별시 중구청",서울특별시 중구 필동로6길 40,서울특별시 중구 필동2가 134-28,재난재해,2,200,회전형,30,2019-06,02-3396-4744,37.55409133,126.9949299,2020-06-25
"서울특별시 중구청",서울특별시 중구 장충단로 101,서울특별시 중구 장충동2가 산7-21,재난재해,2,200,회전형,30,2019-06,02-3396-4744,37.5548879,127.0023811,2020-06-25
"서울특별시 중구청",서울특별시 중구 장충단로 59 옆,서울특별시 중구 장충동2가 산14-21,재난재해,2,200,회전형,30,2019-06,02-3396-4744,37.5512305,126.9966176,2020-06-25
"서울특별시 중구청",서울특별시 중구 소파로2길 10,서울특별시 중구 예장동 8-3,재난재해,2,200,회전형,30,2019-06,02-3396-4744,37.55785335,126.9874826,2020-06-25
"서울특별시 중구청",서울특별시 중구 삼일대로 298 (충무로2가),서울특별시 중구 충무로2가 53-8,생활방범,4,200,회전형,30,2017-09,02-3396-4744,37.5614467,126.989302,2020-06-25
"서울특별시 중구청",서울특별시 중구 충무로 13 (충무로3가),서울특별시 중구 충무로3가 50-2,생활방범,3,200,회전형,30,2017-09,02-3396-4744,37.56224704,126.992634,2020-06-25
"서울특별시 중구청",서울특별시 중구 퇴계로 212 (필동2가),서울특별시 중구 필동2가 19-1,생활방범,4,200,회전형,30,2014-11,02-3396-4744,37.56107588,126.995346,2020-06-25
"서울특별시 중구청",서울특별시 중구 퇴계로36나길 32 (필동2가),서울특별시 중구 필동2가 84-32,생활방범,3,200,회전형,30,2015-12,02-3396-4744,37.55661755,126.9935176,2020-06-25
"서울특별시 중구청",서울특별시 중구 필동로 42 (필동2가),서울특별시 중구 필동2가 112-1,생활방범,4,200,회전형,30,2015-12,02-3396-4744,37.55788637,126.9958034,2020-06-25
"서울특별시 중구청",서울특별시 중구 필동로6길 10 (필동2가),서울특별시 중구 필동2가 134-5,생활방범,4,200,회전형,30,2015-12,02-3396-4744,37.55519778,126.9955365,2020-06-25
"서울특별시 중구청",서울특별시 중구 서애로 12-1 (필동3가),서울특별시 중구 필동3가 17-1,생활방범,1,200,회전형,30,2011-09,02-3396-4744,37.56117687,126.9979175,2020-06-25
"서울특별시 중구청",서울특별시 중구 서애로 15-10 (필동3가),서울특별시 중구 필동3가 20-17,생활방범,2,200,회전형,30,2012-06,02-3396-4744,37.56056059,126.9980895,2020-06-25
"서울특별시 중구청",서울특별시 중구 서애로5길 26 (필동3가),서울특별시 중구 필동3가 28-25,생활방범,2,200,회전형,30,2016-12,02-3396-4744,37.55897122,126.9973878,2020-06-25
"서울특별시 중구청",서울특별시 중구 필동로 55,서울특별시 중구 필동3가 62-12,생활방범,3,200,회전형,30,2016-12,02-3396-4744,37.55659975,126.9958714,2020-06-25
"서울특별시 중구청",서울특별시 중구 필동로1길 18 (필동3가),서울특별시 중구 필동3가 39-15,생활방범,4,200,회전형,30,2012-06,02-3396-4744,37.55844142,126.997071,2020-06-25
"서울특별시 중구청",서울특별시 중구 서애로 26 (필동3가),서울특별시 중구 필동3가 1-5,생활방범,5,200,회전형,30,2015-12,02-3396-4744,37.56039478,126.997003,2020-06-25
"서울특별시 중구청",서울특별시 중구 필동로8길 50 (예장동),서울특별시 중구 예장동 1-149,생활방범,3,200,회전형,30,2018-10,02-3396-4744,37.55588607,126.993875,2020-06-25
"서울특별시 중구청",서울특별시 중구 소파로4길 32 (예장동),서울특별시 중구 예장동 6-47,생활방범,2,200,회전형,30,2016-12,02-3396-4744,37.55846974,126.9885826,2020-06-25
"서울특별시 중구청",서울특별시 중구 삼일대로2길 70 (주자동),서울특별시 중구 주자동 49-16,생활방범,3,200,회전형,30,2015-12,02-3396-4744,37.56041243,126.990194,2020-06-25
"서울특별시 중구청",서울특별시 중구 필동로 96 (장충동2가),서울특별시 중구 장충동2가 192-45,생활방범,1,200,회전형,30,2017-09,02-3396-4744,37.55334898,126.9968086,2020-06-25
"서울특별시 중구청",서울특별시 중구 퇴계로27길 12-3 (필동1가),서울특별시 중구 필동1가 3-17,생활방범,3,200,회전형,30,2013-02,02-3396-4744,37.56179649,126.9918191,2020-06-25
"서울특별시 중구청",서울특별시 중구 퇴계로 210-19 (필동2가),서울특별시 중구 필동2가 18-5,생활방범,4,200,회전형,30,2013-02,02-3396-4744,37.56075153,126.9954456,2020-06-25
"서울특별시 중구청",서울특별시 중구 서애로3길19,서울특별시 중구 필동3가25-1,생활방범,4,200,회전형,30,2015-12,02-3396-4744,37.55989024,126.9979311,2020-06-25
"서울특별시 중구청",서울특별시 중구 서애로3길40,서울특별시 중구 장충동2가192-112,생활방범,4,200,회전형,30,2015-12,02-3396-4744,37.558967,126.9983381,2020-06-25
"서울특별시 중구청",서울특별시 중구 퇴계로44길17,서울특별시 중구 필동3가10-1,생활방범,4,200,회전형,30,2015-12,02-3396-4744,37.561128,126.997252,2020-06-25
"서울특별시 중구청",서울특별시 중구 을지로38길 32 (을지로5가),서울특별시 중구 을지로5가 148-2,생활방범,4,200,회전형,30,2012-06,02-3396-4744,37.56536107,127.0031829,2020-06-25
"서울특별시 중구청",서울특별시 중구 장충단로13길 20 (을지로6가),서울특별시 중구 을지로6가 17-2,생활방범,3,200,회전형,30,2016-12,02-3396-4744,37.56873419,127.0076655,2020-06-25
"서울특별시 중구청",서울특별시 중구 장충단로 275 (을지로6가),서울특별시 중구 을지로6가 18-12,생활방범,3,200,회전형,30,2016-12,02-3396-4744,37.56888548,127.0087748,2020-06-25
"서울특별시 중구청",서울특별시 중구 장충단로 263 (을지로6가),서울특별시 중구 을지로6가 18-17,생활방범,3,200,회전형,30,2016-12,02-3396-4744,37.56811425,127.0084713,2020-06-25
"서울특별시 중구청",서울특별시 중구 장충단로 253 (을지로6가),서울특별시 중구 을지로6가 18-35,생활방범,2,200,회전형,30,2014-11,02-3396-4744,37.56748719,127.0080774,2020-06-25
"서울특별시 중구청",서울특별시 중구 을지로43길 15 (을지로6가),서울특별시 중구 을지로6가 18-52,생활방범,3,200,회전형,30,2018-10,02-3396-4744,37.56698631,127.0068458,2020-06-25
"서울특별시 중구청",서울특별시 중구 을지로42길 10-4 (을지로6가),서울특별시 중구 을지로6가 34-6,생활방범,3,200,회전형,30,2016-12,02-3396-4744,37.56588716,127.0055599,2020-06-25
"서울특별시 중구청",서울특별시 중구 퇴계로63길 22-23,서울특별시 중구 을지로7가 45,생활방범,3,200,회전형,30,2017-09,02-3396-4744,37.56488144,127.0090414,2020-06-25
"서울특별시 중구청",서울특별시 중구 퇴계로 325-12 (광희동2가),서울특별시 중구 을지로7가 128,생활방범,3,200,회전형,30,2016-12,02-3396-4744,37.56486348,127.0081223,2020-06-25
"서울특별시 중구청",서울특별시 중구 동호로34길 27 (광희동1가),서울특별시 중구 광희동1가 11번지,생활방범,4,200,회전형,30,2017-09,02-3396-4744,37.56510516,127.0040114,2020-06-25
"서울특별시 중구청",서울특별시 중구 퇴계로53길 16-13 (쌍림동),서울특별시 중구 쌍림동 22-6,생활방범,4,200,회전형,30,2017-09,02-3396-4744,37.56449967,127.0046361,2020-06-25
"서울특별시 중구청",서울특별시 중구 을지로40길 21-38 (광희동1가),서울특별시 중구 광희동1가 112-3,생활방범,4,200,회전형,30,2014-11,02-3396-4744,37.56539342,127.0055236,2020-06-25
"서울특별시 중구청",서울특별시 중구 을지로 264 (광희동1가),서울특별시 중구 광희동1가 182-1,생활방범,3,200,회전형,30,2014-11,02-3396-4744,37.56574292,127.007063,2020-06-25
"서울특별시 중구청",서울특별시 중구 마른내로 162 (광희동1가),서울특별시 중구 광희동1가 207-2,생활방범,4,200,회전형,30,2018-10,02-3396-4744,37.5645753,127.0059174,2020-06-25
"서울특별시 중구청",서울특별시 중구 마른내로 112 (오장동),서울특별시 중구 오장동 90-1,생활방범,4,200,회전형,30,2016-12,02-3396-4744,37.56434119,127.0003441,2020-06-25
"서울특별시 중구청",서울특별시 중구 을지로36길 12 (을지로5가),서울특별시 중구 을지로5가 272-17,생활방범,4,200,회전형,30,2017-09,02-3396-4744,37.566172,127.0012632,2020-06-25
"서울특별시 중구청",서울특별시 중구 동호로37길 31 (주교동),서울특별시 중구 주교동 19-12,생활방범,1,200,회전형,30,2017-09,02-3396-4744,37.5683344,127.0001494,2020-06-25
"서울특별시 중구청",서울특별시 중구 을지로27길 11 (주교동),서울특별시 중구 주교동 213,생활방범,3,200,회전형,30,2015-12,02-3396-4744,37.56736853,126.9990175,2020-06-25
"서울특별시 중구청",서울특별시 중구 을지로27길 20 (주교동),서울특별시 중구 주교동 236,생활방범,2,200,회전형,30,2016-05,02-3396-4744,37.56769649,126.999176,2020-06-25
"서울특별시 중구청",서울특별시 중구 을지로35길 25 (주교동),서울특별시 중구 주교동 315-4,생활방범,1,200,회전형,30,2017-09,02-3396-4744,37.56801364,127.0010776,2020-06-25
"서울특별시 중구청",서울특별시 중구 퇴계로51길 3 (충무로5가),서울특별시 중구 충무로5가 9-8,생활방범,4,200,회전형,30,2012-06,02-3396-4744,37.56328521,127.0016842,2020-06-25
"서울특별시 중구청",서울특별시 중구 퇴계로49길 35 (충무로5가),서울특별시 중구 충무로5가 19-1,생활방범,4,200,회전형,30,2016-12,02-3396-4744,37.56298969,126.9989949,2020-06-25
"서울특별시 중구청",서울특별시 중구 퇴계로45길 22-24 (충무로5가),서울특별시 중구 충무로5가 36-1,생활방범,4,200,회전형,30,2016-12,02-3396-4744,37.56356633,127.0004256,2020-06-25
"서울특별시 중구청",서울특별시 중구 마른내로12길 17-19,서울특별시 중구 충무로5가 22-3,생활방범,1,200,고정형,30,2018-10,02-3396-4744,37.56384743,127.0011998,2020-06-25
"서울특별시 중구청",서울특별시 중구 을지로30길 36 (예관동),서울특별시 중구 예관동 1-4,생활방범,3,200,회전형,30,2018-10,02-3396-4744,37.56557096,126.9989893,2020-06-25
"서울특별시 중구청",서울특별시 중구 퇴계로 265,서울특별시 중구 충무로5가8-8,생활방범,1,200,고정형,30,2015-11,02-3396-4744,37.56307618,127.0011726,2020-06-25
"서울특별시 중구청",서울특별시 중구 퇴계로 265,서울특별시 중구 충무로5가8-8,생활방범,1,200,고정형,30,2015-11,02-3396-4744,37.56307618,127.0011726,2020-06-25
"서울특별시 중구청",서울특별시 중구 마장로1길 25 (신당동),서울특별시 중구 신당동 213-44,생활방범,4,200,회전형,30,2014-11,02-3396-4744,37.56918074,127.0118854,2020-06-25
"서울특별시 중구청",서울특별시 중구 청계천로 318 (신당동),서울특별시 중구 신당동 217-95,생활방범,3,200,회전형,30,2016-12,02-3396-4744,37.56935713,127.0137916,2020-06-25
"서울특별시 중구청",서울특별시 중구 퇴계로 350 (신당동),서울특별시 중구 신당동 228-17,생활방범,1,200,회전형,30,2014-11,02-3396-4744,37.56444163,127.0104585,2020-06-25
"서울특별시 중구청",서울특별시 중구 청구로24길 15-1 (신당동),서울특별시 중구 신당동 231-8,생활방범,2,200,회전형,30,2018-10,02-3396-4744,37.56370425,127.0109546,2020-06-25
"서울특별시 중구청",서울특별시 중구 다산로39길 55 (신당동),서울특별시 중구 신당동 233-2,생활방범,3,200,회전형,30,2017-09,02-3396-4744,37.56457835,127.0128807,2020-06-25
"서울특별시 중구청",서울특별시 중구 다산로31길 50 (신당동),서울특별시 중구 신당동 236-10,생활방범,4,200,회전형,30,2017-09,02-3396-4744,37.56266112,127.0120111,2020-06-25
"서울특별시 중구청",서울특별시 중구 다산로29길 63 (신당동),서울특별시 중구 신당동 236-81,생활방범,1,200,회전형,30,2017-09,02-3396-4744,37.56205216,127.0108565,2020-06-25
"서울특별시 중구청",서울특별시 중구 퇴계로70길 5 (신당동),서울특별시 중구 신당동 236-123,생활방범,3,200,회전형,30,2017-09,02-3396-4744,37.56443073,127.0114047,2020-06-25
"서울특별시 중구청",서울특별시 중구 다산로33길 74-22,서울특별시 중구 신당동 236-150,생활방범,2,200,고정형,30,2018-10,02-3396-4744,37.56416043,127.0114545,2020-06-25
"서울특별시 중구청",서울특별시 중구 다산로33가길 17 (신당동),서울특별시 중구 신당동 241-26,생활방범,4,200,회전형,30,2014-11,02-3396-4744,37.5631438,127.0142658,2020-06-25
"서울특별시 중구청",서울특별시 중구 퇴계로 381-1 (신당동),서울특별시 중구 신당동 249-69,생활방범,1,200,회전형,30,2014-11,02-3396-4744,37.565281,127.0139991,2020-06-25
"서울특별시 중구청",서울특별시 중구 퇴계로73길 43 (신당동),서울특별시 중구 신당동 251-153,생활방범,4,200,회전형,30,2014-11,02-3396-4744,37.56710104,127.013755,2020-06-25
"서울특별시 중구청",서울특별시 중구 다산로33다길 3 (신당동),서울특별시 중구 신당동 304-93,생활방범,4,200,회전형,30,2015-12,02-3396-4744,37.56291326,127.0132471,2020-06-25
"서울특별시 중구청",서울특별시 중구 다산로33라길 6 (신당동),서울특별시 중구 신당동 304-286,생활방범,1,200,회전형,30,2016-12,02-3396-4744,37.56346108,127.0131703,2020-06-25
"서울특별시 중구청",서울특별시 중구 청구로12길 32 (신당동),서울특별시 중구 신당동 304-370,생활방범,4,200,회전형,30,2016-12,02-3396-4744,37.56200866,127.0132787,2020-06-25
"서울특별시 중구청",서울특별시 중구 청구로22길 22 (신당동),서울특별시 중구 신당동 304-610,생활방범,2,200,회전형,30,2016-12,02-3396-4744,37.56310449,127.0111917,2020-06-25
"서울특별시 중구청",서울특별시 중구 다산로29길 9 (신당동),서울특별시 중구 신당동 304-693,생활방범,4,200,회전형,30,2015-12,02-3396-4744,37.56086257,127.0134595,2020-06-25
"서울특별시 중구청",서울특별시 중구 청구로 98 (신당동),서울특별시 중구 신당동 387-45,생활방범,4,200,회전형,30,2017-09,02-3396-4744,37.56112585,127.0117121,2020-06-25
"서울특별시 중구청",서울특별시 중구 퇴계로76길 39 (무학동),서울특별시 중구 무학동 27,생활방범,4,200,회전형,30,2018-02,02-3396-4744,37.56349327,127.0152302,2020-06-25
"서울특별시 중구청",서울특별시 중구 퇴계로 394 (무학동),서울특별시 중구 무학동 43,생활방범,4,200,회전형,30,2016-12,02-3396-4744,37.56486637,127.0153799,2020-06-25
"서울특별시 중구청",서울특별시 중구 다산로48길 13 (흥인동),서울특별시 중구 흥인동 12-20,생활방범,1,200,회전형,30,2016-12,02-3396-4744,37.56734929,127.0169561,2020-06-25
"서울특별시 중구청",서울특별시 중구 다산로 265 (흥인동),서울특별시 중구 흥인동 156,생활방범,3,200,회전형,30,2014-11,02-3396-4744,37.56666829,127.0158648,2020-06-25
"서울특별시 중구청",서울특별시 중구 다산로 269,서울특별시 중구 신당동 254-16,생활방범,2,200,고정형,30,2018-02,02-3396-4744,37.56729901,127.0156883,2020-06-25
"서울특별시 중구청",서울특별시 중구 마장로9길 49-19 (황학동),서울특별시 중구 황학동 163-13,생활방범,4,200,회전형,30,2017-09,02-3396-4744,37.57013856,127.0184101,2020-06-25
"서울특별시 중구청",서울특별시 중구 퇴계로83길 22 (황학동),서울특별시 중구 황학동 371-1,생활방범,3,200,회전형,30,2011-09,02-3396-4744,37.56664987,127.0186447,2020-06-25
"서울특별시 중구청",서울특별시 중구 퇴계로87길 43 (황학동),서울특별시 중구 황학동 551-1,생활방범,4,200,회전형,30,2012-06,02-3396-4744,37.56753542,127.0209512,2020-06-25
"서울특별시 중구청",서울특별시 중구 퇴계로87길 22 (황학동),서울특별시 중구 황학동 669,생활방범,4,200,회전형,30,2017-09,02-3396-4744,37.56649808,127.0211394,2020-06-25
"서울특별시 중구청",서울특별시 중구 퇴계로 439 (황학동),서울특별시 중구 황학동 715,생활방범,3,200,회전형,30,2014-11,02-3396-4744,37.56596841,127.0204601,2020-06-25
"서울특별시 중구청",서울특별시 중구 퇴계로83길 5 (황학동),서울특별시 중구 황학동 740,생활방범,3,200,회전형,30,2016-12,02-3396-4744,37.56597235,127.0184725,2020-06-25
"서울특별시 중구청",서울특별시 중구 마장로 72 (흥인동),서울특별시 중구 흥인동 2-1,생활방범,4,200,회전형,30,2014-11,02-3396-4744,37.56807358,127.0177622,2020-06-25
"서울특별시 중구청",서울특별시 중구 마장로 76 (흥인동),서울특별시 중구 황학동 155,생활방범,1,200,고정형,30,2018-10,02-3396-4744,37.56811676,127.0181832,2020-06-25
"서울특별시 중구청",서울특별시 중구 난계로11길 8 (황학동),서울특별시 중구 황학동 811,생활방범,3,200,회전형,30,2017-09,02-3396-4744,37.56597154,127.0230408,2020-06-25
"서울특별시 중구청",서울특별시 중구 난계로13길 22 (황학동),서울특별시 중구 황학동 973,생활방범,4,200,회전형,30,2017-09,02-3396-4744,37.5674493,127.0224029,2020-06-25
"서울특별시 중구청",서울특별시 중구 마장로 89 (황학동),서울특별시 중구 황학동 1205,생활방범,4,200,회전형,30,2014-11,02-3396-4744,37.56848771,127.0198178,2020-06-25
"서울특별시 중구청",서울특별시 중구 마장로15길 16 (황학동),서울특별시 중구 황학동 1459,생활방범,4,200,회전형,30,2014-11,02-3396-4744,37.56879365,127.0220275,2020-06-25
"서울특별시 중구청",서울특별시 중구 난계로21길 33 (황학동),서울특별시 중구 황학동 1523,생활방범,4,200,회전형,30,2012-06,02-3396-4744,37.57013801,127.0216249,2020-06-25
"서울특별시 중구청",서울특별시 중구 난계로17길 40 (황학동),서울특별시 중구 황학동 1749,생활방범,4,200,회전형,30,2018-06,02-3396-4744,37.56962994,127.0211629,2020-06-25
"서울특별시 중구청",서울특별시 중구 난계로17길 65 (황학동),서울특별시 중구 황학동 2070,생활방범,3,200,회전형,30,2017-09,02-3396-4744,37.56971308,127.0197231,2020-06-25
"서울특별시 중구청",서울특별시 중구 퇴계로 453 (황학동),서울특별시 중구 황학동 2475,생활방범,1,200,회전형,30,2017-09,02-3396-4744,37.56561492,127.0221488,2020-06-25
"서울특별시 중구청",서울특별시 중구 장충단로10길 38 (광희동2가),서울특별시 중구 광희동2가 213-1,생활방범,3,200,회전형,30,2017-09,02-3396-4744,37.56338533,127.0090639,2020-06-25
"서울특별시 중구청",서울특별시 중구 장충단로10길 11 (광희동2가),서울특별시 중구 광희동2가 303-42,생활방범,3,200,회전형,30,2016-05,02-3396-4744,37.56343634,127.0075608,2020-06-25
"서울특별시 중구청",서울특별시 중구 퇴계로76길 68,서울특별시 중구 신당동 304-697,어린이보호,4,200,회전형,30,2018-10,02-3396-4744,37.562305,127.014305,2020-06-25
"서울특별시 중구청",서울특별시 중구 장충단로8길 65 (신당동),서울특별시 중구 신당동 393-3,생활방범,1,200,회전형,30,2013-02,02-3396-4744,37.56215673,127.0101367,2020-06-25
"서울특별시 중구청",서울특별시 중구 퇴계로336-7,서울특별시 중구 광희동2가188,생활방범,4,200,회전형,30,2015-12,02-3396-4744,37.56402369,127.0090323,2020-06-25
"서울특별시 중구청",서울특별시 중구 퇴계로83길40-10,서울특별시 중구 황학동220,생활방범,5,200,회전형,30,2015-12,02-3396-4744,37.56747515,127.0188396,2020-06-25
"서울특별시 중구청",서울특별시 중구 동호로11길 54 (신당동),서울특별시 중구 다산동 353-3,생활방범,1,200,회전형,30,2014-11,02-3396-4744,37.55303877,127.0085104,2020-06-25
"서울특별시 중구청",서울특별시 중구 동호로11길 88-2 (신당동),서울특별시 중구 다산동 353-33,생활방범,2,200,회전형,30,2017-04,02-3396-4744,37.55179547,127.0073469,2020-06-25
"서울특별시 중구청",서울특별시 중구 동호로11나길 7 (신당동),서울특별시 중구 다산동 353-37,생활방범,1,200,회전형,30,2013-02,02-3396-4744,37.55249822,127.0077951,2020-06-25
"서울특별시 중구청",서울특별시 중구 동호로11길 22 (신당동),서울특별시 중구 다산동 361-18,생활방범,1,200,회전형,30,2015-12,02-3396-4744,37.55436136,127.0095245,2020-06-25
"서울특별시 중구청",서울특별시 중구 다산로 141 (신당동),서울특별시 중구 다산동 370-61,생활방범,4,200,회전형,30,2012-06,02-3396-4744,37.5564371,127.011313,2020-06-25
"서울특별시 중구청",서울특별시 중구 다산로21길 24 (신당동),서울특별시 중구 다산동 377-103,생활방범,1,200,회전형,30,2016-12,02-3396-4744,37.55833281,127.0111684,2020-06-25
"서울특별시 중구청",서울특별시 중구 다산로15길 19 (신당동),서울특별시 중구 다산동 377-127,생활방범,1,200,회전형,30,2015-12,02-3396-4744,37.55708948,127.0106838,2020-06-25
"서울특별시 중구청",서울특별시 중구 청구로17길 40 (신당동),서울특별시 중구 다산동 386-86,생활방범,3,200,회전형,30,2014-11,02-3396-4744,37.55997257,127.0117028,2020-06-25
"서울특별시 중구청",서울특별시 중구 청구로17길 28-29,서울특별시 중구 신당동 386-58,생활방범,3,200,고정형,30,2018-10,02-3396-4744,37.5596842,127.0122053,2020-06-25
"서울특별시 중구청",서울특별시 중구 동호로20길 85 (신당동),서울특별시 중구 다산동 399-33,생활방범,3,200,고정형,30,2020-02,02-3396-4744,37.5616378,127.0096432,2020-06-25
"서울특별시 중구청",서울특별시 중구 청구로17길 20 (신당동),서울특별시 중구 다산동 402-16,생활방범,1,200,회전형,30,2016-12,02-3396-4744,37.56034018,127.0116757,2020-06-25
"서울특별시 중구청",서울특별시 중구 동호로20길 34-29 (신당동),서울특별시 중구 다산동 405-1,생활방범,1,200,회전형,30,2016-12,02-3396-4744,37.56019616,127.0102632,2020-06-25
"서울특별시 중구청",서울특별시 중구 동호로20길 36 (신당동),서울특별시 중구 다산동 405-16,생활방범,1,200,회전형,30,2016-12,02-3396-4744,37.55954031,127.0092581,2020-06-25
"서울특별시 중구청",서울특별시 중구 동호로20길 34-10 (신당동),서울특별시 중구 다산동 406-2,생활방범,1,200,회전형,30,2013-02,02-3396-4744,37.55912945,127.0093939,2020-06-25
"서울특별시 중구청",서울특별시 중구 동호로20다길 26 (신당동),서울특별시 중구 다산동 413-3,생활방범,1,200,회전형,30,2016-12,02-3396-4744,37.55848869,127.0100775,2020-06-25
"서울특별시 중구청",서울특별시 중구 동호로14길 11-7 (신당동),서울특별시 중구 다산동 423-1,생활방범,1,200,회전형,30,2017-09,02-3396-4744,37.55646602,127.0103189,2020-06-25
"서울특별시 중구청",서울특별시 중구 동호로15길 50 (신당동),서울특별시 중구 다산동 432-24,생활방범,3,200,회전형,30,2016-12,02-3396-4744,37.55433262,127.0082932,2020-06-25
"서울특별시 중구청",서울특별시 중구 동호로15길 50 (신당동),서울특별시 중구 다산동 432-24,생활방범,2,200,회전형,30,2014-11,02-3396-4744,37.55433262,127.0082932,2020-06-25
"서울특별시 중구청",서울특별시 중구 동호로15길 103 (신당동),서울특별시 중구 다산동 432-73,생활방범,1,200,회전형,30,2013-02,02-3396-4744,37.55415248,127.0074105,2020-06-25
"서울특별시 중구청",서울특별시 중구 동호로11나길 47 (신당동),서울특별시 중구 다산동 432-462,생활방범,1,200,회전형,30,2016-12,02-3396-4744,37.55218119,127.0056992,2020-06-25
"서울특별시 중구청",서울특별시 중구 동호로11마길 34,서울특별시 중구 신당동 432-921,생활방범,1,200,회전형,30,2013-02,02-3396-4744,37.5509342,127.005779,2020-06-25
"서울특별시 중구청",서울특별시 중구 동호로11라길 13 (신당동),서울특별시 중구 다산동 432-518,생활방범,1,200,회전형,30,2016-12,02-3396-4744,37.5519361,127.0061201,2020-06-25
"서울특별시 중구청",서울특별시 중구 동호로11마길 20-14 (신당동),서울특별시 중구 다산동 432-521,생활방범,1,200,회전형,30,2017-09,02-3396-4744,37.55119369,127.0058906,2020-06-25
"서울특별시 중구청",서울특별시 중구 다산로 67-5 (신당동),서울특별시 중구 다산동 432-710,생활방범,1,200,회전형,30,2017-09,02-3396-4744,37.55056292,127.0071476,2020-06-25
"서울특별시 중구청",서울특별시 중구 동호로15가길 33-1 (신당동),서울특별시 중구 다산동 432-762,생활방범,1,200,회전형,30,2016-05,02-3396-4744,37.55477958,127.0073381,2020-06-25
"서울특별시 중구청",서울특별시 중구 동호로17길 261 (신당동),서울특별시 중구 다산동 432-1696,생활방범,1,200,회전형,30,2016-12,02-3396-4744,37.54928718,127.0058257,2020-06-25
"서울특별시 중구청",서울특별시 중구 동호로11마길 52 (신당동),서울특별시 중구 다산동 432-1976,생활방범,1,200,회전형,30,2013-02,02-3396-4744,37.55072881,127.0050789,2020-06-25
"서울특별시 중구청",서울특별시 중구 동호로11바길 42-1 (신당동),서울특별시 중구 다산동 432-2013,생활방범,1,200,회전형,30,2017-09,02-3396-4744,37.550372,127.0054668,2020-06-25
"서울특별시 중구청",서울특별시 중구 동호로17길 123 (신당동),서울특별시 중구 다산동 432-2292,생활방범,1,200,회전형,30,2015-12,02-3396-4744,37.55366248,127.0045947,2020-06-25
"서울특별시 중구청",서울특별시 중구 동호로15길 130-2 (신당동),서울특별시 중구 다산동 432-2824,생활방범,1,200,회전형,30,2015-12,02-3396-4744,37.55503182,127.0079774,2020-06-25
"서울특별시 중구청",서울특별시 중구 동호로17길 65-11 (신당동),서울특별시 중구 다산동 824-8,생활방범,1,200,회전형,30,2017-09,02-3396-4744,37.55525534,127.0068085,2020-06-25
"서울특별시 중구청",서울특별시 중구 동호로8나길 35 (신당동),서울특별시 중구 약수동 309-75,생활방범,3,200,회전형,30,2017-02,02-3396-4744,37.55237153,127.0138066,2020-06-25
"서울특별시 중구청",서울특별시 중구 동호로8가길 43 (신당동),서울특별시 중구 약수동 346-452,생활방범,1,200,회전형,30,2017-09,02-3396-4744,37.55395002,127.0143139,2020-06-25
"서울특별시 중구청",서울특별시 중구 동호로8가길 27,서울특별시 중구 신당동 349-132,생활방범,2,200,고정형,30,2017-09,02-3396-4744,37.5533482,127.0139607,2020-06-25
"서울특별시 중구청","서울특별시 중구 동호로8라길 8 (신당동, 성광빌라)",서울특별시 중구 약수동 346-489,생활방범,1,200,회전형,30,2016-12,02-3396-4744,37.55317872,127.0147166,2020-06-25
"서울특별시 중구청",서울특별시 중구 동호로8가길 1 (신당동),서울특별시 중구 약수동 349-190,생활방범,1,200,회전형,30,2014-11,02-3396-4744,37.55378803,127.0126444,2020-06-25
"서울특별시 중구청",서울특별시 중구 동호로8나길 15 (신당동),서울특별시 중구 약수동 349-245,생활방범,1,200,회전형,30,2016-12,02-3396-4744,37.55275365,127.0129692,2020-06-25
"서울특별시 중구청",서울특별시 중구 다산로 96 (신당동),서울특별시 중구 약수동 366-106,생활방범,1,200,회전형,30,2016-12,02-3396-4744,37.55273959,127.0092192,2020-06-25
"서울특별시 중구청",서울특별시 중구 동호로7길 26 (신당동),서울특별시 중구 약수동 366-74,생활방범,2,200,회전형,30,2012-06,02-3396-4744,37.55267099,127.0106334,2020-06-25
"서울특별시 중구청",서울특별시 중구 다산로6길 22 (신당동),서울특별시 중구 약수동 366-85,생활방범,1,200,회전형,30,2016-12,02-3396-4744,37.55213775,127.0088317,2020-06-25
"서울특별시 중구청",서울특별시 중구 다산로4길 10 (신당동),서울특별시 중구 약수동 366-142,생활방범,3,200,회전형,30,2018-02,02-3396-4744,37.54966907,127.0081071,2020-06-25
"서울특별시 중구청",서울특별시 중구 다산로10길 10-33 (신당동),서울특별시 중구 약수동 368-75,생활방범,2,200,회전형,30,2016-05,02-3396-4744,37.55303142,127.0103528,2020-06-25
"서울특별시 중구청",서울특별시 중구 동호로 171 (신당동),서울특별시 중구 약수동 372-3,생활방범,4,200,회전형,30,2014-11,02-3396-4744,37.55344939,127.0112899,2020-06-25
"서울특별시 중구청",서울특별시 중구 다산로8길 35-2 (신당동),서울특별시 중구 약수동 372-102,생활방범,1,200,회전형,30,2016-12,02-3396-4744,37.5525916,127.0117198,2020-06-25
"서울특별시 중구청","서울특별시 중구 다산로 32 (신당동, 남산타운아파트)",서울특별시 중구 약수동 844-9,생활방범,1,200,회전형,30,2016-12,02-3396-4744,37.54716803,127.0056761,2020-06-25
"서울특별시 중구청",서울특별시 중구 청구로3가길 10 (신당동),서울특별시 중구 청구동 330-343,생활방범,1,200,회전형,30,2016-12,02-3396-4744,37.55832147,127.0158313,2020-06-25
"서울특별시 중구청",서울특별시 중구 청구로3길 35-7 (신당동),서울특별시 중구 청구동 330-376,생활방범,3,200,회전형,30,2016-12,02-3396-4744,37.55787823,127.0154328,2020-06-25
"서울특별시 중구청",서울특별시 중구 다산로28가길 12 (신당동),서울특별시 중구 청구동 330-383,생활방범,1,200,회전형,30,2016-12,02-3396-4744,37.55921907,127.0141972,2020-06-25
"서울특별시 중구청",서울특별시 중구 다산로20길 35 (신당동),서울특별시 중구 청구동 333-41,생활방범,4,200,회전형,30,2013-02,02-3396-4744,37.55685125,127.0141877,2020-06-25
"서울특별시 중구청",서울특별시 중구 다산로22길 18 (신당동),서울특별시 중구 청구동 333-111,생활방범,4,200,회전형,30,2015-12,02-3396-4744,37.55734474,127.0134062,2020-06-25
"서울특별시 중구청",서울특별시 중구 다산로24길 58 (신당동),서울특별시 중구 청구동 333-293,생활방범,1,200,회전형,30,2015-12,02-3396-4744,37.5569699965,127.0156318,2020-06-25
"서울특별시 중구청",서울특별시 중구 다산로24가길 8 (신당동),서울특별시 중구 청구동 333-294,생활방범,1,200,회전형,30,2015-12,02-3396-4744,37.55693394,127.0157767,2020-06-25
"서울특별시 중구청",서울특별시 중구 매봉18길 109 (신당동),서울특별시 중구 청구동 333-772,생활방범,2,200,회전형,30,2018-10,02-3396-4744,37.5562058,127.0167272,2020-06-25
"서울특별시 중구청",서울특별시 중구 동호로10길 69 (신당동),서울특별시 중구 청구동 340-34,생활방범,1,200,회전형,30,2017-09,02-3396-4744,37.55684418,127.0129609,2020-06-25
"서울특별시 중구청",서울특별시 중구 다산로16길 38 (신당동),서울특별시 중구 청구동 346-402,생활방범,4,200,회전형,30,2017-09,02-3396-4744,37.55596472,127.0136941,2020-06-25
"서울특별시 중구청",서울특별시 중구 동호로10길 39 (신당동),서울특별시 중구 청구동 347-359,생활방범,4,200,회전형,30,2012-06,02-3396-4744,37.5556225,127.0122528,2020-06-25
"서울특별시 중구청",서울특별시 중구 청구로1길 23 (신당동),서울특별시 중구 청구동 843,생활방범,3,200,고정형,30,2020-02,02-3396-4744,37.55853733,127.018448,2020-06-25
"서울특별시 중구청",서울특별시 중구 다산로 168 (신당동),서울특별시 중구 청구동 333-165,어린이보호,3,200,회전형,30,2012-09,02-3396-4744,37.55844074,127.0130245,2020-06-25
"서울특별시 중구청",서울특별시 중구 동호로7길 47-7 (신당동),서울특별시 중구 약수동 372-450,어린이보호,2,200,회전형,30,2012-09,02-3396-4744,37.55171948,127.011206,2020-06-25
"서울특별시 중구청","서울특별시 중구 다산로 32 (신당동, 남산타운아파트7동 뒤편)",서울특별시 중구 약수동 산37-224,어린이보호,3,200,회전형,30,2012-09,02-3396-4744,37.54716803,127.0056761,2020-06-25
"서울특별시 중구청",서울특별시 중구 다산로 32 (신당동),서울특별시 중구 약수동 844-1,어린이보호,5,200,회전형,30,2018-10,02-3396-4744,37.54716803,127.0056761,2020-06-25
"서울특별시 중구청",서울특별시 중구 동호로10길 27 (신당동),서울특별시 중구 청구동 347-298,어린이보호,3,200,회전형,30,2012-09,02-3396-4744,37.55539189,127.0118651,2020-06-25
"서울특별시 중구청",서울특별시 중구 동호로11아길 28-7 (신당동),서울특별시 중구 다산동 432-1918,생활방범,2,200,회전형,30,2016-12,02-3396-4744,37.551187,127.0046082,2020-06-25
"서울특별시 중구청",서울특별시 중구 동호로 10길 8-8,서울특별시 중구 청구동 349-272,생활방범,4,200,회전형,30,2014-01,02-3396-4744,37.55415209,127.0121139,2020-06-25
"서울특별시 중구청",서울특별시 중구 청구로 3길 54,서울특별시 중구 청구동 333-204,생활방범,5,200,회전형,30,2014-01,02-3396-4744,37.55731612,127.0145228,2020-06-25
"서울특별시 중구청",서울특별시 중구 다산로21길11,서울특별시 중구 신당동379-10,어린이보호,4,200,고정형,30,2015-12,02-3396-4744,37.557947,127.011649,2020-06-25
"서울특별시 중구청",서울특별시 중구 동호로17길123-15,서울특별시 중구 신당동432-1826,생활방범,4,200,회전형,30,2015-12,02-3396-4744,37.55354353,127.0049976,2020-06-25
"서울특별시 중구청",서울특별시 중구 다산로28길10,서울특별시 중구 신당동309-257,생활방범,5,200,회전형,30,2015-12,02-3396-4744,37.559668,127.014119,2020-06-25
"서울특별시 중구청",서울특별시 중구 퇴계로88나길 23 (신당동),서울특별시 중구 신당5동 67-32,생활방범,4,200,회전형,30,2016-12,02-3396-4744,37.56254457,127.020767,2020-06-25
"서울특별시 중구청",서울특별시 중구 퇴계로90길 58 (신당동),서울특별시 중구 신당5동 80-32,생활방범,1,200,회전형,30,2016-12,02-3396-4744,37.56276067,127.0215949,2020-06-25
"서울특별시 중구청",서울특별시 중구 다산로36가길 61 (신당동),서울특별시 중구 신당5동 80-68,생활방범,1,200,회전형,30,2017-09,02-3396-4744,37.56206151,127.0214447,2020-06-25
"서울특별시 중구청",서울특별시 중구 난계로 127-1 (신당동),서울특별시 중구 신당5동 85-110,생활방범,3,200,회전형,30,2016-12,02-3396-4744,37.56328965,127.0239124,2020-06-25
"서울특별시 중구청",서울특별시 중구 다산로42길 17 (신당동),서울특별시 중구 신당5동 111-1,생활방범,4,200,회전형,30,2017-09,02-3396-4744,37.56483367,127.0172317,2020-06-25
"서울특별시 중구청",서울특별시 중구 다산로44길 33 (신당동),서울특별시 중구 신당5동 120-26,생활방범,1,200,회전형,30,2016-12,02-3396-4744,37.5651542,127.0187439,2020-06-25
"서울특별시 중구청",서울특별시 중구 다산로40길 38 (신당동),서울특별시 중구 신당5동 123-1,생활방범,4,200,고정형,30,2018-10,02-3396-4744,37.56347484,127.0180825,2020-06-25
"서울특별시 중구청",서울특별시 중구 다산로42길 55 (신당동),서울특별시 중구 신당5동 132-9,생활방범,2,200,회전형,30,2018-05,02-3396-4744,37.56420601,127.0192453,2020-06-25
"서울특별시 중구청",서울특별시 중구 퇴계로88길 8-2 (신당동),서울특별시 중구 신당5동 140-26,생활방범,4,200,회전형,30,2017-09,02-3396-4744,37.56514657,127.0212758,2020-06-25
"서울특별시 중구청",서울특별시 중구 다산로44길 53,서울특별시 중구 신당5동 140-34,생활방범,4,200,고정형,30,2018-10,02-3396-4744,37.56523689,127.0199347,2020-06-25
"서울특별시 중구청",서울특별시 중구 퇴계로90길 18 (신당동),서울특별시 중구 신당5동 151-16,생활방범,3,200,회전형,30,2016-12,02-3396-4744,37.56456619,127.0219855,2020-06-25
"서울특별시 중구청",서울특별시 중구 다산로42길 79 (신당동),서울특별시 중구 신당5동 154-28,생활방범,4,200,회전형,30,2016-12,02-3396-4744,37.56383484,127.0205455,2020-06-25
"서울특별시 중구청",서울특별시 중구 퇴계로90길 36 (신당동),서울특별시 중구 신당5동 154-47,생활방범,4,200,고정형,30,2018-10,02-3396-4744,37.56379137,127.0217634,2020-06-25
"서울특별시 중구청",서울특별시 중구 퇴계로88가길 9 (신당동),서울특별시 중구 신당5동 155-17,생활방범,3,200,회전형,30,2014-11,02-3396-4744,37.56353206,127.0208126,2020-06-25
"서울특별시 중구청",서울특별시 중구 퇴계로88가길 48 (신당동),서울특별시 중구 신당5동 165-10,생활방범,4,200,회전형,30,2017-09,02-3396-4744,37.56300912,127.0227547,2020-06-25
"서울특별시 중구청",서울특별시 중구 퇴계로88가길 48-21 (신당동),서울특별시 중구 신당5동 166-11,생활방범,3,200,회전형,30,2018-10,02-3396-4744,37.56220175,127.0231528,2020-06-25
"서울특별시 중구청",서울특별시 중구 다산로44길 119 (신당동),서울특별시 중구 신당5동 170-4,생활방범,4,200,회전형,30,2018-01,02-3396-4744,37.56471725,127.0235928,2020-06-25
"서울특별시 중구청",서울특별시 중구 왕십리로39길 19 (신당동),서울특별시 중구 신당5동 653,생활방범,3,200,회전형,30,2017-09,02-3396-4744,37.56406081,127.0260148,2020-06-25
"서울특별시 중구청",서울특별시 중구 왕십리로37길 18 (신당동,서울특별시 중구 신당5동 713,생활방범,1,200,회전형,30,2017-09,02-3396-4744,37.56405931,127.0265061,2020-06-25
"서울특별시 중구청",서울특별시 중구 다산로36가길 13 (신당동),서울특별시 중구 동화동 52-7,생활방범,2,200,회전형,30,2016-12,02-3396-4744,37.56135916,127.0190192,2020-06-25
"서울특별시 중구청",서울특별시 중구 다산로40길 56 (신당동),서울특별시 중구 동화동 52-13,생활방범,4,200,회전형,30,2013-02,02-3396-4744,37.56318637,127.0190739,2020-06-25
"서울특별시 중구청",서울특별시 중구 다산로38길 51 (신당동),서울특별시 중구 동화동 52-232,생활방범,4,200,회전형,30,2016-12,02-3396-4744,37.56255938,127.0184399561,2020-06-25
"서울특별시 중구청",서울특별시 중구 다산로36가길 26-14 (신당동),서울특별시 중구 동화동 57-587,생활방범,3,200,회전형,30,2018-10,02-3396-4744,37.56090481,127.0204949,2020-06-25
"서울특별시 중구청",서울특별시 중구 다산로36가길 26 (신당동),서울특별시 중구 동화동 62-86,생활방범,4,200,회전형,30,2014-11,02-3396-4744,37.56124727,127.0200124,2020-06-25
"서울특별시 중구청",서울특별시 중구 다산로38길 21 (신당동),서울특별시 중구 동화동 276-5,생활방범,4,200,회전형,30,2018-10,02-3396-4744,37.56314705,127.0169189,2020-06-25
"서울특별시 중구청",서울특별시 중구 다산로42나길 49 (신당동),서울특별시 중구 동화동 280-3,생활방범,3,200,회전형,30,2012-06,02-3396-4744,37.56225316,127.0176295,2020-06-25
"서울특별시 중구청",서울특별시 중구 다산로36길 30 (신당동),서울특별시 중구 동화동 282-5,생활방범,4,200,회전형,30,2013-02,02-3396-4744,37.56210915,127.0166289,2020-06-25
"서울특별시 중구청",서울특별시 중구 다산로32길 14 (신당동),서울특별시 중구 동화동 288-5,생활방범,4,200,회전형,30,2018-10,02-3396-4744,37.56105293,127.0150128,2020-06-25
"서울특별시 중구청",서울특별시 중구 청구로4길 39 (신당동),서울특별시 중구 동화동 290-50,생활방범,1,200,회전형,30,2014-11,02-3396-4744,37.56161552,127.0157414,2020-06-25
"서울특별시 중구청",서울특별시 중구 다산로32길 29 (신당동),서울특별시 중구 동화동 290-131,생활방범,2,200,회전형,30,2013-02,02-3396-4744,37.56084424,127.0159569,2020-06-25
"서울특별시 중구청",서울특별시 중구 다산로36길 11 (신당동),서울특별시 중구 동화동 291-48,생활방범,1,200,회전형,30,2018-02,02-3396-4744,37.56285523,127.0161854,2020-06-25
"서울특별시 중구청",서울특별시 중구 퇴계로86가길 36 (신당동),서울특별시 중구 동화동 62-45,어린이보호,2,200,회전형,30,2012-09,02-3396-4744,37.56160772,127.0196757,2020-06-25
"서울특별시 중구청",서울특별시 중구 퇴계로88다길 5 (신당동),서울특별시 중구 신당5동 67-137,어린이보호,3,200,회전형,30,2018-10,02-3396-4744,37.5631862,127.020079,2020-06-25
"서울특별시 중구청",서울특별시 중구 퇴계로86길 96,서울특별시 중구 동화동 49-26,생활방범,4,200,회전형,30,2018-02,02-3396-4744,37.56209447,127.0184127,2020-06-25
"서울특별시 중구청",서울특별시 중구 왕십리로 39길 15,서울특별시 중구 신당5동 612,생활방범,4,200,회전형,30,2014-01,02-3396-4744,37.56428065,127.026042,2020-06-25
"서울특별시 중구청",서울특별시 중구 난계로10길 12,서울특별시 중구 신당5동 85-781,생활방범,4,200,회전형,30,2018-02,02-3396-4744,37.5621271,127.0221049,2020-06-25
"서울특별시 중구청",서울특별시 중구 퇴계로 428-3,서울특별시 중구 신당5동 130-28,생활방범,5,200,회전형,30,2014-01,02-3396-4744,37.5654208,127.0193145,2020-06-25
"서울특별시 중구청",서울특별시 중구 퇴계로 88가길 52,서울특별시 중구 신당5동 166-34,생활방범,4,200,회전형,30,2014-01,02-3396-4744,37.56297303,127.0230127,2020-06-25
"서울특별시 중구청",서울특별시 중구 퇴계로88길23,서울특별시 중구 신당동152-17,생활방범,5,200,회전형,30,2015-12,02-3396-4744,37.56446186,127.0209351,2020-06-25
"서울특별시 중구청",서울특별시 중구 퇴계로86길19,서울특별시 중구 신당동143-23,생활방범,5,200,회전형,30,2015-12,02-3396-4744,37.56463145,127.0197851,2020-06-25
"서울특별시 중구청",서울특별시 중구 장충단로8길 14 (장충동1가),서울특별시 중구 장충동1가 34-6,생활방범,1,200,회전형,30,2014-11,02-3396-4744,37.56165599,127.0073207,2020-06-25
"서울특별시 중구청",서울특별시 중구 장충단로6가길 21-7 (장충동1가),서울특별시 중구 장충동1가 35-43,생활방범,1,200,회전형,30,2016-12,02-3396-4744,37.56137481,127.0084072,2020-06-25
"서울특별시 중구청",서울특별시 중구 장충단로6길 10 (장충동1가),서울특별시 중구 장충동1가 48-22,생활방범,1,200,회전형,30,2016-12,02-3396-4744,37.56139652,127.0069796,2020-06-25
"서울특별시 중구청",서울특별시 중구 장충단로6가길 32 (장충동1가),서울특별시 중구 장충동1가 49-8,생활방범,1,200,회전형,30,2017-09,02-3396-4744,37.56082698,127.0086425,2020-06-25
"서울특별시 중구청",서울특별시 중구 장충단로4길 50 (장충동1가),서울특별시 중구 장충동1가 50-30,생활방범,1,200,회전형,30,2017-09,02-3396-4744,37.56019992,127.0081354,2020-06-25
"서울특별시 중구청","서울특별시 중구 동호로20나길 30 (장충동1가, 상지리츠빌 장충동 카일룸)",서울특별시 중구 장충동1가 52-37,생활방범,1,200,회전형,30,2017-09,02-3396-4744,37.56000175,127.0075016,2020-06-25
"서울특별시 중구청",서울특별시 중구 동호로30길 25 (장충동2가),서울특별시 중구 장충동2가 50-6,생활방범,3,200,회전형,30,2018-10,02-3396-4744,37.56119122,127.0043688,2020-06-25
"서울특별시 중구청",서울특별시 중구 퇴계로54길 39 (장충동2가),서울특별시 중구 장충동2가 112-33,생활방범,1,200,회전형,30,2017-09,02-3396-4744,37.56185074,127.0047446,2020-06-25
"서울특별시 중구청",서울특별시 중구 퇴계로54길 32,서울특별시 중구 장충동2가 137-1,생활방범,3,200,고정형,30,2019-12,02-3396-4744,37.56209942,127.0045409,2020-06-25
"서울특별시 중구청",서울특별시 중구 퇴계로52길 37,서울특별시 중구 장충동2가 158-4,생활방범,3,200,고정형,30,2019-12,02-3396-4744,37.561649,127.004196,2020-06-25
"서울특별시 중구청",서울특별시 중구 동호로 303 (장충동2가),서울특별시 중구 장충동2가 174,생활방범,3,200,회전형,30,2018-10,02-3396-4744,37.56143635,127.0024674,2020-06-25
"서울특별시 중구청",서울특별시 중구 동호로 315 (장충동2가),서울특별시 중구 장충동2가 173-1,생활방범,3,200,회전형,30,2018-10,02-3396-4744,37.56263648,127.0022773,2020-06-25
"서울특별시 중구청",서울특별시 중구 동호로28길 33 (장충동2가),서울특별시 중구 장충동2가 186-239,생활방범,1,200,회전형,30,2016-12,02-3396-4744,37.56065958,127.0036751,2020-06-25
"서울특별시 중구청",서울특별시 중구 동호로24길 27 (장충동2가),서울특별시 중구 장충동2가 187-22,생활방범,1,200,회전형,30,2016-12,02-3396-4744,37.56040551,127.0053014,2020-06-25
"서울특별시 중구청",서울특별시 중구 동호로25길 23-5 (장충동2가),서울특별시 중구 장충동2가 193-78,생활방범,1,200,회전형,30,2014-11,02-3396-4744,37.55862886,127.0016071,2020-06-25
"서울특별시 중구청",서울특별시 중구 동호로25가길 34 (장충동2가),서울특별시 중구 장충동2가 193-138,생활방범,1,200,회전형,30,2015-12,02-3396-4744,37.55883789,127.0009643,2020-06-25
"서울특별시 중구청",서울특별시 중구 동호로25길 49 (장충동2가),서울특별시 중구 장충동2가 193-170,생활방범,1,200,회전형,30,2015-12,02-3396-4744,37.5594758,127.0008013,2020-06-25
"서울특별시 중구청",서울특별시 중구 동호로25가길 50 (장충동2가),서울특별시 중구 장충동2가 193-176,생활방범,2,200,회전형,30,2015-12,02-3396-4744,37.55915505,127.0004189,2020-06-25
"서울특별시 중구청",서울특별시 중구 동호로25길 27 (장충동2가),서울특별시 중구 장충동2가 193-116,생활방범,2,200,회전형,30,2015-12,02-3396-4744,37.55888834,127.0014235,2020-06-25
"서울특별시 중구청",서울특별시 중구 퇴계로50길 33-14 (묵정동),서울특별시 중구 묵정동 25-1,생활방범,1,200,회전형,30,2015-12,02-3396-4744,37.56099667,127.0017566,2020-06-25
"서울특별시 중구청",서울특별시 중구 퇴계로50길 43-5 (묵정동),서울특별시 중구 묵정동 25-16,생활방범,1,200,회전형,30,2017-09,02-3396-4744,37.56078404,127.0012495,2020-06-25
"서울특별시 중구청",서울특별시 중구 퇴계로46길 15-5 (묵정동),서울특별시 중구 묵정동 30-10,생활방범,4,200,회전형,30,2018-10,02-3396-4744,37.56172469,127.0001947,2020-06-25
"서울특별시 중구청",서울특별시 중구 퇴계로52길 17 (쌍림동),서울특별시 중구 쌍림동 151-93,생활방범,4,200,회전형,30,2018-10,02-3396-4744,37.56255715,127.0039796,2020-06-25
"서울특별시 중구청",서울특별시 중구 퇴계로56길 12 (쌍림동),서울특별시 중구 쌍림동 235-2,생활방범,4,200,회전형,30,2012-06,02-3396-4744,37.56329603,127.0056841,2020-06-25
"서울특별시 중구청",서울특별시 중구 장충단로7길 10 (쌍림동),서울특별시 중구 쌍림동 243-5,생활방범,4,200,회전형,30,2017-09,02-3396-4744,37.56245255,127.0059263,2020-06-25
"서울특별시 중구청",서울특별시 중구 동호로25길 38-5,서울특별시 중구 장충동2가 191,생활방범,3,200,회전형,30,2014-01,02-3396-4744,37.55958031,127.0017339,2020-06-25
"서울특별시 중구청",서울특별시 중구 퇴계로50길13,서울특별시 중구 장충동2가173-7,어린이보호,5,200,회전형,30,2015-12,02-3396-4744,37.56194813,127.001236,2020-06-25
"서울특별시 중구청",서울특별시 중구 장충단로8나길25,서울특별시 중구 장충동1가38-3,생활방범,4,200,회전형,30,2015-12,02-3396-4744,37.56285598,127.0092676,2020-06-25
"서울특별시 중구청",서울특별시 중구 수표로 32 (저동2가),서울특별시 중구 저동2가 47-22,생활방범,1,200,회전형,30,2017-09,02-3396-4744,37.56394075,126.9903158,2020-06-25
"서울특별시 중구청",서울특별시 중구 을지로11길 23 (수표동),서울특별시 중구 수표동 27-2,생활방범,3,200,회전형,30,2017-09,02-3396-4744,37.56746907,126.9905553,2020-06-25
"서울특별시 중구청",서울특별시 중구 을지로11길 28,서울특별시 중구 입정동 263-4,생활방범,2,200,고정형,30,2018-10,02-3396-4744,37.56767092,126.9909537,2020-06-25
"서울특별시 중구청",서울특별시 중구 청계천로 108 (수표동),서울특별시 중구 수표동 47-1,생활방범,1,200,회전형,30,2015-12,02-3396-4744,37.5678618,126.9894996,2020-06-25
"서울특별시 중구청",서울특별시 중구 을지로33길 14,서울특별시 중구 주교동 253-2,생활방범,1,200,회전형,30,2017-09,02-3396-4744,37.56726402,126.9998778,2020-06-25
"서울특별시 중구청",서울특별시 중구 을지로15길 21 (입정동),서울특별시 중구 입정동 105,생활방범,1,200,회전형,30,2017-09,02-3396-4744,37.5674844,126.9934559,2020-06-25
"서울특별시 중구청",서울특별시 중구 창경궁로5길 28 (산림동),서울특별시 중구 산림동 51,생활방범,2,200,회전형,30,2017-09,02-3396-4744,37.56709458,126.9965318,2020-06-25
"서울특별시 중구청",서울특별시 중구 창경궁로5가길 39 (산림동),서울특별시 중구 산림동 82-3,생활방범,1,200,회전형,30,2017-09,02-3396-4744,37.56826587,126.9964734,2020-06-25
"서울특별시 중구청",서울특별시 중구 을지로19길 9 (산림동),서울특별시 중구 산림동 278,생활방범,1,200,회전형,30,2017-09,02-3396-4744,37.56699002,126.9951537,2020-06-25
"서울특별시 중구청",서울특별시 중구 을지로14길 8 (을지로3가),서울특별시 중구 을지로3가 315-6,생활방범,4,200,회전형,30,2014-11,02-3396-4744,37.56595909,126.9917598,2020-06-25
"서울특별시 중구청",서울특별시 중구 을지로27가길 18,서울특별시 중구 주교동 269,생활방범,1,200,회전형,30,2016-12,02-3396-4744,37.567808,127.000153,2020-06-25
"서울특별시 중구청",서울특별시 중구 충무로2길 39-1 (충무로4가),서울특별시 중구 충무로4가 28-4,생활방범,3,200,회전형,30,2016-12,02-3396-4744,37.56239494,126.9954183,2020-06-25
"서울특별시 중구청",서울특별시 중구 다산로36다길14,서울특별시 중구 신당동 54-14,생활방범,3,200,회전형,30,2012-06,02-3396-4744,37.56035709,127.019943,2020-06-25
"서울특별시 중구청",서울특별시 중구 을지로18길 21 (인현동1가),서울특별시 중구 인현동1가 39-1,생활방범,3,200,회전형,30,2017-09,02-3396-4744,37.56544028,126.9946303,2020-06-25
"서울특별시 중구청",서울특별시 중구 을지로16길 5-25 (을지로3가),서울특별시 중구 인현동1가 46,생활방범,1,200,회전형,30,2017-09,02-3396-4744,37.56586553,126.9941533,2020-06-25
"서울특별시 중구청",서울특별시 중구 마른내로4길 3 (인현동1가),서울특별시 중구 인현동1가 113,생활방범,1,200,회전형,30,2016-05,02-3396-4744,37.56406353,126.9940645,2020-06-25
"서울특별시 중구청",서울특별시 중구 을지로40길 24,서울특별시 중구 광희동1가 49,생활방범,3,200,회전형,30,2018-10,02-3396-4744,37.56570341,127.004265,2020-06-25
"서울특별시 중구청",서울특별시 중구 마른내로6길 29 (인현동2가),서울특별시 중구 인현동2가 189-10,생활방범,3,200,회전형,30,2016-12,02-3396-4744,37.56292472,126.9952644,2020-06-25
"서울특별시 중구청",서울특별시 중구 을지로12길16,서울특별시 중구 을지로3가322-7,생활방범,4,200,회전형,30,2015-12,02-3396-4744,37.565547,126.990991,2020-06-25
"서울특별시 중구청",서울특별시 중구 수표로48-11,서울특별시 중구 을지로3가322-5,생활방범,3,200,회전형,30,2015-12,02-3396-4744,37.56563464,126.990527,2020-06-25
"서울특별시 중구청",서울특별시 중구 퇴계로62길 3-9,서울특별시 중구 광희동2가 271-2,생활방범,3,200,회전형,30,2016-12,02-3396-4744,37.56393366,127.008012,2020-06-25
"서울특별시 중구청",서울특별시 중구 마른내로10길 16,서울특별시 중구 인현동2가 172-2,생활방범,3,200,회전형,30,2017-09,02-3396-4744,37.56362035,126.9971206,2020-06-25
"서울특별시 중구청",서울특별시 중구 퇴계로49길 6,서울특별시 중구 충무로5가 8-16,생활방범,3,200,회전형,30,2018-10,02-3396-4744,37.5630906,127.0006565,2020-06-25
"서울특별시 중구청",서울특별시 중구 퇴계로45길 27,서울특별시 중구 예관동 70-21,생활방범,3,200,회전형,30,2018-10,02-3396-4744,37.56379698,126.9989949,2020-06-25
"서울특별시 중구청",서울특별시 중구 퇴계로 63길 6-13,,생활방범,3,200,회전형,30,2020-03,02-3396-4744,37.56493548,127.0092271,2020-06-25
"서울특별시 중구청",서울특별시 중구 마른내로 159-17,서울특별시 중구 광희동1가 118,생활방범,3,200,고정형,30,2020-03,02-3396-4744,37.56501499,127.0058088,2020-06-25
"서울특별시 중구청",서울특별시 중구 동호로 194,서울특별시 중구 신당동 374-17,생활방범,3,200,회전형,30,2016-12,02-3396-4744,37.55540283,127.0105025,2020-06-25
"서울특별시 중구청",서울특별시 중구 동호로 11나길 64,서울특별시 중구 신당동 432-424,생활방범,3,200,회전형,30,2016-12,02-3396-4744,37.55253441,127.0049432,2020-06-25
"서울특별시 중구청",서울특별시 중구 동호로 12길 111,서울특별시 중구 신당동 386-23,생활방범,3,200,회전형,30,2016-12,02-3396-4744,37.56008062,127.0124046,2020-06-25
"서울특별시 중구청",서울특별시 중구 동호로 18길 22,서울특별시 중구 신당동 415-13,생활방범,3,200,회전형,30,2016-12,02-3396-4744,37.557855,127.009496,2020-06-25
"서울특별시 중구청",서울특별시 중구 다산로 11길 13,서울특별시 중구 신당동 361-13,생활방범,3,200,회전형,30,2016-12,02-3396-4744,37.55461363,127.0096332,2020-06-25
"서울특별시 중구청",서울특별시 중구 동호로 17길 105,서울특별시 중구 신당동 432-376,생활방범,3,200,회전형,30,2016-12,02-3396-4744,37.5543292,127.0050837,2020-06-25
"서울특별시 중구청",서울특별시 중구 동호로17길 261,서울특별시 중구 신당동 432-1695,생활방범,3,200,회전형,30,2017-09,02-3396-4744,37.54928718,127.0058257,2020-06-25
"서울특별시 중구청",서울특별시 중구 동호로17길 267-14,서울특별시 중구 신당동 432-1620,생활방범,4,200,회전형,30,2017-09,02-3396-4744,37.54976289,127.0060068,2020-06-25
"서울특별시 중구청",서울특별시 중구 동호로11바길 35-2,서울특별시 중구 신당동 432-1014,생활방범,2,200,고정형,30,2017-09,02-3396-4744,37.55006565,127.0055134,2020-06-25
"서울특별시 중구청",서울특별시 중구 다산로5길 12,서울특별시 중구 신당동 432-724,생활방범,3,200,회전형,30,2017-09,02-3396-4744,37.54992142,127.006844,2020-06-25
"서울특별시 중구청",서울특별시 중구 다산로5길 12,서울특별시 중구 신당동 432-724,생활방범,1,200,회전형,30,2017-09,02-3396-4744,37.54992142,127.0068578,2020-06-25
"서울특별시 중구청",서울특별시 중구 동호로11길 108-2,서울특별시 중구 신당동 432-1084,생활방범,4,200,회전형,30,2017-09,02-3396-4744,37.55098099,127.0069756,2020-06-25
"서울특별시 중구청",서울특별시 중구 다산로 165-9,,생활방범,2,200,회전형,30,2020-03,02-3396-4744,37.55881203,127.0122685,2020-06-25
"서울특별시 중구청",서울특별시 중구 동호로 11가길 36,,생활방범,3,200,회전형,30,2020-03,02-3396-4744,37.55290187,127.0078087,2020-06-25
"서울특별시 중구청",서울특별시 중구 동호로11길 22,,생활방범,3,200,회전형,30,2020-03,02-3396-4744,37.55436136,127.0095245,2020-06-25
"서울특별시 중구청",서울특별시 중구 동호로 11마길 11,,생활방범,3,200,회전형,30,2020-03,02-3396-4744,37.55148197,127.0065501,2020-06-25
"서울특별시 중구청",서울특별시 중구 동호로 14길 5-10,,생활방범,4,200,회전형,30,2020-03,02-3396-4744,37.55635792,127.0100997,2020-06-25
"서울특별시 중구청",서울특별시 중구 동호로 15길 35,,생활방범,4,200,고정형,30,2020-03,02-3396-4744,37.5552516,127.0087551,2020-06-25
"서울특별시 중구청",서울특별시 중구 청구로4길15-9,서울특별시 중구 신당동 287-17,생활방범,3,200,회전형,30,2016-07,02-3396-4744,37.5605468,127.0149722,2020-06-25
"서울특별시 중구청",서울특별시 중구 퇴계로 88다길 38,서울특별시 중구 신당동 62-33,생활방범,3,200,회전형,30,2016-12,02-3396-4744,37.5617662,127.0202416,2020-06-25
"서울특별시 중구청",서울특별시 중구 다산로42다길 59 옆,서울특별시 중구 신당동 281-23,생활방범,3,200,회전형,30,2017-09,02-3396-4744,37.56179541,127.0179146,2020-06-25
"서울특별시 중구청",서울특별시 중구 청구로 51-20,,생활방범,3,200,고정형,30,2020-03,02-3396-4744,37.55906021,127.016343,2020-06-25
"서울특별시 중구청",서울특별시 중구 다산로 36가길 14-3,,생활방범,5,200,고정형,30,2020-03,02-3396-4744,37.56095544,127.0194582,2020-06-25
"서울특별시 중구청",서울특별시 중구 다산로 36나길 20,,생활방범,2,200,회전형,30,2020-03,02-3396-4744,37.5610166,127.0200784,2020-06-25
"서울특별시 중구청",서울특별시 중구 다산로 40길 17,서울특별시 중구 신당동 112-6,생활방범,3,200,회전형,30,2016-12,02-3396-4744,37.5640264,127.0170866,2020-06-25
"서울특별시 중구청",서울특별시 중구 청구로17길 91,서울특별시 중구 신당동 377-142,생활방범,4,200,회전형,30,2017-09,02-3396-4744,37.557296,127.0113086,2020-06-25
"서울특별시 중구청",서울특별시 중구 동호로17나길 19,서울특별시 중구 신당동 432-2347,생활방범,3,200,고정형,30,2018-10,02-3396-4744,37.55395074,127.0058668,2020-06-25
"서울특별시 중구청",서울특별시 중구 난계로 151,,생활방범,4,200,회전형,30,2020-03,02-3396-4744,37.56497318,127.0233212,2020-06-25
"서울특별시 중구청",서울특별시 중구 다산로 40길 33-8,,생활방범,2,200,회전형,30,2020-03,02-3396-4744,37.56386405,127.0182637,2020-06-25
"서울특별시 중구청",서울특별시 중구 퇴계로90길 59-8,,생활방범,2,200,회전형,30,2020-03,02-3396-4744,37.56253712,127.0221207,2020-06-25
"서울특별시 중구청",서울특별시 중구 동호로 10길 30,서울특별시 중구 신당동 842,어린이보호,4,200,회전형,30,2016-12,02-3396-4744,37.55530847,127.0163105,2020-06-25
"서울특별시 중구청",서울특별시 중구 동호로5길 193,서울특별시 중구 신당동 844-10,어린이보호,4,200,회전형,30,2016-12,02-3396-4744,37.54655155,127.0089758,2020-06-25
"서울특별시 중구청",서울특별시 중구 다산로36길 79,서울특별시 중구 신당동 44-27,어린이보호,4,200,회전형,30,2016-12,02-3396-4744,37.560648,127.0188877,2020-06-25
"서울특별시 중구청",서울특별시 중구 다산로 24길 81,서울특별시 중구 신당동 333-177,어린이보호,4,200,회전형,30,2016-12,02-3396-4744,37.55721132,127.0166957,2020-06-25
"서울특별시 중구청",서울특별시 중구 다산로39가길 16-1,서울특별시 중구 신당동 304-217,생활방범,4,200,회전형,30,2017-09,02-3396-4744,37.563958,127.0129983,2020-06-25
"서울특별시 중구청",서울특별시 중구 다산로33라길 30-13,서울특별시 중구 신당동 304-166,생활방범,1,200,고정형,30,2017-11,02-3396-4744,37.56435135,127.0124098,2020-06-25
"서울특별시 중구청",서울특별시 중구 마장로1가길 17,서울특별시 중구 신당동 213-51,생활방범,3,200,회전형,30,2018-10,02-3396-4744,37.56884542,127.0132391,2020-06-25
"서울특별시 중구청",서울특별시 중구 퇴계로71길 38,서울특별시 중구 신당동 251-131,생활방범,2,200,회전형,30,2018-10,02-3396-4744,37.56647404,127.0128098,2020-06-25
"서울특별시 중구청",서울특별시 중구 다산로33길 58,서울특별시 중구 신당동 304-141,생활방범,4,200,회전형,30,2018-10,02-3396-4744,37.56352967,127.0120163,2020-06-25
"서울특별시 중구청",서울특별시 중구 다산로 31길 37-1,,생활방범,2,200,고정형,30,2020-03,02-3396-4744,37.5622394,127.0124593,2020-06-25
"서울특별시 중구청",서울특별시 중구 다신로 33다길 20-12,,생활방범,3,200,회전형,30,2020-03,02-3396-4744,37.563591,127.013901,2020-06-25
"서울특별시 중구청",서울특별시 중구 다산로 39길 71,,생활방범,3,200,회전형,30,2020-03,02-3396-4744,37.56454601,127.011948,2020-06-25
"서울특별시 중구청",서울특별시 중구 을지로45길,,생활방범,4,200,회전형,30,2020-03,02-3396-4744,37.567731,127.012701,2020-06-25
"서울특별시 중구청",서울특별시 중구 청구로 10길 22,,생활방범,2,200,회전형,30,2020-03,02-3396-4744,37.56147886,127.0133646,2020-06-25
"서울특별시 중구청",서울특별시 중구 퇴계로 375,,생활방범,2,200,고정형,30,2020-03,02-3396-4744,37.56585408,127.0135238,2020-06-25
"서울특별시 중구청",서울특별시 중구 다산로 114-8,서울특별시 중구 신당동 368-58,생활방범,3,200,회전형,30,2016-12,02-3396-4744,37.55384589,127.0106924,2020-06-25
"서울특별시 중구청",서울특별시 중구 동호로8가길 41 뒷편,서울특별시 중구 신당동 346-453,생활방범,2,200,고정형,30,2017-09,02-3396-4744,37.55393203,127.014058,2020-06-25
"서울특별시 중구청",서울특별시 중구 동호로8라길 20 앞,서울특별시 중구 신당동 346-566,생활방범,3,200,회전형,30,2017-09,02-3396-4744,37.5535138,127.0154093,2020-06-25
"서울특별시 중구청",서울특별시 중구 동호로8나길 41,서울특별시 중구 신당동 309-76,생활방범,3,200,회전형,30,2017-09,02-3396-4744,37.55230664,127.013916,2020-06-25
"서울특별시 중구청",서울특별시 중구 동호로8나길 42,서울특별시 중구 신당동 309-103,생활방범,1,200,회전형,30,2017-09,02-3396-4744,37.552037,127.014082,2020-06-25
"서울특별시 중구청",서울특별시 중구 동호로7길 47-14,서울특별시 중구 신당동 372-445,생활방범,3,200,고정형,30,2017-09,02-3396-4744,37.55172665,127.0116653,2020-06-25
"서울특별시 중구청",서울특별시 중구 을지로 27길 40,서울특별시 중구 주교동 67,생활방범,3,200,회전형,30,2016-12,02-3396-4744,37.56865155,126.9991578,2020-06-25
"서울특별시 중구청",서울특별시 중구 창경궁로 5길 6,서울특별시 중구 산림동 16,생활방범,3,200,회전형,30,2016-12,02-3396-4744,37.56737211,126.9976592,2020-06-25
"서울특별시 중구청",서울특별시 중구 퇴계로27길 35,서울특별시 중구 초동 53-2,생활방범,4,200,회전형,30,2017-09,02-3396-4744,37.5627515,126.9912305,2020-06-25
"서울특별시 중구청",서울특별시 중구 을지로17길 12,서울특별시 중구 산림동 289,생활방범,3,200,회전형,30,2018-10,02-3396-4744,37.56706207,126.9946438,2020-06-25
"서울특별시 중구청",서울특별시 중구 충무로9길 37-1,서울특별시 중구 을지로3가 5-16,생활방범,3,200,회전형,30,2019-12,02-3396-4744,37.5666978,126.9903426,2020-06-25
"서울특별시 중구청",서울특별시 중구 창경궁로5나길 3,서울특별시 중구 산림동 47-1,생활방범,3,200,회전형,30,2019-12,02-3396-4744,37.56729281,126.996856,2020-06-25
"서울특별시 중구청",서울특별시 중구 충무로11길 6,,생활방범,3,200,회전형,30,2020-03,02-3396-4744,37.56752324,126.9920721,2020-06-25
"서울특별시 중구청",서울특별시 중구 을지로30길 52,,생활방범,3,200,고정형,30,2020-03,02-3396-4744,37.56483132,126.9989179,2020-06-25
"서울특별시 중구청",서울특별시 중구 수표로12길 18,,생활방범,4,200,회전형,30,2020-03,02-3396-4744,37.56400568,126.9910899741,2020-06-25
"서울특별시 중구청",서울특별시 중구 을지로14길 31,,생활방범,2,200,회전형,30,2020-03,02-3396-4744,37.5648491,126.9923666,2020-06-25
"서울특별시 중구청",서울특별시 중구 창경궁로5가길 23,,생활방범,3,200,고정형,30,2020-03,02-3396-4744,37.56801361,126.9972064,2020-06-25
"서울특별시 중구청",서울특별시 중구 동호로25길 37-5,서울특별시 중구 장충동2가 193-148,생활방범,2,200,회전형,30,2017-09,02-3396-4744,37.5592091,127.0012269,2020-06-25
"서울특별시 중구청",서울특별시 중구 장충단로8나길 13,서울특별시 중구 장충동1가 38-7,생활방범,3,200,회전형,30,2018-10,02-3396-4744,37.56295694,127.0086746,2020-06-25
"서울특별시 중구청",서울특별시 중구 장충단로8나길 11-26,서울특별시 중구 광희동2가 217-5,생활방범,2,200,고정형,30,2018-10,02-3396-4744,37.56319119,127.0087585,2020-06-25
"서울특별시 중구청",서울특별시 중구 동호로25가길 13,서울특별시 중구 장충동2가 193-88,생활방범,3,200,회전형,30,2019-12,02-3396-4744,37.55848109,127.0020372,2020-06-25
"서울특별시 중구청",서울특별시 중구 동호로27길 21,서울특별시 중구 묵정동 21-4,어린이보호,2,200,회전형,30,2019-12,02-3396-4744,37.56026506,127.0017339,2020-06-25
"서울특별시 중구청",서울특별시 중구 퇴계로56가길 8,서울특별시 중구 장충동2가 112-30,생활방범,3,200,고정형,30,2019-12,02-3396-4744,37.56181107,127.005249,2020-06-25
"서울특별시 중구청",서울특별시 중구 장충단로7가길 10,서울특별시 중구 장충동2가 104-1,생활방범,2,200,고정형,30,2019-12,02-3396-4744,37.56206334,127.0053785,2020-06-25
"서울특별시 중구청",서울특별시 중구 퇴계로56길 58-8,서울특별시 중구 장충동2가 47-8,생활방범,2,200,고정형,30,2019-12,02-3396-4744,37.56144707,127.005111,2020-06-25
"서울특별시 중구청",서울특별시 중구 장충단로 88,,생활방범,2,200,고정형,30,2020-03,02-3396-4744,37.55349314,127.0030284,2020-06-25
"서울특별시 중구청",서울특별시 중구 장충단로7길 21-7,,생활방범,2,200,고정형,30,2020-03,02-3396-4744,37.56216787,127.0052019,2020-06-25
"서울특별시 중구청",서울특별시 중구 다산로 28나길 19,서울특별시 중구 신당동 321-9,생활방범,3,200,회전형,30,2016-12,02-3396-4744,37.55896307,127.0151343,2020-06-25
"서울특별시 중구청",서울특별시 중구 다산로24가길 23,서울특별시 중구 신당동 333-260,생활방범,4,200,회전형,30,2017-09,02-3396-4744,37.55631402,127.0159757,2020-06-25
"서울특별시 중구청",서울특별시 중구 다산로 138 앞,서울특별시 중구 신당동 369-76,생활방범,3,200,회전형,30,2017-09,02-3396-4744,37.55604784,127.0116298,2020-06-25
"서울특별시 중구청",서울특별시 중구 다산로20길 65,서울특별시 중구 신당동 333-500,생활방범,2,200,회전형,30,2018-05,02-3396-4744,37.55620596,127.015566,2020-06-25
"서울특별시 중구청",서울특별시 중구 청구로3다길 14,서울특별시 중구 신당동 300-190,생활방범,3,200,회전형,30,2018-10,02-3396-4744,37.55763626,127.0156631,2020-06-25
"서울특별시 중구청",서울특별시 중구 퇴계로 32길 21,서울특별시 중구 필동2가 84-92,생활방범,3,200,회전형,30,2016-12,02-3396-4744,37.56003419,126.9926523,2020-06-25
"서울특별시 중구청",서울특별시 중구 퇴계로 36가길 38,서울특별시 중구 필동2가 104-1,어린이보호,4,200,회전형,30,2017-09,02-3396-4744,37.55863598,126.9953144,2020-06-25
"서울특별시 중구청",서울특별시 중구 서애로1길 34,서울특별시 중구 묵정동 11-67,생활방범,3,200,회전형,30,2017-09,02-3396-4744,37.56070837,127.0000589,2020-06-25
"서울특별시 중구청",서울특별시 중구 필동로8길 36,서울특별시 중구 예장동 1-136,생활방범,2,200,회전형,30,2018-10,02-3396-4744,37.55551489,126.9944771,2020-06-25
"서울특별시 중구청",서울특별시 중구 필동로5길 18,서울특별시 중구 장충동2가 산14-48,생활방범,2,200,회전형,30,2018-10,02-3396-4744,37.55619612,126.996469,2020-06-25
"서울특별시 중구청",서울특별시 중구 필동로3길 17-2,서울특별시 중구 장충동2가 산14-48,생활방범,3,200,회전형,30,2018-10,02-3396-4744,37.55705027,126.9964523,2020-06-25
"서울특별시 중구청",서울특별시 중구 필동로 35-13,서울특별시 중구 필동3가 49-1,생활방범,2,200,회전형,30,2018-10,02-3396-4744,37.5579837,126.9966318,2020-06-25
"서울특별시 중구청",서울특별시 중구 서애로 12-6,서울특별시 중구 충무로5가 84-1,생활방범,2,200,회전형,30,2018-10,02-3396-4744,37.56145437,126.997845,2020-06-25
"서울특별시 중구청",서울특별시 중구 퇴계로36가길 2,,생활방범,3,200,회전형,30,2020-03,02-3396-4744,37.56026138,126.9953415,2020-06-25
"서울특별시 중구청",서울특별시 중구 퇴계로 180-14,,생활방범,2,200,고정형,30,2020-03,02-3396-4744,37.56044496,126.9914209,2020-06-25
"서울특별시 중구청",서울특별시 중구 다산로 48길 33,서울특별시 중구 황학동 755,어린이보호,4,200,회전형,30,2016-12,02-3396-4744,37.56748249,127.018011,2020-06-25
"서울특별시 중구청",서울특별시 중구 난계로17길 19-5 옆,서울특별시 중구 황학동 1568,생활방범,3,200,회전형,30,2017-09,02-3396-4744,37.56918282,127.0223762,2020-06-25
"서울특별시 중구청",서울특별시 중구 난계로15길 7,서울특별시 중구 황학동 1444,생활방범,3,200,회전형,30,2018-10,02-3396-4744,37.56871414,127.0229797,2020-06-25
"서울특별시 중구청",서울특별시 중구 난계로 15길 63,,생활방범,3,200,회전형,30,2020-03,02-3396-4744,37.568991,127.020301,2020-06-25
"서울특별시 중구청",서울특별시 중구 퇴계로 83길 30-14,,생활방범,3,200,고정형,30,2020-03,02-3396-4744,37.56701384,127.0188259,2020-06-25
"서울특별시 중구청",서울특별시 중구 통일로 30 (봉래동1가),서울특별시 중구 봉래1가 126-2,교통단속,2,200,회전형,30,2019-04,02-3396-4744,37.55838412,126.9721718,2020-06-25
"서울특별시 중구청",서울특별시 중구 중림로 15,서울특별시 중구 중림동 182,교통단속,2,200,회전형,30,2019-04,02-3396-4744,37.55907064,126.9652269,2020-06-25
"서울특별시 중구청",서울특별시 중구 퇴계로 131 (충무로2가),서울특별시 중구 충무로2가 64-5,교통단속,2,200,회전형,30,2019-07,02-3396-4744,37.56128422,126.9863638,2020-06-25
"서울특별시 중구청",서울특별시 중구 퇴계로 132 (남산동3가),서울특별시 중구 남산동3가 13-31,교통단속,2,200,회전형,30,2019-07,02-3396-4744,37.56075084,126.986468,2020-06-25
"서울특별시 중구청",서울특별시 중구 마른내로 8 (저동2가),서울특별시 중구 저동2가 88-13,교통단속,2,200,회전형,30,2019-04,02-3396-4744,37.56448841,126.9887492,2020-06-25
"서울특별시 중구청",서울특별시 중구 청계천로 106 (수표동),서울특별시 중구 수표동 62-4,교통단속,2,200,회전형,30,2019-04,02-3396-4744,37.56784738,126.989292,2020-06-25
"서울특별시 중구청",서울특별시 중구 수표로 74 (수표동),서울특별시 중구 수표동 11-8,교통단속,2,200,회전형,30,2019-07,02-3396-4744,37.56766722,126.9897675,2020-06-25
"서울특별시 중구청",서울특별시 중구 수표로 54-1 (을지로3가),서울특별시 중구 을지로3가 348-4,교통단속,2,200,회전형,30,2015-12,02-3396-4744,37.56597336,126.9899262,2020-06-25
"서울특별시 중구청",서울특별시 중구 마른내로 21 (저동2가),서울특별시 중구 저동2가 17-1,교통단속,2,200,회전형,30,2015-12,02-3396-4744,37.56495346,126.9902186,2020-06-25
"서울특별시 중구청",서울특별시 중구 통일로 92,서울특별시 중구 순화동 1-170,교통단속,2,200,회전형,30,2015-12,02-3396-4744,37.56359475,126.9692225,2020-06-25
"서울특별시 중구청",서울특별시 중구 마른내로 38 (초동),서울특별시 중구 초동 64-11,교통단속,2,200,회전형,30,2019-07,02-3396-4744,37.56418955,126.9921086,2020-06-25
"서울특별시 중구청",서울특별시 중구 충무로11길 7 (을지로3가),서울특별시 중구 을지로3가 108,교통단속,2,200,회전형,30,2015-12,02-3396-4744,37.56738268,126.9920132,2020-06-25
"서울특별시 중구청",서울특별시 중구 마른내로 75-1 (인현동2가),서울특별시 중구 인현동2가 134-11,교통단속,2,200,회전형,30,2019-07,02-3396-4744,37.5641691,126.9957104,2020-06-25
"서울특별시 중구청",서울특별시 중구 을지로 163 (을지로4가),서울특별시 중구 을지로4가 19-4,교통단속,2,200,회전형,30,2019-07,02-3396-4744,37.56671615,126.9962104,2020-06-25
"서울특별시 중구청",서울특별시 중구 창경궁로 62 (주교동),서울특별시 중구 주교동 175-1,교통단속,2,200,회전형,30,2015-12,02-3396-4744,37.56796678,126.9982206,2020-06-25
"서울특별시 중구청",서울특별시 중구 창경궁로 36-1 (예관동),서울특별시 중구 예관동 21-5,교통단속,2,200,회전형,30,2019-07,02-3396-4744,37.56553409,126.9984018,2020-06-25
"서울특별시 중구청",서울특별시 중구 마른내로 101-1 (오장동),서울특별시 중구 오장동 69-50,교통단속,2,200,회전형,30,2015-12,02-3396-4744,37.56455382,126.9992394,2020-06-25
"서울특별시 중구청",서울특별시 중구 마른내로 121 (오장동),서울특별시 중구 오장동 148-17,교통단속,2,200,회전형,30,2015-12,02-3396-4744,37.56480249,127.0014262,2020-06-25
"서울특별시 중구청",서울특별시 중구 마른내로 133 (쌍림동),서울특별시 중구 광희동1가 281-2,교통단속,2,200,회전형,30,2015-12,02-3396-4744,37.56476642,127.0029383,2020-06-25
"서울특별시 중구청",서울특별시 중구 필동로 24,서울특별시 중구 필동3가 34,교통단속,3,200,회전형,30,2019-07,02-3396-4744,37.55956223,126.996099,2020-06-25
"서울특별시 중구청",서울특별시 중구 퇴계로 307 (광희동1가),서울특별시 중구 광희동1가 216,교통단속,2,200,회전형,30,2015-12,02-3396-4744,37.56430501,127.0057272,2020-06-25
"서울특별시 중구청",서울특별시 중구 다산로 236-1,서울특별시 중구 신당동 101-8,교통단속,2,200,회전형,30,2019-07,02-3396-4744,37.56412743,127.0162309,2020-06-25
"서울특별시 중구청",서울특별시 중구 퇴계로 345,서울특별시 중구 을지로7가 15,교통단속,2,200,회전형,30,2019-07,02-3396-4744,37.56480208,127.009947,2020-06-25
"서울특별시 중구청",서울특별시 중구 퇴계로 386 (신당동),서울특별시 중구 신당동 247-16,교통단속,2,200,회전형,30,2015-12,02-3396-4744,37.56489894,127.0143069,2020-06-25
"서울특별시 중구청",서울특별시 중구 을지로 6 (을지로1가),서울특별시 중구 소공동 91-8,교통단속,2,200,회전형,30,2019-07,02-3396-4744,37.56538091,126.9792096,2020-06-25
"서울특별시 중구청",서울특별시 중구 다산로 183 (신당동),서울특별시 중구 신당동 309-35,교통단속,2,200,회전형,30,2016-12,02-3396-4744,37.55991113,127.0133462,2020-06-25
"서울특별시 중구청",서울특별시 중구 청파로 447 (중림동),서울특별시 중구 중림동 149-21,교통단속,2,200,회전형,30,2019-04,02-3396-4744,37.55930219,126.9684185,2020-06-25
"서울특별시 중구청",서울특별시 중구 서소문로 115 (서소문동),서울특별시 중구 서소문동 47-2,교통단속,2,200,회전형,30,2019-07,02-3396-4744,37.56341562,126.9736369,2020-06-25
"서울특별시 중구청",서울특별시 중구 난계로 187 (황학동),서울특별시 중구 황학동 1103,교통단속,2,200,회전형,30,2019-07,02-3396-4744,37.56833211,127.0232679,2020-06-25
"서울특별시 중구청",서울특별시 중구 을지로9길 34,서울특별시 중구 수표동 56-17,교통단속,2,200,회전형,30,2019-07,02-3396-4744,37.56709413,126.9891518,2020-06-25
"서울특별시 중구청",서울특별시 중구 충무로 22 (인현동1가),서울특별시 중구 인현동1가 142-1,교통단속,2,200,회전형,30,2019-07,02-3396-4744,37.56316249,126.9932315,2020-06-25
"서울특별시 중구청",서울특별시 중구 을지로 282 (을지로7가),서울특별시 중구 을지로7가 57,교통단속,2,200,회전형,30,2019-07,02-3396-4744,37.56536075,127.0092316,2020-06-25
"서울특별시 중구청",서울특별시 중구 을지로 189 (을지로4가),서울특별시 중구 을지로4가 122-2,교통단속,2,200,회전형,30,2019-07,02-3396-4744,37.566812,126.9990085,2020-06-25
"서울특별시 중구청",서울특별시 중구 동호로 351 (을지로5가),서울특별시 중구 을지로5가 274-5,교통단속,2,200,회전형,30,2019-07,02-3396-4744,37.56580439,127.0019831,2020-06-25
"서울특별시 중구청",서울특별시 중구 동호로 372 (방산동),서울특별시 중구 방산동 130-3,교통단속,2,200,회전형,30,2019-07,02-3396-4744,37.56760637,127.0025129,2020-06-25
"서울특별시 중구청",서울특별시 중구 동호로35길 26 (을지로5가),서울특별시 중구 을지로5가 270-10,교통단속,2,200,회전형,30,2019-07,02-3396-4744,37.56635941,127.0006791,2020-06-25
"서울특별시 중구청",서울특별시 중구 퇴계로 120 (남산동1가),서울특별시 중구 남산동1가 1-2,교통단속,2,200,회전형,30,2016-12,02-3396-4744,37.56057768,126.9850075,2020-06-25
"서울특별시 중구청",서울특별시 중구 을지로 251 (을지로6가),서울특별시 중구 을지로6가18-131,교통단속,2,200,회전형,30,2015-12,02-3396-4744,37.56655387,127.0062526,2020-06-25
"서울특별시 중구청",서울특별시 중구 마장로 11,서울특별시 중구 신당동 775,교통단속,2,200,회전형,30,2015-12,02-3396-4744,37.56841316,127.0111427,2020-06-25
"서울특별시 중구청",서울특별시 중구 마장로1길 21 (신당동),서울특별시 중구 중구 신당1동 777,교통단속,2,200,회전형,30,2015-12,02-3396-4744,37.56867257,127.011917,2020-06-25
"서울특별시 중구청",서울특별시 중구 다산로 289 (신당동),서울특별시 중구 신당동 193-29,교통단속,2,200,회전형,30,2015-12,02-3396-4744,37.56884155,127.0154849,2020-06-25
"서울특별시 중구청",서울특별시 중구 마장로 34 (신당동),서울특별시 중구 신당동 204-1,교통단속,2,200,회전형,30,2015-12,02-3396-4744,37.56780384,127.0135818,2020-06-25
"서울특별시 중구청",서울특별시 중구 소공로 46 (회현동2가),서울특별시 중구 회현동2가 18-3,교통단속,2,200,회전형,30,2015-12,02-3396-4744,37.55941334,126.9832223,2020-06-25
"서울특별시 중구청",서울특별시 중구 소파로 101 (남산동2가),서울특별시 중구 예장동 8-178,교통단속,2,200,회전형,30,2015-12,02-3396-4744,37.55694855,126.9857489,2020-06-25
"서울특별시 중구청",서울특별시 중구 통일로 42 (순화동),서울특별시 중구 순화동 207-1,교통단속,2,200,회전형,30,2015-12,02-3396-4744,37.559491,126.971486,2020-06-25
"서울특별시 중구청",서울특별시 중구 난계로 209-1,서울특별시 중구 황학동 2154,교통단속,4,200,회전형,30,2019-07,02-3396-4744,37.57032512,127.0232052,2020-06-25
"서울특별시 중구청",서울특별시 중구 퇴계로50길 13 (장충동2가),서울특별시 중구 장충동2가 173-7,교통단속,2,200,회전형,30,2019-07,02-3396-4744,37.56194813,127.001236,2020-06-25
"서울특별시 중구청",서울특별시 중구 을지로 66 (을지로2가),서울특별시 중구 을지로2가 181-3,교통단속,2,200,회전형,30,2019-07,02-3396-4744,37.56515473,126.9850094,2020-06-25
"서울특별시 중구청",서울특별시 중구 청구로 86,서울특별시 중구 신당동 304-411,교통단속,2,200,회전형,30,2019-07,02-3396-4744,37.5607437,127.012913,2020-06-25
"서울특별시 중구청",서울특별시 중구 퇴계로173,서울특별시 중구 충무로3가60-1,교통단속,5,200,회전형,30,2019-07,02-3396-4744,37.56182526,126.9910585,2020-06-25
"서울특별시 중구청",서울특별시 중구 명동길 53 (명동),서울특별시 중구 명동1가 5-4,교통단속,2,200,회전형,30,2016-12,02-3396-4744,37.56409158,126.9851771,2020-06-25
"서울특별시 중구청",서울특별시 중구 을지로39길 40 (을지로6가),서울특별시 중구 을지로6가 18-14,교통단속,2,200,회전형,30,2019-07,02-3396-4744,37.56898658,127.0057955,2020-06-25
"서울특별시 중구청",서울특별시 중구 청파로 464 (중림동),서울특별시 중구 중림동 355,교통단속,2,200,회전형,30,2019-07,02-3396-4744,37.56081942,126.9682277,2020-06-25
"서울특별시 중구청",서울특별시 중구 난계로17길 65 (황학동),서울특별시 중구 황학동 1835,교통단속,2,200,회전형,30,2019-07,02-3396-4744,37.56971308,127.0197231,2020-06-25
"서울특별시 중구청",서울특별시 중구 소공로 106 (소공동),서울특별시 중구 소공동 87-1,교통단속,2,200,회전형,30,2019-07,02-3396-4744,37.56448368,126.9801832,2020-06-25
"서울특별시 중구청",서울특별시 중구 을지로35길 25 (주교동),서울특별시 중구 주교동 315-4,교통단속,2,200,회전형,30,2019-07,02-3396-4744,37.56801364,127.0010776,2020-06-25
"서울특별시 중구청",서울특별시 중구 청계천로 370 (황학동),서울특별시 중구 황학동 2545-2,교통단속,2,200,회전형,30,2019-07,02-3396-4744,37.57052414,127.018691,2020-06-25
"서울특별시 중구청",서울특별시 중구 다산로48길 27,서울특별시 중구 흥인동 10,교통단속,3,200,회전형,30,2016-12,02-3396-4744,37.56733116,127.0177529,2020-06-25
"서울특별시 중구청",서울특별시 중구 다산로 289 (흥인동),서울특별시 중구 중구 흥인동 159-4,교통단속,3,200,회전형,30,2016-12,02-3396-4744,37.56884155,127.0154849,2020-06-25
"서울특별시 중구청",서울특별시 중구 다산로 261,서울특별시 중구 흥인동 106,교통단속,2,200,회전형,30,2016-12,02-3396-4744,37.56637276,127.0158919,2020-06-25
"서울특별시 중구청",서울특별시 중구 퇴계로75길 15 (흥인동),서울특별시 중구 흥인동 117-7,교통단속,2,200,회전형,30,2016-12,02-3396-4744,37.56609891,127.0155522,2020-06-25
"서울특별시 중구청",서울특별시 중구 퇴계로83길10-4,서울특별시 중구 황학동 737,교통단속,5,200,회전형,30,2015-12,02-3396-4744,37.5660624,127.0187713,2020-06-25
"서울특별시 중구청",서울특별시 중구 을지로 238 (을지로6가),서울특별시 중구 을지로6가 58-5,교통단속,4,200,회전형,30,2019-07,02-3396-4744,37.56629807,127.0043782,2020-06-25
"서울특별시 중구청",서울특별시 중구 통일로4길 16,서울특별시 중구 순화동 1-5,교통단속,2,200,회전형,30,2019-07,02-3396-4744,37.5641533,126.9689597,2020-06-25
"서울특별시 중구청",서울특별시 중구 동호로 229,서울특별시 중구 장충동2가 200-71,교통단속,4,200,회전형,30,2015-12,02-3396-4744,37.557966,127.008171,2020-06-25
