년,상세영업상태명,폐업일자,휴업시작일자,휴업종료일자,인허가일자,사업장명,지번주소,도로명주소,위도,경도,구,행정동,구 행정동
2020,영업중,0,0,0,20190124,느루요양병원,서울특별시 강동구 성내동 452,서울특별시 강동구 강동대로 143-52,37.52786519,127.12054040000001,강동구,성내1동,강동구 성내1동
2020,영업중,0,0,0,19870424,세란병원,서울특별시 종로구 무악동 32-2,서울특별시 종로구 통일로16길 4-2,37.57517001,126.9574507,종로구,무악동,종로구 무악동
2020,영업중,0,0,0,20200708,보금한방병원,서울특별시 강서구 마곡동 731-11,서울특별시 강서구 방화대로34길 60,37.56997332,126.81973049999999,강서구,방화1동,강서구 방화1동
2020,영업중,0,0,0,19790324,강북삼성병원,서울특별시 종로구 평동 73,서울특별시 종로구 새문안로 29,37.5682221,126.9667009,종로구,교남동,종로구 교남동
2020,영업중,0,0,0,20151214,서울바른병원,서울특별시 영등포구 신길동 505,서울특별시 영등포구 여의대방로 145,37.50029796,126.91999569999999,영등포구,신길6동,영등포구 신길6동
2020,영업중,0,0,0,20000810,한누리치과병원,서울특별시 중구 충무로1가 26-1,서울특별시 중구 충무로1가 명동2길 50,37.56117909,126.98309950000001,중구,명동,중구 명동
2020,영업중,0,0,0,20160708,광화문자생한방병원,서울특별시 중구 순화동 1-1,서울특별시 중구 통일로4길 30,37.56486869,126.96985919999999,중구,소공동,중구 소공동
2020,영업중,0,0,0,20160913,참바로병원,서울특별시 중구 흥인동 86,서울특별시 중구 다산로 258,37.56602494,127.0166186,중구,신당동,중구 신당동
2020,영업중,0,0,0,20060302,반도정형외과병원,서울특별시 중구 신당동 422-1,서울특별시 중구 동호로 204,37.55620677,127.0099288,중구,다산동,중구 다산동
2020,영업중,0,0,0,20061120,유치과병원,서울특별시 중구 신당동 336-2,서울특별시 중구 다산로 171,37.55889092,127.0128115,중구,다산동,중구 다산동
2020,영업중,0,0,0,20100930,라임나무치과병원,서울특별시 중구 명동1가 53-1,서울특별시 중구 명동1가 명동길 43,37.56399222,126.98471629999999,중구,명동,중구 명동
2020,영업중,0,0,0,20001010,연세슬기병원,서울특별시 성동구 도선동 365-1,서울특별시 성동구 무학로2길 8,37.56428346,127.03065520000001,성동구,왕십리도선동,성동구 왕십리도선동
2020,영업중,0,0,0,19811201,의료법인 제일의료재단 제일병원,서울특별시 중구 묵정동 1-1,서울특별시 중구 퇴계로 244-16,37.562017600000004,126.99913729999999,중구,필동,중구 필동
2020,영업중,0,0,0,19840403,금강아산병원(재단법인 아산사회복지재단),서울특별시 용산구 이촌동 301-2,서울특별시 용산구 이촌로88길 8,37.51812019,126.97795570000001,용산구,이촌1동,용산구 이촌1동
2020,영업중,0,0,0,19780223,순천향대학교 부속 서울병원,서울특별시 용산구 한남동 657-1,서울특별시 용산구 대사관로11길 50,37.53593905,127.0016253,용산구,한남동,용산구 한남동
2020,영업중,0,0,0,19820421,소화병원(의료법인 소화병원),서울특별시 용산구 서계동 224-1,서울특별시 용산구 청파로93길 22,37.55428402,126.96761880000001,용산구,청파동,용산구 청파동
2020,영업중,0,0,0,20171123,9988병원,서울특별시 성동구 행당동 130-1,서울특별시 성동구 왕십리로 267,37.558609000000004,127.03800109999999,성동구,행당1동,성동구 행당1동
2020,영업중,0,0,0,20050811,서울특별시장애인치과병원,서울특별시 성동구 홍익동 102,서울특별시 성동구 마장로 207,37.56673763,127.0327712,성동구,왕십리도선동,성동구 왕십리도선동
2020,영업중,0,0,0,20160216,시온요양병원,서울특별시 성동구 용답동 235-1,서울특별시 성동구 천호대로 430,37.56081063,127.0665288,성동구,용답동,성동구 용답동
2020,영업중,0,0,0,20120530,연세무척나은병원,서울특별시 광진구 능동 222-1,서울특별시 광진구 천호대로 566,37.55633043,127.08059440000001,광진구,능동,광진구 능동
2020,영업중,0,0,0,20190701,편안한요양병원,서울특별시 광진구 자양동 685,서울특별시 광진구 자양로 38,37.53158872,127.0864567,광진구,자양2동,광진구 자양2동
2020,영업중,0,0,0,20120816,서울프라임병원,서울특별시 광진구 자양동 24-1,서울특별시 광진구 아차산로22길 14,37.54131991,127.0641105,광진구,자양4동,광진구 자양4동
2020,영업중,0,0,0,20171211,동부참사랑요양병원,서울특별시 광진구 화양동 24-1,서울특별시 광진구 동일로 164,37.54671057,127.0668453,광진구,화양동,광진구 화양동
2020,영업중,0,0,0,19620201,국립정신건강센터,서울특별시 광진구 중곡동 30-1,서울특별시 광진구 용마산로 127,37.56500388,127.0857669,광진구,중곡3동,광진구 중곡3동
2020,영업중,0,0,0,19821116,건국대학교병원,서울특별시 광진구 화양동 4-1,서울특별시 광진구 능동로 120-1,37.54079564,127.0732183,광진구,화양동,광진구 화양동
2020,영업중,0,0,0,20040611,광진예치과병원,서울특별시 광진구 능동 276-2,서울특별시 광진구 천호대로 556,37.55670183,127.07967659999998,광진구,능동,광진구 능동
2020,영업중,0,0,0,19720424,한양대학교병원,서울특별시 성동구 사근동 110,서울특별시 성동구 왕십리로 220,37.55764185,127.0472584,성동구,사근동,성동구 사근동
2020,영업중,0,0,0,20070430,리안요양병원,서울특별시 광진구 자양동 25-2,서울특별시 광진구 동일로 82-1,37.53993248,127.063075,광진구,자양4동,광진구 자양4동
2020,영업중,0,0,0,20080118,에스(S)리더치과병원,서울특별시 광진구 화양동 6-1,서울특별시 광진구 능동로 103,37.54036924,127.07050090000001,광진구,화양동,광진구 화양동
2020,영업중,0,0,0,20111226,바른본병원,서울특별시 광진구 군자동 27-1,서울특별시 광진구 능동로23길 36,37.55320406,127.07580130000001,광진구,군자동,광진구 군자동
2020,영업중,0,0,0,20020111,서울명병원,서울특별시 동대문구 용두동 45-1,서울특별시 동대문구 고산자로 421,37.57737125,127.03796170000001,동대문구,용신동,동대문구 용신동
2020,영업중,0,0,0,20160127,올바른서울병원,서울특별시 강동구 천호동 51-1,서울특별시 강동구 양재대로121길 7,37.54229378,127.1410608,강동구,천호3동,강동구 천호3동
2020,영업중,0,0,0,20030730,코리아병원,서울특별시 동대문구 장안동 306-4,서울특별시 동대문구 장한로 143,37.57319761,127.0715189,동대문구,장안2동,동대문구 장안2동
2020,영업중,0,0,0,20150316,멘토스병원,서울특별시 동대문구 답십리동 2-17,서울특별시 동대문구 한천로 67,37.56767177,127.0627142,동대문구,답십리2동,동대문구 답십리2동
2020,영업중,0,0,0,19711005,경희대학교치과병원,서울특별시 동대문구 회기동 1-1,서울특별시 동대문구 회기로25길 31,37.59206389,127.05545459999999,동대문구,회기동,동대문구 회기동
2020,영업중,0,0,0,19821008,동서울병원,서울특별시 동대문구 용두동 14-4,서울특별시 동대문구 왕산로 156,37.57848294,127.0406946,동대문구,용신동,동대문구 용신동
2020,영업중,0,0,0,20160923,대한민국요양병원,서울특별시 동대문구 장안동 313-1,서울특별시 동대문구 장한로28가길 129,37.57861408,127.0726832,동대문구,장안2동,동대문구 장안2동
2020,영업중,0,0,0,20170426,지혜병원,서울특별시 동대문구 장안동 464-1,서울특별시 동대문구 장한로 6,37.56183919,127.06540349999999,동대문구,장안1동,동대문구 장안1동
2020,영업중,0,0,0,20191030,엘치과병원,서울특별시 동대문구 답십리동 94-1,서울특별시 동대문구 전농로 110,37.57457325,127.0578462,동대문구,답십리2동,동대문구 답십리2동
2020,영업중,0,0,0,20000929,의료법인마리아의료재단마리아병원,서울특별시 동대문구 신설동 93-19,서울특별시 동대문구 하정로 22,37.57298577,127.02696840000002,동대문구,용신동,동대문구 용신동
2020,영업중,0,0,0,20190714,행복닥터스요양병원,서울특별시 동대문구 제기동 892-1,서울특별시 동대문구 약령서길 131,37.58418322,127.0367533,동대문구,제기동,동대문구 제기동
2020,영업중,0,0,0,19711005,경희대학교병원,서울특별시 동대문구 회기동 1-5,서울특별시 동대문구 경희대로3길 56,37.59670322,127.0513687,동대문구,회기동,동대문구 회기동
2020,영업중,0,0,0,20200828,서울유병원,서울특별시 강북구 미아동 460-110,서울특별시 강북구 도봉로 77,37.61609737,127.02964240000001,강북구,송천동,강북구 송천동
2020,영업중,0,0,0,20120824,하늘병원,서울특별시 동대문구 답십리동 492-1,서울특별시 동대문구 천호대로 313,37.56540494,127.0552585,동대문구,답십리1동,동대문구 답십리1동
2020,영업중,0,0,0,20020801,서울특별시 동부병원,서울특별시 동대문구 용두동 237-15,서울특별시 동대문구 왕산로22길 72,37.57611191,127.0319898,동대문구,용신동,동대문구 용신동
2020,영업중,0,0,0,20031222,시카고치과병원,서울특별시 동대문구 신설동 94-35,서울특별시 동대문구 하정로 4,37.5714119,127.0270067,동대문구,용신동,동대문구 용신동
2020,영업중,0,0,0,20070504,신우요양병원,서울특별시 동대문구 전농동 1-1,서울특별시 동대문구 한천로 229,37.5813732,127.06844650000001,동대문구,장안2동,동대문구 장안2동
2020,영업중,0,0,0,20110329,날개병원,서울특별시 동대문구 용두동 740-1,서울특별시 동대문구 무학로 193-1,37.58160517,127.0294422,동대문구,용신동,동대문구 용신동
2020,영업중,0,0,0,20111122,린여성병원,서울특별시 동대문구 장안동 370-1,서울특별시 동대문구 답십리로 266,37.57222481,127.06981019999999,동대문구,장안1동,동대문구 장안1동
2020,영업중,0,0,0,20090212,영동병원,서울특별시 동대문구 장안동 413-1,서울특별시 동대문구 한천로 4,37.56325042,127.0585201,동대문구,장안1동,동대문구 장안1동
2020,영업중,0,0,0,20110310,서울나은병원,서울특별시 동대문구 제기동 1046-1,서울특별시 동대문구 고산자로36길 4,37.57873999,127.038693,동대문구,제기동,동대문구 제기동
2020,영업중,0,0,0,20130422,의료법인 우리아이들 의료재단 우리아이들병원,서울특별시 구로구 구로동 586-1,서울특별시 구로구 구로중앙로 174,37.50235663,126.8818065,구로구,구로5동,구로구 구로5동
2020,영업중,0,0,0,20111122,디앤에프병원,서울특별시 중랑구 중화동 144,서울특별시 중랑구 봉화산로24길 4,37.60157825,127.0830977,중랑구,중화1동,중랑구 중화1동
2020,영업중,0,0,0,19851113,혜민병원,서울특별시 광진구 자양동 627,서울특별시 광진구 자양로13길 13,37.53530847,127.0831838,광진구,자양1동,광진구 자양1동
2020,영업중,0,0,0,20021025,장스여성병원,서울특별시 중랑구 망우동 488-8,서울특별시 중랑구 용마산로117길 49,37.59971925,127.09755430000001,중랑구,망우본동,중랑구 망우본동
2020,영업중,0,0,0,20170113,면력한방병원,서울특별시 강서구 마곡동 731-7,서울특별시 강서구 방화대로34길 55,37.57024908,126.81927140000002,강서구,방화1동,강서구 방화1동
2020,영업중,0,0,0,20101210,로하스동서울요양병원,서울특별시 중랑구 신내동 666,서울특별시 중랑구 봉화산로 194,37.60641705,127.0947033,중랑구,신내2동,중랑구 신내2동
2020,영업중,0,0,0,20070322,조앤조병원,서울특별시 중랑구 망우동 207-1,서울특별시 중랑구 망우로 474,37.60026614,127.10469109999998,중랑구,망우본동,중랑구 망우본동
2020,영업중,0,0,0,20181022,씨티칼리지요양병원,서울특별시 강남구 논현동 94,서울특별시 강남구 도산대로 334,37.5225967,127.0385115,강남구,논현2동,강남구 논현2동
2020,영업중,0,0,0,20200831,새숨병원,서울특별시 송파구 문정동 383-2,서울특별시 송파구 정의로 30,37.48176792,127.11546270000001,송파구,문정2동,송파구 문정2동
2020,영업중,0,0,0,20141022,성북웰니스요양병원,서울특별시 성북구 보문동4가 18,서울특별시 성북구 보문동4가 보문로 86,37.58299697,127.0209506,성북구,보문동,성북구 보문동
2020,영업중,0,0,0,20170331,더서울병원,서울특별시 성북구 동선동4가 53,서울특별시 성북구 동선동4가 아리랑로 16,37.59422641,127.01649350000001,성북구,동선동,성북구 동선동
2020,영업중,0,0,0,19851202,사회복지법인 성가소비녀회 성가복지병원,서울특별시 성북구 하월곡동 88-1,서울특별시 성북구 동소문로46길 31,37.60725194,127.03084479999998,성북구,길음2동,성북구 길음2동
2020,영업중,0,0,0,20150313,새마음요양병원,서울특별시 성북구 정릉동 16,서울특별시 성북구 동소문로 215,37.6014739,127.0216831,성북구,정릉1동,성북구 정릉1동
2020,영업중,0,0,0,20180124,성북서울요양병원,서울특별시 성북구 종암동 25-1,서울특별시 성북구 종암로5길 9-2,37.59435547,127.0350838,성북구,종암동,성북구 종암동
2020,영업중,0,0,0,20041201,중앙대학교병원,서울특별시 동작구 흑석동 224-1,서울특별시 동작구 서달로 151,37.50703813,126.96083840000001,동작구,흑석동,동작구 흑석동
2020,영업중,0,0,0,19740924,대림성모병원,서울특별시 영등포구 대림동 962-4,서울특별시 영등포구 시흥대로 659,37.49087431,126.90758229999999,영등포구,대림1동,영등포구 대림1동
2020,영업중,0,0,0,20200728,그레이스힐 요양병원,서울특별시 노원구 상계동 366-4,서울특별시 노원구 노원로 461,37.65732811,127.06542140000002,노원구,상계2동,노원구 상계2동
2020,영업중,0,0,0,20191015,꿈의숲요양병원,서울특별시 강북구 번동 105,서울특별시 강북구 월계로 183,37.62039621,127.04507659999999,강북구,번3동,강북구 번3동
2020,영업중,0,0,0,20080414,민병원,서울특별시 강북구 미아동 317-1,서울특별시 강북구 도봉로 161,37.62314179,127.02698240000001,강북구,송천동,강북구 송천동
2020,영업중,0,0,0,20090814,현인요양병원,서울특별시 강북구 수유동 521-57,서울특별시 강북구 삼각산로 20,37.63860953,127.0066406,강북구,인수동,강북구 인수동
2020,영업중,0,0,0,20070117,효성요양병원,서울특별시 강북구 미아동 734,서울특별시 강북구 삼양로38다길 18,37.62170527,127.0219747,강북구,송천동,강북구 송천동
2020,영업중,0,0,0,20070801,포근한요양병원,서울특별시 강북구 미아동 189-1,서울특별시 강북구 도봉로76길 10,37.63273783,127.02425990000002,강북구,미아동,강북구 미아동
2020,영업중,0,0,0,20100324,서울현대병원,서울특별시 강북구 번동 463-1,서울특별시 강북구 도봉로96길 12,37.64041222,127.0293183,강북구,번1동,강북구 번1동
2020,영업중,0,0,0,20121012,강북우리들병원,서울특별시 강북구 수유동 188-1,서울특별시 강북구 한천로 1083,37.64254307,127.02263640000001,강북구,수유3동,강북구 수유3동
2020,영업중,0,0,0,20141121,서울좋은병원,서울특별시 강북구 미아동 228-44,서울특별시 강북구 도봉로24길 16-8,37.61929409,127.0300568,강북구,송중동,강북구 송중동
2020,영업중,0,0,0,20180319,강북휴요양병원,서울특별시 강북구 미아동 317-1,서울특별시 강북구 도봉로 161,37.62314179,127.02698240000001,강북구,송천동,강북구 송천동
2020,영업중,0,0,0,19950720,경희치과병원,서울특별시 강북구 번동 418-1,서울특별시 강북구 도봉로 358,37.63924062,127.0273111,강북구,번1동,강북구 번1동
2020,영업중,0,0,0,19820329,의료법인성화의료재단  대한병원,서울특별시 강북구 수유동 45-1,서울특별시 강북구 노해로 3,37.63589311,127.0226628,강북구,인수동,강북구 인수동
2020,영업중,0,0,0,19820522,신일병원,서울특별시 강북구 수유동 47-1,서울특별시 강북구 도봉로81길 3,37.63511137,127.0228965,강북구,인수동,강북구 인수동
2020,영업중,0,0,0,20150813,베이직병원,서울특별시 도봉구 쌍문동 508-1,서울특별시 도봉구 삼양로 610,37.65741542,127.0139861,도봉구,쌍문1동,도봉구 쌍문1동
2020,영업중,0,0,0,20050502,로덴성문치과병원,서울특별시 도봉구 쌍문동 657,서울특별시 도봉구 도봉로 569,37.65586658,127.038552,도봉구,쌍문2동,도봉구 쌍문2동
2020,영업중,0,0,0,20050516,바로선병원,서울특별시 도봉구 창동 749,서울특별시 도봉구 도봉로 634,37.66083931,127.0423314,도봉구,창5동,도봉구 창5동
2020,영업중,0,0,0,20060705,스카이요양병원,서울특별시 도봉구 방학동 669,서울특별시 도봉구 방학로 183,37.66190141,127.0320956,도봉구,방학3동,도봉구 방학3동
2020,영업중,0,0,0,20070522,퍼스트요양병원,서울특별시 도봉구 쌍문동 509-1,서울특별시 도봉구 삼양로 616,37.6579864,127.0141072,도봉구,쌍문1동,도봉구 쌍문1동
2020,영업중,0,0,0,20120727,성모샘병원,서울특별시 도봉구 방학동 703,서울특별시 도봉구 방학로2길 82,37.66654585,127.04102730000001,도봉구,방학1동,도봉구 방학1동
2020,영업중,0,0,0,20160629,서울사랑요양병원,서울특별시 도봉구 쌍문동 503-1,서울특별시 도봉구 삼양로 586,37.6553605,127.01336,도봉구,쌍문1동,도봉구 쌍문1동
2020,영업중,0,0,0,20190326,샤인치과교정과 치과병원,서울특별시 노원구 상계동 724,서울특별시 노원구 노해로 488,37.65431164,127.06213000000001,노원구,상계6.7동,노원구 상계6.7동
2020,영업중,0,0,0,20190225,파로스병원,서울특별시 노원구 상계동 301-6,서울특별시 노원구 노원로 416,37.65370443,127.06786979999998,노원구,상계2동,노원구 상계2동
2020,영업중,0,0,0,20160310,강북연세병원,서울특별시 노원구 공릉동 617-1,서울특별시 노원구 동일로 1004,37.61978937,127.0752513,노원구,공릉1동,노원구 공릉1동
2020,영업중,0,0,0,20060411,기쁨병원,서울특별시 서초구 서초동 1426-1,서울특별시 서초구 서초중앙로 4,37.48277904,127.01799399999999,서초구,서초1동,서초구 서초1동
2020,영업중,0,0,0,20160823,더조은요양병원,서울특별시 노원구 월계동 50-1,서울특별시 노원구 화랑로 323,37.61486252,127.06360190000001,노원구,월계1동,노원구 월계1동
2020,영업중,0,0,0,20170608,의료법인 행복나눔의료재단 사랑요양병원,서울특별시 노원구 상계동 1142-2,서울특별시 노원구 동일로243길 48,37.67878786,127.0524293,노원구,상계1동,노원구 상계1동
2020,영업중,0,0,0,20120516,로이병원,서울특별시 종로구 평창동 158-1,서울특별시 종로구 평창문화로 75,37.60680976,126.96919129999999,종로구,평창동,종로구 평창동
2020,영업중,0,0,0,20100120,다인치과병원,서울특별시 노원구 상계동 292-1,서울특별시 노원구 노해로 503-2,37.65533089,127.06373470000001,노원구,상계2동,노원구 상계2동
2020,영업중,0,0,0,20120905,참튼튼병원,서울특별시 노원구 상계동 723,서울특별시 노원구 노해로 502,37.65444168,127.06366440000001,노원구,상계6.7동,노원구 상계6.7동
2020,영업중,0,0,0,20130104,재단법인자생의료재단노원자생한방병원,서울특별시 노원구 상계동 292-1,서울특별시 노원구 노해로 503-2,37.65533089,127.06373470000001,노원구,상계2동,노원구 상계2동
2020,영업중,0,0,0,20130201,노원솔요양병원,서울특별시 노원구 중계동 160,서울특별시 노원구 덕릉로 692,37.65936589,127.0757113,노원구,중계4동,노원구 중계4동
2020,영업중,0,0,0,20140404,희망요양병원,서울특별시 노원구 상계동 387-10,서울특별시 노원구 상계로 146,37.65837176,127.07073500000001,노원구,상계2동,노원구 상계2동
2020,영업중,0,0,0,20020816,태능성심요양병원,서울특별시 노원구 공릉동 680-1,서울특별시 노원구 동일로 987,37.618393299999994,127.07476509999998,노원구,공릉1동,노원구 공릉1동
2020,영업중,0,0,0,20040102,강북예치과병원,서울특별시 노원구 상계동 727,서울특별시 노원구 노해로 482,37.65421785,127.06170530000001,노원구,상계6.7동,노원구 상계6.7동
2020,영업중,0,0,0,20041019,햇빛병원,서울특별시 강북구 미아동 67-1,서울특별시 강북구 도봉로 74,37.61572107,127.0301953,강북구,송중동,강북구 송중동
2020,영업중,0,0,0,20051215,방병원,서울특별시 노원구 공릉동 680-1,서울특별시 노원구 동일로 987,37.618393299999994,127.07476509999998,노원구,공릉1동,노원구 공릉1동
2020,영업중,0,0,0,20150716,노원 바로유 한방병원,서울특별시 노원구 상계동 366-1,서울특별시 노원구 노원로 466,37.65799213,127.0659821,노원구,상계2동,노원구 상계2동
2020,영업중,0,0,0,19890814,인제대학교 상계백병원,서울특별시 노원구 상계동 762,서울특별시 노원구 덕릉로70가길 96,37.64239595,127.05590659999999,노원구,상계6.7동,노원구 상계6.7동
2020,영업중,0,0,0,20060810,목동힘찬병원,서울특별시 양천구 목동 404-1,서울특별시 양천구 오목로 359,37.52460448,126.8773291,양천구,목1동,양천구 목1동
2020,영업중,0,0,0,20200203,이우요양병원,서울특별시 은평구 불광동 221-1,서울특별시 은평구 불광로 137,37.61890889,126.9324979,은평구,불광1동,은평구 불광1동
2020,영업중,0,0,0,20200311,강북으뜸병원,서울특별시 강북구 미아동 304-1,서울특별시 강북구 도봉로 193,37.62603859,127.02593519999999,강북구,미아동,강북구 미아동
2020,영업중,0,0,0,20110414,부민병원,서울특별시 강서구 등촌동 657,서울특별시 강서구 공항대로 389,37.55682871,126.8509697,강서구,등촌3동,강서구 등촌3동
2020,영업중,0,0,0,20190906,은평요양병원,서울특별시 은평구 갈현동 390-1,서울특별시 은평구 통일로 937,37.62661966,126.9196217,은평구,갈현1동,은평구 갈현1동
2020,영업중,0,0,0,19610515,가톨릭대학교 은평성모병원,서울특별시 은평구 진관동 55,서울특별시 은평구 진관3로 15-35,37.64217518,126.9183748,은평구,진관동,은평구 진관동
2020,영업중,0,0,0,19601124,서울특별시서북병원,서울특별시 은평구 역촌동 산 31-1,서울특별시 은평구 갈현로7길 49-1,37.60429703,126.90368810000001,은평구,역촌동,은평구 역촌동
2020,영업중,0,0,0,20090323,노블요양병원,서울특별시 은평구 응암동 104-1,서울특별시 은평구 응암로34길 10,37.59813828,126.9218288,은평구,응암1동,은평구 응암1동
2020,영업중,0,0,0,20110610,최원호병원,서울특별시 은평구 녹번동 153-1,서울특별시 은평구 서오릉로 63,37.60570162,126.92304140000002,은평구,녹번동,은평구 녹번동
2020,영업중,0,0,0,20110715,연세에덴요양병원,서울특별시 은평구 녹번동 27-2,서울특별시 은평구 녹번로6길 5-24,37.60647677,126.93234059999999,은평구,녹번동,은평구 녹번동
2020,영업중,0,0,0,20120312,로하스은평효요양병원,서울특별시 은평구 구산동 1-19,서울특별시 은평구 연서로 137,37.61143968,126.9168493,은평구,구산동,은평구 구산동
2020,영업중,0,0,0,20160107,21C메트로한방병원,서울특별시 은평구 신사동 8-1,서울특별시 은평구 갈현로2길 6,37.60033665,126.910877,은평구,신사1동,은평구 신사1동
2020,영업중,0,0,0,20170929,리드힐병원,서울특별시 은평구 역촌동 44-1,서울특별시 은평구 연서로2길 6,37.60073486,126.9168269,은평구,역촌동,은평구 역촌동
2020,영업중,0,0,0,19970221,인정병원,서울특별시 은평구 응암동 603-1,서울특별시 은평구 응암로4길 25,37.58717331,126.9172424,은평구,응암3동,은평구 응암3동
2020,영업중,0,0,0,19980421,서울재활병원,서울특별시 은평구 구산동 191-1,서울특별시 은평구 갈현로11가길 7-16,37.60566643,126.9067887,은평구,구산동,은평구 구산동
2020,영업중,0,0,0,20020625,서울병원,서울특별시 은평구 대조동 15-1,서울특별시 은평구 통일로 719-2,37.60983073,126.93024150000001,은평구,대조동,은평구 대조동
2020,영업중,0,0,0,20040324,연세노블병원,서울특별시 은평구 녹번동 154-1,서울특별시 은평구 서오릉로 41,37.60451445,126.92413459999999,은평구,녹번동,은평구 녹번동
2020,영업중,0,0,0,20140307,한국효요양병원,서울특별시 은평구 응암동 96-1,서울특별시 은평구 은평로 170,37.60119644,126.92687679999999,은평구,응암1동,은평구 응암1동
2020,영업중,0,0,0,20060803,문치과병원,서울특별시 은평구 대조동 187-1,서울특별시 은평구 통일로 821,37.61681693,126.92289309999998,은평구,대조동,은평구 대조동
2020,영업중,0,0,0,20070601,양천효요양병원,서울특별시 양천구 신정동 942-1,서울특별시 양천구 오목로23길 11-2,37.52526547,126.8509244,양천구,신정4동,양천구 신정4동
2020,영업중,0,0,0,20160121,의료법인 성누가의료재단 성누가병원,서울특별시 은평구 불광동 281-7,서울특별시 은평구 불광로 54,37.61180652,126.9315692,은평구,불광1동,은평구 불광1동
2020,영업중,0,0,0,20150713,라이브치과병원,서울특별시 강남구 역삼동 604-1,서울특별시 강남구 논현로105길 48,37.50558631,127.0302409,강남구,역삼1동,강남구 역삼1동
2020,영업중,0,0,0,20060807,은평연세병원,서울특별시 은평구 갈현동 462-1,서울특별시 은평구 연서로 175,37.61448714,126.91736370000001,은평구,갈현2동,은평구 갈현2동
2020,영업중,0,0,0,20070411,하나효요양병원,서울특별시 은평구 구산동 2-1,서울특별시 은평구 서오릉로 151,37.61175464,126.91594540000001,은평구,구산동,은평구 구산동
2020,영업중,0,0,0,19800128,의료법인 청구성심병원,서울특별시 은평구 갈현동 395-1,서울특별시 은평구 통일로 873,37.62077785,126.9195294,은평구,갈현1동,은평구 갈현1동
2020,영업중,0,0,0,19911230,서울성심병원,서울특별시 동대문구 청량리동 40,서울특별시 동대문구 제기로38길 29,37.58464236,127.0499689,동대문구,청량리동,동대문구 청량리동
2020,영업중,0,0,0,20160602,효담요양병원,서울특별시 서대문구 홍은동 437-1,서울특별시 서대문구 통일로 544,37.59625573,126.9395747,서대문구,홍은1동,서대문구 홍은1동
2020,영업중,0,0,0,20150701,잎사귀치과병원,서울특별시 서대문구 창천동 53-47,서울특별시 서대문구 연세로5길 26,37.55656189,126.93540929999999,서대문구,신촌동,서대문구 신촌동
2020,영업중,0,0,0,20150126,제이여성병원,서울특별시 서대문구 홍제동 251,서울특별시 서대문구 통일로 442-11,37.58867953,126.9452459,서대문구,홍제3동,서대문구 홍제3동
2020,영업중,0,0,0,20160323,푸르메재단 넥슨어린이재활병원,서울특별시 마포구 상암동 1738,서울특별시 마포구 월드컵북로 494,37.58465012,126.88053640000001,마포구,상암동,마포구 상암동
2020,영업중,0,0,0,20150811,가자연세병원,서울특별시 서대문구 남가좌동 102-54,서울특별시 서대문구 모래내로13길 9-8,37.56937984,126.91643470000001,서대문구,남가좌1동,서대문구 남가좌1동
2020,영업중,0,0,0,20080501,한걸음요양병원,서울특별시 중랑구 상봉2동 101,서울특별시 중랑구 망우로 316,37.59647603,127.0875092,중랑구,상봉2동,중랑구 상봉2동
2020,영업중,0,0,0,20060220,강북연세요양병원,서울특별시 서대문구 연희동 192-1,서울특별시 서대문구 연희로11가길 43,37.56656223,126.92785890000002,서대문구,연희동,서대문구 연희동
2020,영업중,0,0,0,19740401,학교법인연세대학교치과대학치과병원,서울특별시 서대문구 신촌동 134,서울특별시 서대문구 연세로 50-1,37.5646889,126.9394717,서대문구,신촌동,서대문구 신촌동
2020,영업중,0,0,0,20171228,연세한강병원,서울특별시 마포구 마포동 33-1,서울특별시 마포구 마포대로 25,37.53941284,126.9447721,마포구,용강동,마포구 용강동
2020,영업중,0,0,0,20200207,메디람한방병원,서울특별시 마포구 서교동 353-1,서울특별시 마포구 양화로 133,37.55529651,126.9209558,마포구,서교동,마포구 서교동
2020,영업중,0,0,0,20200217,세솟는정형외과병원,서울특별시 마포구 신수동 81-1,서울특별시 마포구 백범로 32,37.55180614,126.93746580000001,마포구,대흥동,마포구 대흥동
2020,영업중,0,0,0,20190711,마포요양병원,서울특별시 마포구 성산동 275-1,서울특별시 마포구 성산로 124,37.56385777,126.9074615,마포구,성산1동,마포구 성산1동
2020,영업중,0,0,0,19940401,유광사여성병원,서울특별시 강서구 화곡동 1031,서울특별시 강서구 강서로 202,37.54421011,126.83823159999999,강서구,우장산동,강서구 우장산동
2020,영업중,0,0,0,19950119,혜당한방병원,서울특별시 마포구 합정동 363-1,서울특별시 마포구 독막로 38,37.54788296,126.9174835,마포구,합정동,마포구 합정동
2020,영업중,0,0,0,19991124,신촌연세병원,서울특별시 마포구 신수동 66-1,서울특별시 마포구 서강로 106,37.5524528,126.9336355,마포구,신수동,마포구 신수동
2020,영업중,0,0,0,20120803,에스엠씨요양병원,서울특별시 마포구 성산동 200,서울특별시 마포구 새터산길 9,37.56522005,126.90693940000001,마포구,성산2동,마포구 성산2동
2020,영업중,0,0,0,20130717,네모치과병원,서울특별시 마포구 동교동 166-1,서울특별시 마포구 양화로 178,37.55751821,126.9251254,마포구,서교동,마포구 서교동
2020,영업중,0,0,0,20130821,한그루치과병원,서울특별시 마포구 도화동 566,서울특별시 마포구 마포대로 78,37.541906299999994,126.94977730000001,마포구,도화동,마포구 도화동
2020,영업중,0,0,0,20110318,맑은수병원,서울특별시 동대문구 장안동 431-1,서울특별시 동대문구 천호대로83길 46,37.56408263,127.06561599999999,동대문구,장안1동,동대문구 장안1동
2020,영업중,0,0,0,19920411,성신병원,서울특별시 강북구 미아동 304-1,서울특별시 강북구 도봉로 193,37.62603859,127.02593519999999,강북구,미아동,강북구 미아동
2020,영업중,0,0,0,20120904,라온휴병원,서울특별시 양천구 신월동 550-1,서울특별시 양천구 신월로 160,37.51750521,126.84158400000001,양천구,신월6동,양천구 신월6동
2020,영업중,0,0,0,20191213,서울스마트요양병원,서울특별시 양천구 신정동 1268,서울특별시 양천구 중앙로 181,37.51274219,126.85577430000001,양천구,신정3동,양천구 신정3동
2020,영업중,0,0,0,20070614,햇살요양병원,서울특별시 동대문구 장안동 309-1,서울특별시 동대문구 장한로 152,37.57402516,127.07217879999999,동대문구,장안2동,동대문구 장안2동
2020,영업중,0,0,0,19930820,홍익병원,서울특별시 양천구 신정동 899-1,서울특별시 양천구 목동로 225,37.52847874,126.86363659999999,양천구,신정4동,양천구 신정4동
2020,영업중,0,0,0,20160429,솔빛한방병원,서울특별시 양천구 신월동 546-3,서울특별시 양천구 신월로9길 10,37.51819407,126.8399196,양천구,신월4동,양천구 신월4동
2020,영업중,0,0,0,20180530,목동제일여성병원,서울특별시 양천구 신정동 943-1,서울특별시 양천구 중앙로 312,37.5239466,126.85129620000001,양천구,신정4동,양천구 신정4동
2020,영업중,0,0,0,19971215,목동예치과병원,서울특별시 양천구 신정동 907-1,서울특별시 양천구 은행정로 70,37.52582419,126.85911570000002,양천구,신정4동,양천구 신정4동
2020,영업중,0,0,0,20010402,메디힐병원,서울특별시 양천구 신월동 51-1,서울특별시 양천구 화곡로4길 22,37.53749519,126.827886,양천구,신월5동,양천구 신월5동
2020,영업중,0,0,0,20021231,이엔이치과병원,서울특별시 양천구 신정동 888-1,서울특별시 양천구 신정중앙로21길 12-3,37.52730732,126.8619455,양천구,신정4동,양천구 신정4동
2020,영업중,0,0,0,20040628,의료법인해인의료재단 동신한방병원,서울특별시 양천구 목동 404-1,서울특별시 양천구 오목로 359,37.52460448,126.8773291,양천구,목1동,양천구 목1동
2020,영업중,0,0,0,20020918,다일천사병원,서울특별시 동대문구 전농동 497-1,서울특별시 동대문구 서울시립대로7길 8,37.57736628,127.0480963,동대문구,전농1동,동대문구 전농1동
2020,영업중,0,0,0,20090519,목동중앙치과병원,서울특별시 양천구 신정동 318,서울특별시 양천구 목동서로 271,37.52291107,126.8695173,양천구,신정6동,양천구 신정6동
2020,영업중,0,0,0,20100219,재단법인자생의료재단목동자생한방병원,서울특별시 양천구 목동 404-1,서울특별시 양천구 오목로 359,37.52460448,126.8773291,양천구,목1동,양천구 목1동
2020,영업중,0,0,0,20110328,서울특별시서남병원,서울특별시 양천구 신정동 1320,서울특별시 양천구 신정이펜2로 20,37.51273989,126.8322321,양천구,신정3동,양천구 신정3동
2020,영업중,0,0,0,20120605,목동연세요양병원,서울특별시 양천구 신정동 994-1,서울특별시 양천구 오목로 236,37.52586806,126.86369109999998,양천구,신정4동,양천구 신정4동
2020,영업중,0,0,0,20200918,치휴한방병원,서울특별시 강남구 도곡동 542,서울특별시 강남구 도곡로 216,37.49257469,127.0427267,강남구,도곡1동,강남구 도곡1동
2020,영업중,0,0,0,20190614,강서바른세상병원,서울특별시 강서구 방화동 606-1,서울특별시 강서구 금낭화로1길 30,37.56617838,126.81020729999999,강서구,방화2동,강서구 방화2동
2020,영업중,0,0,0,20190618,에스앤유서울병원,서울특별시 강서구 마곡동 731,서울특별시 강서구 방화대로44길 55,37.57067323,126.8186028,강서구,방화1동,강서구 방화1동
2020,영업중,0,0,0,20190318,하나로한방병원,서울특별시 강서구 화곡동 1065,서울특별시 강서구 화곡로25길 8,37.54156861,126.8382928,강서구,화곡3동,강서구 화곡3동
2020,영업중,0,0,0,20070823,서울스타병원,서울특별시 강서구 내발산동 678,서울특별시 강서구 공항대로36길 97,37.55423095,126.8361568,강서구,발산1동,강서구 발산1동
2020,영업중,0,0,0,20140411,새미래요양병원,서울특별시 강서구 화곡동 786-1,서울특별시 강서구 곰달래로60가길 23,37.530052000000005,126.86187679999999,강서구,화곡4동,강서구 화곡4동
2020,영업중,0,0,0,20150311,강서수한방병원,서울특별시 강서구 화곡동 938-1,서울특별시 강서구 곰달래로 66,37.52997898,126.8400767,강서구,화곡1동,강서구 화곡1동
2020,영업중,0,0,0,20160919,365강서수요양병원,서울특별시 강서구 방화동 769-26,서울특별시 강서구 양천로 31,37.57300585,126.80729380000001,강서구,방화1동,강서구 방화1동
2020,영업중,0,0,0,20170111,에이스한방병원,서울특별시 강서구 등촌동 700,서울특별시 강서구 공항대로41길 34,37.55928898,126.8457054,강서구,등촌3동,강서구 등촌3동
2020,영업중,0,0,0,20040624,솔병원,서울특별시 강서구 방화동 273-1,서울특별시 강서구 방화대로 352,37.57243146,126.81746650000001,강서구,방화1동,강서구 방화1동
2020,영업중,0,0,0,20090717,더와이즈치과병원,서울특별시 강서구 화곡동 114-8,서울특별시 강서구 화곡로 188-1,37.54239959,126.84239009999999,강서구,화곡본동,강서구 화곡본동
2020,영업중,0,0,0,20090924,의료법인 나누리병원,서울특별시 강서구 화곡동 377-1,서울특별시 강서구 화곡로18길 52,37.53797486,126.8365091,강서구,화곡1동,강서구 화곡1동
2020,영업중,0,0,0,20100211,새빛요양병원,서울특별시 강서구 등촌동 664,서울특별시 강서구 공항대로41길 10,37.55838917,126.8451463,강서구,등촌3동,강서구 등촌3동
2020,영업중,0,0,0,20100308,서울대효병원,서울특별시 강서구 내발산동 701,서울특별시 강서구 강서로47가길 3,37.5525131,126.83569550000001,강서구,발산1동,강서구 발산1동
2020,영업중,0,0,0,20100903,강서힘찬병원,서울특별시 강서구 등촌동 671,서울특별시 강서구 강서로56길 38,37.55918706,126.84062759999999,강서구,등촌3동,강서구 등촌3동
2020,영업중,0,0,0,20120430,우리들병원,서울특별시 강서구 과해동 676,서울특별시 강서구 하늘길 76,37.56179823,126.7986332,강서구,공항동,강서구 공항동
2020,영업중,0,0,0,20120720,방화병원,서울특별시 강서구 방화동 572-2,서울특별시 강서구 양천로 88,37.57339803,126.81353519999999,강서구,방화1동,강서구 방화1동
2020,영업중,0,0,0,20081208,서울바로나치과병원,서울특별시 강서구 화곡동 1076,서울특별시 강서구 화곡로 174-2,37.54155057,126.84084840000001,강서구,화곡본동,강서구 화곡본동
2020,영업중,0,0,0,19860218,실로암안과병원,서울특별시 강서구 등촌동 512-1,서울특별시 강서구 등촌로 185,37.54649638,126.8622577,강서구,등촌2동,강서구 등촌2동
2020,영업중,0,0,0,20121010,참바른병원,서울특별시 강서구 등촌동 632,서울특별시 강서구 양천로 584,37.55602908,126.86341350000001,강서구,등촌1동,강서구 등촌1동
2020,영업중,0,0,0,20010801,참요양병원,서울특별시 강서구 화곡동 1052,서울특별시 강서구 강서로 188,37.54322107,126.83920320000001,강서구,우장산동,강서구 우장산동
2020,영업중,0,0,0,20030128,강서송도병원,서울특별시 강서구 등촌동 669,서울특별시 강서구 공항대로 311,37.55855871,126.8421878,강서구,등촌3동,강서구 등촌3동
2020,영업중,0,0,0,20030502,웰튼병원,서울특별시 강서구 내발산동 677,서울특별시 강서구 강서로 318,37.55401908,126.83711909999998,강서구,우장산동,강서구 우장산동
2020,영업중,0,0,0,20180731,서울큰나무병원,서울특별시 강서구 화곡동 1026,서울특별시 강서구 강서로 216,37.54509174,126.8373301,강서구,우장산동,강서구 우장산동
2020,영업중,0,0,0,20200206,모나리자요양병원,서울특별시 강서구 염창동 252,서울특별시 강서구 양천로73가길 60,37.54999499,126.8754173,강서구,염창동,강서구 염창동
2020,영업중,0,0,0,20010528,강서필병원,서울특별시 강서구 화곡동 349-1,서울특별시 강서구 강서로17가길 7-11,37.53310495,126.8439227,강서구,화곡1동,강서구 화곡1동
2020,영업중,0,0,0,20070808,의료법인 어울림의료재단 정성요양병원,서울특별시 구로구 가리봉동 137-1,서울특별시 구로구 남부순환로 1303,37.47881177,126.89562269999999,구로구,가리봉동,구로구 가리봉동
2020,영업중,0,0,0,20070910,강서효요양병원,서울특별시 구로구 개봉동 415,서울특별시 구로구 남부순환로95길 38-14,37.49500248,126.85644369999999,구로구,개봉2동,구로구 개봉2동
2020,영업중,0,0,0,20000124,미즈메디병원,서울특별시 강서구 내발산동 701,서울특별시 강서구 강서로47가길 3,37.5525131,126.83569550000001,강서구,발산1동,강서구 발산1동
2020,영업중,0,0,0,20061201,서울은빛요양병원,서울특별시 영등포구 양평동5가 121-1,서울특별시 영등포구 양평동5가 양평로22사길 9,37.5408331,126.89495020000001,영등포구,양평2동,영등포구 양평2동
2020,영업중,0,0,0,20190114,오케이요양병원,서울특별시 구로구 고척동 50,서울특별시 구로구 경인로47길 95-5,37.50283462,126.86362140000001,구로구,고척1동,구로구 고척1동
2020,영업중,0,0,0,20190130,리본병원,서울특별시 구로구 고척동 73-3,서울특별시 구로구 경인로 393-7,37.49744484,126.86310309999999,구로구,고척1동,구로구 고척1동
2020,영업중,0,0,0,20131001,아름제일병원,서울특별시 구로구 구로동 25,서울특별시 구로구 새말로 94,37.50545357,126.89043600000001,구로구,구로5동,구로구 구로5동
2020,영업중,0,0,0,20110909,예스병원,서울특별시 구로구 구로동 704-5,서울특별시 구로구 구로동로33길 5,37.49196092,126.8832118,구로구,구로2동,구로구 구로2동
2020,영업중,0,0,0,20180517,재단법인 제중의료복지재단 제중요양병원,서울특별시 구로구 구로동 552-1,서울특별시 구로구 공원로11길 18,37.50324604,126.8869625,구로구,구로5동,구로구 구로5동
2020,영업중,0,0,0,20180921,더세인트요양병원,서울특별시 구로구 오류동 55-5,서울특별시 구로구 경인로22길 32,37.49598027,126.8452972,구로구,오류1동,구로구 오류1동
2020,영업중,0,0,0,20140526,연세사랑모아여성병원,서울특별시 구로구 고척동 191-1,서울특별시 구로구 중앙로 100,37.50632833,126.8605977,구로구,고척2동,구로구 고척2동
2020,영업중,0,0,0,20190227,해달한방병원,서울특별시 구로구 오류동 44-1,서울특별시 구로구 경인로 195-1,37.49530203,126.84245609999999,구로구,오류1동,구로구 오류1동
2020,영업중,0,0,0,20160315,의료법인 서울효천의료재단 에이치플러스요양병원,서울특별시 구로구 구로동 44,서울특별시 구로구 공원로8길 24,37.50304035,126.89078070000001,구로구,구로5동,구로구 구로5동
2020,영업중,0,0,0,19920801,건양의료재단 김안과병원,서울특별시 영등포구 영등포동4가 156,서울특별시 영등포구 영등포동4가 영신로 136,37.51980163,126.90137,영등포구,영등포동,영등포구 영등포동
2020,영업중,0,0,0,20120709,삼성미래여성병원,서울특별시 구로구 오류동 159,서울특별시 구로구 서해안로 2296,37.49122112,126.8404017,구로구,오류2동,구로구 오류2동
2020,영업중,0,0,0,19830831,고려대학교의과대학부속구로병원,서울특별시 구로구 구로동 80,서울특별시 구로구 구로동로28길 33-31,37.49209752,126.8847203,구로구,구로2동,구로구 구로2동
2020,영업중,0,0,0,20000209,구로성심병원,서울특별시 구로구 고척동 76-1,서울특별시 구로구 중앙로 10-18,37.49990751,126.8664446,구로구,고척1동,구로구 고척1동
2020,영업중,0,0,0,19760903,의료법인다나의료재단구로다나병원,서울특별시 구로구 개봉동 353-1,서울특별시 구로구 경인로 330,37.49716718,126.8567703,구로구,개봉1동,구로구 개봉1동
2020,영업중,0,0,0,20070103,성지병원,서울특별시 금천구 가산동 151-1,서울특별시 금천구 남부순환로112길 31,37.47739238,126.89424790000001,금천구,가산동,금천구 가산동
2020,영업중,0,0,0,20101108,새움병원,서울특별시 금천구 독산동 150-1,서울특별시 금천구 시흥대로 457,37.47436782,126.897778,금천구,독산1동,금천구 독산1동
2020,영업중,0,0,0,20121226,성신고려요양병원,서울특별시 금천구 독산동 331-3,서울특별시 금천구 범안로17길 29-2,37.46798373,126.8937844,금천구,독산1동,금천구 독산1동
2020,영업중,0,0,0,20151202,서울바른세상병원,서울특별시 금천구 독산동 288-1,서울특별시 금천구 시흥대로 421,37.47116222,126.8976736,금천구,독산1동,금천구 독산1동
2020,영업중,0,0,0,20111021,서울대효병원,서울특별시 금천구 시흥동 883,서울특별시 금천구 시흥대로 232,37.45459215,126.900926,금천구,시흥1동,금천구 시흥1동
2020,영업중,0,0,0,19810709,서울대학교병원,서울특별시 종로구 연건동 28-2,서울특별시 종로구 명륜4가 대학로9가길 20,37.58072263,126.99945500000001,종로구,이화동,종로구 이화동
2020,영업중,0,0,0,19850621,희명병원,서울특별시 금천구 시흥동 882,서울특별시 금천구 시흥대로64길 35,37.45663794,126.9005564,금천구,시흥1동,금천구 시흥1동
2020,영업중,0,0,0,20190925,금천한방병원,서울특별시 금천구 시흥동 1031,서울특별시 금천구 시흥대로73길 67,37.45600498,126.89586270000001,금천구,시흥1동,금천구 시흥1동
2020,영업중,0,0,0,20160922,유디치과병원,서울특별시 영등포구 여의도동 35,서울특별시 영등포구 국제금융로6길 26,37.52192944,126.9269428,영등포구,여의동,영등포구 여의동
2020,영업중,0,0,0,20180726,시온한방병원,서울특별시 은평구 응암동 119-1,서울특별시 은평구 응암로 269,37.59597483,126.91880400000001,은평구,응암3동,은평구 응암3동
2020,영업중,0,0,0,20180416,서울숭인병원,서울특별시 종로구 숭인동 200-6,서울특별시 종로구 종로 394,37.57442681,127.02124769999999,종로구,숭인2동,종로구 숭인2동
2020,영업중,0,0,0,20110718,로하스참사랑요양병원,서울특별시 영등포구 문래동2가 39-1,서울특별시 영등포구 문래동2가 도림로133길 20,37.51274713,126.8936587,영등포구,문래동,영등포구 문래동
2020,영업중,0,0,0,20160128,학교법인 고려중앙학원 고려대학교의과대학부속병원(안암병원),서울특별시 성북구 안암동5가 126-1,서울특별시 성북구 안암동2가 고려대로17길 27,37.58713518,127.02695940000001,성북구,안암동,성북구 안암동
2020,영업중,0,0,0,20131107,한강수병원,서울특별시 영등포구 양평동1가 28-1,서울특별시 영등포구 양평동1가 선유동1로 3,37.52249671,126.89127109999998,영등포구,양평1동,영등포구 양평1동
2020,영업중,0,0,0,19940613,삼성서울병원,서울특별시 강남구 일원동 50,서울특별시 강남구 일원로 81,37.48865329,127.08595849999999,강남구,일원본동,강남구 일원본동
2020,영업중,0,0,0,20120614,금천수요양병원,서울특별시 금천구 독산동 899-1,서울특별시 금천구 남부순환로 1394,37.47991387,126.9056253,금천구,독산3동,금천구 독산3동
2020,영업중,0,0,0,20120724,참포도나무병원,서울특별시 서초구 양재동 20-1,서울특별시 서초구 바우뫼로37길 56,37.48072331,127.03798870000001,서초구,양재1동,서초구 양재1동
2020,영업중,0,0,0,20080225,의료법인 미소들노인전문병원,서울특별시 구로구 개봉동 43-1,서울특별시 구로구 고척로21나길 88-41,37.5029242,126.84113,구로구,개봉1동,구로구 개봉1동
2020,영업중,0,0,0,19830404,연세대학교의과대학 강남세브란스병원,서울특별시 강남구 도곡동 146-82,서울특별시 강남구 언주로 211,37.49258602,127.04740359999998,강남구,도곡1동,강남구 도곡1동
2020,영업중,0,0,0,20060621,메디아이여성병원,서울특별시 노원구 상계동 373-1,서울특별시 노원구 상계로 114,37.65735494,127.0674578,노원구,상계2동,노원구 상계2동
2020,영업중,0,0,0,19840302,씨엠병원,서울특별시 영등포구 영등포동4가 92,서울특별시 영등포구 영등포동4가 영등포로36길 13,37.51887481,126.9037392,영등포구,영등포동,영등포구 영등포동
2020,영업중,0,0,0,20090901,선한목자병원,서울특별시 강남구 역삼동 642,서울특별시 강남구 테헤란로25길 10,37.50124584,127.03543159999998,강남구,역삼1동,강남구 역삼1동
2020,영업중,0,0,0,20070312,신화요양병원,서울특별시 영등포구 영등포동7가 77-1,서울특별시 영등포구 영등포동7가 국회대로 646,37.525332899999995,126.90591840000002,영등포구,영등포동,영등포구 영등포동
2020,영업중,0,0,0,20151119,닥터김앤박요양병원,서울특별시 영등포구 영등포동8가 68,서울특별시 영등포구 영등포동8가 영중로 133,37.528312299999996,126.9053446,영등포구,영등포동,영등포구 영등포동
2020,영업중,0,0,0,20150212,초록나무요양병원,서울특별시 영등포구 대림동 681,서울특별시 영등포구 가마산로 368,37.50122623,126.89931840000001,영등포구,대림3동,영등포구 대림3동
2020,영업중,0,0,0,20100111,더본병원,서울특별시 동작구 사당1동 1008-1,서울특별시 동작구 동작대로17길 5,37.48258201,126.9811139,동작구,사당1동,동작구 사당1동
2020,영업중,0,0,0,20110307,연세바른병원,서울특별시 동작구 사당1동 147-2,서울특별시 동작구 동작대로 109-2,37.48612313,126.9817758,동작구,사당2동,동작구 사당2동
2020,영업중,0,0,0,20130801,의료법인덕수의료재단보라매요양병원,서울특별시 동작구 대방동 417-1,서울특별시 동작구 여의대방로 136,37.49920383,126.9206784,동작구,대방동,동작구 대방동
2020,영업중,0,0,0,20150512,기분좋은한방병원,서울특별시 동작구 신대방동 358-3,서울특별시 동작구 여의대방로22길 98,37.49772045,126.9253746,동작구,신대방2동,동작구 신대방2동
2020,영업중,0,0,0,20151127,새길병원,서울특별시 영등포구 영등포동6가 8-1,서울특별시 영등포구 영등포동6가 영중로 61,37.52181634,126.90455800000001,영등포구,영등포동,영등포구 영등포동
2020,영업중,0,0,0,20180622,내이처럼치과병원,서울특별시 동작구 사당1동 138,서울특별시 동작구 동작대로27나길 21,37.48659108,126.9806392,동작구,사당2동,동작구 사당2동
2020,영업중,0,0,0,19911116,서울특별시보라매병원,서울특별시 동작구 신대방동 425,서울특별시 동작구 보라매로5길 20,37.49376103,126.9242721,동작구,신대방2동,동작구 신대방2동
2020,영업중,0,0,0,20010307,청화병원,서울특별시 동작구 노량진동 311-3,서울특별시 동작구 장승배기로 103,37.50669527,126.9397702,동작구,노량진2동,동작구 노량진2동
2020,영업중,0,0,0,20031226,정동병원,서울특별시 동작구 상도1동 614-1,서울특별시 동작구 양녕로 283,37.50492977,126.9494608,동작구,상도1동,동작구 상도1동
2020,영업중,0,0,0,20070604,따뜻한치과병원,서울특별시 동작구 사당1동 1042-1,서울특별시 동작구 동작대로 19,37.47809807,126.98108570000001,동작구,사당1동,동작구 사당1동
2020,영업중,0,0,0,20071023,의료법인에이치엠피의료재단녹십초요양병원,서울특별시 동작구 신대방동 686,서울특별시 동작구 대림로 61,37.48851536,126.90660829999999,동작구,신대방1동,동작구 신대방1동
2020,영업중,0,0,0,20051227,선의요양병원,서울특별시 노원구 상계동 711,서울특별시 노원구 덕릉로70가길 21,37.64350718,127.0607652,노원구,상계6.7동,노원구 상계6.7동
2020,영업중,0,0,0,19840807,명지성모병원,서울특별시 영등포구 대림동 709,서울특별시 영등포구 도림로 154,37.49387887,126.89896370000001,영등포구,대림2동,영등포구 대림2동
2020,영업중,0,0,0,20100514,강남초이스병원,서울특별시 관악구 봉천동 875-1,서울특별시 관악구 남부순환로 1802,37.4812691,126.95031000000002,관악구,청룡동,관악구 청룡동
2020,영업중,0,0,0,19950520,미래드림여성병원,서울특별시 관악구 봉천동 884-1,서울특별시 관악구 봉천로 444,37.48228599,126.94910549999999,관악구,중앙동,관악구 중앙동
2020,영업중,0,0,0,20190610,더웰샘한방병원,서울특별시 관악구 남현동 1058-1,서울특별시 관악구 남부순환로 2062,37.47638679,126.9777621,관악구,남현동,관악구 남현동
2020,영업중,0,0,0,20200529,경동한방병원,서울특별시 중랑구 망우동 490-1,서울특별시 중랑구 망우로 404,37.59887626,127.0971543,중랑구,망우본동,중랑구 망우본동
2020,영업중,0,0,0,20131002,조인트힐병원,서울특별시 관악구 신림동 726-1,서울특별시 관악구 난곡로 219,37.47391286,126.9173475,관악구,미성동,관악구 미성동
2020,영업중,0,0,0,20140905,강남수요양병원,서울특별시 관악구 신림동 1421-1,서울특별시 관악구 신림로66길 42,37.48557057,126.9320277,관악구,신림동,관악구 신림동
2020,영업중,0,0,0,20140617,연세건우병원,서울특별시 관악구 봉천동 869-1,서울특별시 관악구 남부순환로 1812,37.48111038,126.9512979,관악구,청룡동,관악구 청룡동
2020,영업중,0,0,0,20130201,척편한병원,서울특별시 관악구 신림동 86-1,서울특별시 관악구 신림로58길 13,37.48260341,126.9306317,관악구,서원동,관악구 서원동
2020,영업중,0,0,0,20150217,관악서울대학교치과병원,서울특별시 관악구 신림동 산 56-1,,37.45334804,126.95713909999998,관악구,대학동,관악구 대학동
2020,영업중,0,0,0,20040102,가야치과병원,서울특별시 서초구 방배동 852-1,서울특별시 서초구 방배로27길 9,37.4897056,126.9916133,서초구,방배4동,서초구 방배4동
2020,영업중,0,0,0,20100816,모커리한방병원,서울특별시 서초구 서초동 1677-1,서울특별시 서초구 서초대로 334,37.49470212,127.01826129999999,서초구,서초1동,서초구 서초1동
2020,영업중,0,0,0,19980326,의료법인 청해의료재단 제일병원,서울특별시 서초구 방배동 896-1,서울특별시 서초구 서초대로 116,37.48781871,126.9950523,서초구,방배1동,서초구 방배1동
2020,영업중,0,0,0,19990724,대항병원,서울특별시 서초구 방배동 481-1,서울특별시 서초구 효령로2길 26,37.47601455,126.98762930000001,서초구,방배3동,서초구 방배3동
2020,영업중,0,0,0,20090709,서울귀한이치과병원,서울특별시 서초구 반포동 20-15,서울특별시 서초구 사평대로 253,37.50525716,127.010967,서초구,반포1동,서초구 반포1동
2020,영업중,0,0,0,20080401,연세사랑병원,서울특별시 서초구 방배동 478-1,서울특별시 서초구 효령로 12,37.47686772,126.9866959,서초구,방배3동,서초구 방배3동
2020,영업중,0,0,0,20091102,고도일병원,서울특별시 서초구 반포동 736,서울특별시 서초구 사평대로57길 72,37.50736447,127.02225159999999,서초구,반포1동,서초구 반포1동
2020,영업중,0,0,0,20100412,강남요양병원,서울특별시 서초구 반포동 44-1,서울특별시 서초구 서초중앙로 199,37.49958603,127.01187220000001,서초구,반포4동,서초구 반포4동
2020,영업중,0,0,0,19890814,재단법인 동국한방병원,서울특별시 서초구 방배동 837-1,서울특별시 서초구 방배로 196,37.49108795,126.991859,서초구,방배4동,서초구 방배4동
2020,영업중,0,0,0,20130117,365엠씨(mc)병원,서울특별시 서초구 서초동 1657-1,서울특별시 서초구 서초중앙로 126,37.49298521,127.0140942,서초구,서초1동,서초구 서초1동
2020,영업중,0,0,0,20150623,염창환병원,서울특별시 서초구 서초동 1694-1,서울특별시 서초구 서초중앙로 154,37.49537653,127.0135348,서초구,서초4동,서초구 서초4동
2020,영업중,0,0,0,20140513,이건목원리한방병원,서울특별시 서초구 방배동 765-1,서울특별시 서초구 방배중앙로27길 47,37.49512341,126.9831202,서초구,방배본동,서초구 방배본동
2020,영업중,0,0,0,20071231,의료법인 부원의료재단 서초요양병원,서울특별시 서초구 서초동 1485-1,서울특별시 서초구 효령로46길 5,37.48329988,127.00898670000001,서초구,서초3동,서초구 서초3동
2020,영업중,0,0,0,20171106,서초프라임요양병원,서울특별시 서초구 방배동 446-1,서울특별시 서초구 방배천로2길 10,37.47679824,126.9832778,서초구,방배2동,서초구 방배2동
2020,영업중,0,0,0,20180626,올바로병원,서울특별시 서초구 서초동 1515-1,서울특별시 서초구 명달로22길 4,37.48673885,127.00444209999999,서초구,서초3동,서초구 서초3동
2020,영업중,0,0,0,20011017,길인의료재단 기린한방병원,서울특별시 서초구 잠원동 38-1,서울특별시 서초구 신반포로47길 30,37.51210006,127.0192147,서초구,잠원동,서초구 잠원동
2020,영업중,0,0,0,20030901,21세기병원,서울특별시 서초구 서초동 1602-1,서울특별시 서초구 효령로 279,37.48492928,127.0147406,서초구,서초3동,서초구 서초3동
2020,영업중,0,0,0,20030916,나누리병원,서울특별시 강남구 논현동 63,서울특별시 강남구 도산대로38길 11,37.5200033,127.03238119999999,강남구,논현2동,강남구 논현2동
2020,영업중,0,0,0,20031219,강남베드로병원,서울특별시 강남구 도곡동 910,서울특별시 강남구 논현로41길 19,37.48583122,127.0396489,강남구,도곡1동,강남구 도곡1동
2020,영업중,0,0,0,20050425,마디병원,서울특별시 강남구 삼성동 52,서울특별시 강남구 삼성로 654,37.518582,127.05071240000001,강남구,삼성1동,강남구 삼성1동
2020,영업중,0,0,0,20061220,누네안과병원,서울특별시 강남구 대치동 907,서울특별시 강남구 선릉로 406,37.50116382,127.05079950000001,강남구,대치4동,강남구 대치4동
2020,영업중,0,0,0,20070521,석플란트치과병원,서울특별시 강남구 논현동 62,서울특별시 강남구 도산대로 228,37.52053466,127.03211840000002,강남구,논현2동,강남구 논현2동
2020,영업중,0,0,0,20130320,유디성신치과병원,서울특별시 강남구 삼성동 142,서울특별시 강남구 테헤란로63길 20,37.50655566,127.0503662,강남구,삼성2동,강남구 삼성2동
2020,영업중,0,0,0,20130410,기쁨정원치과병원,서울특별시 강남구 수서동 713,서울특별시 강남구 밤고개로1길 10,37.4880079,127.1018246,강남구,수서동,강남구 수서동
2020,영업중,0,0,0,20150724,강남초이스정형외과병원,서울특별시 강남구 역삼동 705,서울특별시 강남구 테헤란로51길 10,37.50474975,127.04696159999999,강남구,역삼1동,강남구 역삼1동
2020,영업중,0,0,0,20180914,강남지인병원,서울특별시 강남구 논현동 218,서울특별시 강남구 언주로125길 7,37.51290412,127.03459479999998,강남구,논현2동,강남구 논현2동
2020,영업중,0,0,0,20151124,지앤지병원,서울특별시 강남구 삼성동 90,서울특별시 강남구 영동대로 632,37.51675287,127.0593959,강남구,삼성1동,강남구 삼성1동
2020,영업중,0,0,0,20130530,소람한방병원,서울특별시 강남구 삼성동 115,서울특별시 강남구 봉은사로 458,37.51175561,127.04993909999999,강남구,삼성2동,강남구 삼성2동
2020,영업중,0,0,0,20130125,안강병원,서울특별시 강남구 역삼동 773,서울특별시 강남구 언주로71길 9,37.49733628,127.044253,강남구,역삼2동,강남구 역삼2동
2020,영업중,0,0,0,20091130,하나이비인후과병원,서울특별시 강남구 역삼동 732,서울특별시 강남구 역삼로33길 10,37.49784215,127.04175179999999,강남구,역삼2동,강남구 역삼2동
2020,영업중,0,0,0,20101227,아림치과병원,서울특별시 강남구 삼성동 158,서울특별시 강남구 삼성로96길 20,37.50891679,127.0575437,강남구,삼성1동,강남구 삼성1동
2020,영업중,0,0,0,20110309,서울특별시서울의료원강남분원,서울특별시 강남구 삼성동 171,서울특별시 강남구 봉은사로114길 13,37.51434036,127.06624920000002,강남구,삼성1동,강남구 삼성1동
2020,영업중,0,0,0,20111028,굿라이프치과병원,서울특별시 강남구 논현동 200,서울특별시 강남구 강남대로 478,37.50510019,127.02464850000001,강남구,논현1동,강남구 논현1동
2020,영업중,0,0,0,20180727,노블케어요양병원,서울특별시 강남구 신사동 635,서울특별시 강남구 언주로 858,37.52693086,127.0339581,강남구,압구정동,강남구 압구정동
2020,영업중,0,0,0,20200515,서울본브릿지병원,서울특별시 강남구 도곡동 543,서울특별시 강남구 도곡로 204,37.49214421,127.0413733,강남구,도곡1동,강남구 도곡1동
2020,영업중,0,0,0,20120921,튼튼병원,서울특별시 강남구 청담동 71,서울특별시 강남구 학동로97길 30,37.52170688,127.0550626,강남구,청담동,강남구 청담동
2020,영업중,0,0,0,20190813,힘찬큐한방병원,서울특별시 강남구 논현동 235,서울특별시 강남구 봉은사로29길 6,37.50817313,127.03480390000001,강남구,논현2동,강남구 논현2동
2020,영업중,0,0,0,20190329,예작병원,서울특별시 강남구 도곡동 543,서울특별시 강남구 도곡로 204,37.49214421,127.0413733,강남구,도곡1동,강남구 도곡1동
2020,영업중,0,0,0,20181207,미니쉬치과병원,서울특별시 강남구 논현동 98,서울특별시 강남구 언주로 730,37.52017372,127.0348283,강남구,논현2동,강남구 논현2동
2020,영업중,0,0,0,20191031,미림한방병원,서울특별시 강남구 논현동 2,서울특별시 강남구 도산대로 110,37.5161764,127.0210582,강남구,논현1동,강남구 논현1동
2020,영업중,0,0,0,20161028,메디움강남요양병원,서울특별시 강남구 도곡동 949,서울특별시 강남구 강남대로 276,37.48802649,127.0328169,강남구,도곡1동,강남구 도곡1동
2020,영업중,0,0,0,20170329,소우주요양병원,서울특별시 강남구 개포동 1230,서울특별시 강남구 논현로16길 11,37.47656228,127.04722579999999,강남구,개포4동,강남구 개포4동
2020,영업중,0,0,0,20160421,트리니티요양병원,서울특별시 강남구 삼성동 77,서울특별시 강남구 영동대로115길 5,37.515063,127.05903980000001,강남구,삼성1동,강남구 삼성1동
2020,영업중,0,0,0,20170531,큰사랑요양병원,서울특별시 강남구 개포동 1164,서울특별시 강남구 논현로2길 6,37.47203997,127.0512005,강남구,개포4동,강남구 개포4동
2020,영업중,0,0,0,20120227,광혜병원,서울특별시 강남구 대치동 995,서울특별시 강남구 영동대로 324,37.5031804,127.06622620000002,강남구,대치2동,강남구 대치2동
2020,영업중,0,0,0,20080909,비에비스나무병원,서울특별시 강남구 논현동 175-10,서울특별시 강남구 봉은사로25길 36-1,37.50972545,127.03218100000001,강남구,논현1동,강남구 논현1동
2020,영업중,0,0,0,20090311,아이디병원,서울특별시 강남구 논현동 5,서울특별시 강남구 도산대로 134,37.517386200000004,127.0233047,강남구,논현1동,강남구 논현1동
2020,영업중,0,0,0,19940317,서울치과병원,서울특별시 강남구 신사동 624-13,서울특별시 강남구 언주로165길 9,37.52576054,127.0323193,강남구,압구정동,강남구 압구정동
2020,영업중,0,0,0,19940425,(의)가산의료재단 광동한방병원,서울특별시 강남구 삼성동 161,서울특별시 강남구 봉은사로 612,37.51425016,127.0621065,강남구,삼성1동,강남구 삼성1동
2020,영업중,0,0,0,19960123,에이플러스치과병원,서울특별시 강남구 신사동 636,서울특별시 강남구 언주로 868,37.527731,127.0339,강남구,압구정동,강남구 압구정동
2020,영업중,0,0,0,19980612,재단법인대한스포츠의학재단강남나무병원,서울특별시 강남구 대치동 994,서울특별시 강남구 영동대로 235,37.50006336,127.0672606,강남구,대치2동,강남구 대치2동
2020,영업중,0,0,0,19990526,호산여성병원,서울특별시 강남구 신사동 617,서울특별시 강남구 압구정로 226,37.52865218,127.03252959999999,강남구,압구정동,강남구 압구정동
2020,영업중,0,0,0,19990906,가우디치과병원,서울특별시 강남구 대치동 945,서울특별시 강남구 테헤란로 520,37.50779557,127.0610538,강남구,대치2동,강남구 대치2동
2020,영업중,0,0,0,20000726,수치과병원,서울특별시 강남구 신사동 665-1,서울특별시 강남구 선릉로 823,37.52559982,127.0392662,강남구,압구정동,강남구 압구정동
2020,영업중,0,0,0,20071217,미병원,서울특별시 강남구 신사동 626,서울특별시 강남구 도산대로35길 46,37.52373787,127.0306922,강남구,압구정동,강남구 압구정동
2020,영업중,0,0,0,20080319,수플란트치과병원,서울특별시 강남구 신사동 665-1,서울특별시 강남구 선릉로 823,37.52559982,127.0392662,강남구,압구정동,강남구 압구정동
2020,영업중,0,0,0,20080326,토마스병원,서울특별시 강남구 신사동 638,서울특별시 강남구 압구정로 302,37.52885901,127.03407990000001,강남구,압구정동,강남구 압구정동
2020,영업중,0,0,0,20131031,요나한방병원,서울특별시 강남구 도곡동 909-3,서울특별시 강남구 남부순환로 2645,37.48559533,127.039105,강남구,도곡1동,강남구 도곡1동
2020,영업중,0,0,0,20131114,강남제이에스병원,서울특별시 강남구 논현동 90,서울특별시 강남구 언주로133길 7,37.51618394,127.0346229,강남구,논현2동,강남구 논현2동
2020,영업중,0,0,0,20131220,이솝한방병원,서울특별시 강남구 대치동 651,서울특별시 강남구 남부순환로 2909,37.49219915,127.0573574,강남구,대치1동,강남구 대치1동
2020,영업중,0,0,0,20140331,의료법인참예원의료재단강남구립행복요양병원,서울특별시 강남구 세곡동 521,서울특별시 강남구 헌릉로590길 60,37.46113512,127.10333700000001,강남구,세곡동,강남구 세곡동
2020,영업중,0,0,0,19901022,차의과학대학교 강남차병원,서울특별시 강남구 역삼동 650,서울특별시 강남구 논현로 570,37.50711377,127.03423980000001,강남구,역삼1동,강남구 역삼1동
2020,영업중,0,0,0,20180720,청담힐요양병원,서울특별시 강남구 청담동 71,서울특별시 강남구 학동로97길 30,37.52170688,127.0550626,강남구,청담동,강남구 청담동
2020,영업중,0,0,0,20150625,청담병원,서울특별시 강남구 청담동 15,서울특별시 강남구 도산대로70길 43,37.5206135,127.0449337,강남구,청담동,강남구 청담동
2020,영업중,0,0,0,20150720,담소유병원,서울특별시 강남구 논현동 210,서울특별시 강남구 학동로 234,37.51482526,127.03458059999998,강남구,논현2동,강남구 논현2동
2020,영업중,0,0,0,20020816,연치과병원,서울특별시 강남구 대치동 606-1,서울특별시 강남구 남부순환로 2941,37.49421763,127.0617608,강남구,대치1동,강남구 대치1동
2020,영업중,0,0,0,19990621,자생한방병원,서울특별시 강남구 논현동 142,서울특별시 강남구 강남대로 542,37.51054923,127.02205,강남구,논현1동,강남구 논현1동
2020,영업중,0,0,0,20030715,케이에스병원,서울특별시 강남구 역삼동 682,서울특별시 강남구 봉은사로 326,37.50964466,127.0426399,강남구,역삼1동,강남구 역삼1동
2020,영업중,0,0,0,20180516,리봄한방병원,서울특별시 강남구 논현동 241,서울특별시 강남구 학동로 338,37.51648712,127.03993500000001,강남구,논현2동,강남구 논현2동
2020,영업중,0,0,0,20050114,의료법인일맥의료재단 인애가요양병원,서울특별시 송파구 오금동 77,서울특별시 송파구 마천로17길 8,37.50520742,127.1354035,송파구,오금동,송파구 오금동
2020,영업중,0,0,0,20120312,올림픽병원,서울특별시 송파구 석촌동 14,서울특별시 송파구 삼학사로 70,37.5034951,127.09725590000001,송파구,석촌동,송파구 석촌동
2020,영업중,0,0,0,20161222,혜민안과병원,서울특별시 송파구 가락동 112,서울특별시 송파구 중대로 134,37.49440078,127.12286680000001,송파구,가락본동,송파구 가락본동
2020,영업중,0,0,0,19930109,인애가송파한방병원,서울특별시 송파구 문정동 17,서울특별시 송파구 문정로5길 3-11,37.48719441,127.12884380000001,송파구,문정1동,송파구 문정1동
2020,영업중,0,0,0,20170103,자닮인요양병원,서울특별시 송파구 가락동 48-1,서울특별시 송파구 오금로36길 70-5,37.49855213,127.1207106,송파구,가락본동,송파구 가락본동
2020,영업중,0,0,0,20100226,의료법인참예원의료재단 송파참노인전문병원,서울특별시 송파구 오금동 126,서울특별시 송파구 마천로 164,37.50351193,127.1373992,송파구,오금동,송파구 오금동
2020,영업중,0,0,0,20110927,송파새희망요양병원,서울특별시 송파구 거여동 559,서울특별시 송파구 오금로 484,37.49363747,127.1426686,송파구,거여1동,송파구 거여1동
2020,영업중,0,0,0,20160630,강남센트럴요양병원,서울특별시 송파구 가락동 121,서울특별시 송파구 송이로 150,37.49349329,127.12420230000001,송파구,가락본동,송파구 가락본동
2020,영업중,0,0,0,20091006,강남힘찬병원,서울특별시 송파구 송파동 20,서울특별시 송파구 백제고분로 393,37.5067218,127.10890819999999,송파구,송파1동,송파구 송파1동
2020,영업중,0,0,0,19980407,의료법인정애의료재단서울초이스병원,서울특별시 송파구 풍납동 496,서울특별시 송파구 올림픽로 585,37.53409645,127.12143710000001,송파구,풍납1동,송파구 풍납1동
2020,영업중,0,0,0,20070430,강남수병원,서울특별시 송파구 삼전동 28,서울특별시 송파구 삼전로 52,37.50340952,127.08756100000001,송파구,삼전동,송파구 삼전동
2020,영업중,0,0,0,20080623,의료법인마리아의료재단마리아병원,서울특별시 송파구 가락동 121,서울특별시 송파구 송이로 150,37.49349329,127.12420230000001,송파구,가락본동,송파구 가락본동
2020,영업중,0,0,0,20051020,포레힐요양병원,서울특별시 송파구 방이동 114,서울특별시 송파구 오금로19길 4,37.51006932,127.1134936,송파구,방이2동,송파구 방이2동
2020,영업중,0,0,0,20150421,재단법인자생의료재단잠실자생한방병원,서울특별시 송파구 방이동 22,서울특별시 송파구 올림픽로 336,37.51538874,127.1074335,송파구,방이2동,송파구 방이2동
2020,영업중,0,0,0,20200424,서울연세요양병원,서울특별시 송파구 삼전동 180,서울특별시 송파구 백제고분로 262,37.50223303,127.09538490000001,송파구,삼전동,송파구 삼전동
2020,영업중,0,0,0,20190701,학교법인혜화학원 대전대학교서울한방병원,서울특별시 송파구 문정동 383-2,서울특별시 송파구 정의로 30,37.48176792,127.11546270000001,송파구,문정2동,송파구 문정2동
2020,영업중,0,0,0,20080102,뉴스타트병원,서울특별시 송파구 가락동 159-4,서울특별시 송파구 송이로 74,37.49938881,127.1191659,송파구,가락본동,송파구 가락본동
2020,영업중,0,0,0,20190517,포레스트한방병원,서울특별시 송파구 방이동 109,서울특별시 송파구 오금로15길 2,37.51198078,127.10918649999999,송파구,방이2동,송파구 방이2동
2020,영업중,0,0,0,19980330,한솔병원,서울특별시 송파구 석촌동 174,서울특별시 송파구 백제고분로39길 6,37.50503673,127.1054706,송파구,석촌동,송파구 석촌동
2020,영업중,0,0,0,20190319,더바름치과병원,서울특별시 송파구 잠실동 35,서울특별시 송파구 석촌호수로 93,37.50987874,127.08954569999999,송파구,잠실3동,송파구 잠실3동
2020,영업중,0,0,0,20140103,송파미소병원,서울특별시 송파구 거여동 37,서울특별시 송파구 오금로 513,37.49322183,127.14585690000001,송파구,거여2동,송파구 거여2동
2020,영업중,0,0,0,20140428,빠른병원,서울특별시 송파구 송파동 20,서울특별시 송파구 백제고분로 393,37.5067218,127.10890819999999,송파구,송파1동,송파구 송파1동
2020,영업중,0,0,0,20180222,고은빛여성병원,서울특별시 강동구 길동 426,서울특별시 강동구 천호대로 1151,37.53414228,127.1392971,강동구,길동,강동구 길동
2020,영업중,0,0,0,20140415,더사랑요양병원,서울특별시 송파구 마천동 26,서울특별시 송파구 성내천로21길 21,37.50083329,127.1435765,송파구,마천2동,송파구 마천2동
2020,영업중,0,0,0,20190211,서울힐링요양병원,서울특별시 송파구 가락동 36,서울특별시 송파구 중대로 193,37.49934659,127.12576979999999,송파구,가락본동,송파구 가락본동
2020,영업중,0,0,0,20090818,조은마디병원,서울특별시 강동구 성내동 199,서울특별시 강동구 천호대로 1096,37.5351374,127.13360379999999,강동구,성내2동,강동구 성내2동
2020,영업중,0,0,0,20111101,강동한방병원,서울특별시 강동구 길동 320-1,서울특별시 강동구 양재대로 1562,37.54485184,127.1430543,강동구,길동,강동구 길동
2020,영업중,0,0,0,20120803,사랑플러스병원,서울특별시 강동구 명일동 345-1,서울특별시 강동구 양재대로 1594,37.54766428,127.1437259,강동구,명일1동,강동구 명일1동
2020,영업중,0,0,0,20040902,의료법인일맥의료재단인애가한방병원,서울특별시 강동구 성내동 551,서울특별시 강동구 성내로 28,37.52929768,127.12339209999999,강동구,성내1동,강동구 성내1동
2020,영업중,0,0,0,19930730,이화여자대학교의과대학부속목동병원,서울특별시 양천구 목동 911,서울특별시 양천구 목동동로 430,37.53463101,126.88479140000001,양천구,목5동,양천구 목5동
2020,영업중,0,0,0,20080829,허리나은병원,서울특별시 강동구 성내동 81-12,서울특별시 강동구 올림픽로62길 9-7,37.53673352,127.1234693,강동구,성내2동,강동구 성내2동
2020,영업중,0,0,0,20070625,청병원,서울특별시 강동구 성내동 553,서울특별시 강동구 올림픽로48길 7,37.5295556,127.12084180000001,강동구,성내1동,강동구 성내1동
2020,영업중,0,0,0,20140421,채원자연통합병원,서울특별시 강동구 성내동 548,서울특별시 강동구 성내로 58,37.52802863,127.1261996,강동구,성내1동,강동구 성내1동
2020,영업중,0,0,0,20141028,남기세병원,서울특별시 강동구 길동 459,서울특별시 강동구 천호대로177길 10,37.53492988,127.13757209999999,강동구,길동,강동구 길동
2020,영업중,0,0,0,20141117,연세미래엔미소치과병원,서울특별시 강동구 상일동 501,서울특별시 강동구 상일로10길 36,37.55074396,127.1740726,강동구,강일동,강동구 강일동
2020,영업중,0,0,0,20180405,연세베스트요양병원,서울특별시 영등포구 신길동 861,서울특별시 영등포구 여의대방로 203,37.50534668,126.9219855,영등포구,신길7동,영등포구 신길7동
2020,영업중,0,0,0,20150313,신촌다인치과병원,서울특별시 마포구 노고산동 57-1,서울특별시 마포구 신촌로 94,37.55510981,126.93595549999999,마포구,서교동,마포구 서교동
2020,영업중,0,0,0,19840403,강북21세기병원,서울특별시 중랑구 상봉2동 108,서울특별시 중랑구 면목로 477,37.59437266,127.08570139999999,중랑구,상봉2동,중랑구 상봉2동
2020,영업중,0,0,0,20070410,강동성모요양병원,서울특별시 강동구 천호동 362,서울특별시 강동구 천중로12길 27,37.54388718,127.1273357,강동구,천호2동,강동구 천호2동
2020,영업중,0,0,0,20030425,제일정형외과병원,서울특별시 강남구 청담동 131-17,서울특별시 강남구 영동대로 726,37.52278818,127.05615159999998,강남구,청담동,강남구 청담동
2020,영업중,0,0,0,20200617,무척바른한방병원,서울특별시 강서구 마곡동 731,서울특별시 강서구 방화대로44길 55,37.57067323,126.8186028,강서구,방화1동,강서구 방화1동
2020,영업중,0,0,0,20090217,재단법인위담 위담한방병원,서울특별시 강남구 대치동 910,서울특별시 강남구 역삼로 428,37.5012743,127.05389890000001,강남구,대치4동,강남구 대치4동
2020,영업중,0,0,0,20180626,강남위담한방병원,서울특별시 강남구 대치동 960,서울특별시 강남구 삼성로 408,37.50374577,127.0586862,강남구,대치2동,강남구 대치2동
2020,영업중,0,0,0,20060126,서울본병원,서울특별시 관악구 신림동 543,서울특별시 관악구 남부순환로 1449,37.48129876,126.9117257,관악구,미성동,관악구 미성동
2020,영업중,0,0,0,20190314,파라솔요양병원,서울특별시 금천구 시흥동 1031,서울특별시 금천구 시흥대로73길 67,37.45600498,126.89586270000001,금천구,시흥1동,금천구 시흥1동
2020,영업중,0,0,0,20181001,장튼위튼병원,서울특별시 관악구 봉천동 1673-1,서울특별시 관악구 남부순환로231길 10,37.48023177,126.9567851,관악구,행운동,관악구 행운동
2020,영업중,0,0,0,20110630,덕수의료재단 덕수요양병원,서울특별시 영등포구 영등포동4가 150-1,서울특별시 영등포구 영등포동4가 영신로34길 1,37.520098299999994,126.9013621,영등포구,영등포동,영등포구 영등포동
2020,영업중,0,0,0,20001220,뉴서울성모요양병원,서울특별시 영등포구 영등포동8가 12-1,서울특별시 영등포구 영등포동8가 영중로34길 6,37.5260364,126.9061311,영등포구,영등포동,영등포구 영등포동
2020,영업중,0,0,0,20060608,서울척병원,서울특별시 성북구 길음동 21,서울특별시 성북구 동소문로 325,37.60903579,127.0293735,성북구,길음2동,성북구 길음2동
2020,영업중,0,0,0,20190528,송파그랜드요양병원,서울특별시 송파구 마천동 32,서울특별시 송파구 마천로 238,37.49964832,127.14375120000001,송파구,마천2동,송파구 마천2동
2020,영업중,0,0,0,20150911,서울에이스요양병원,서울특별시 동대문구 용두동 36-1,서울특별시 동대문구 천호대로 128,37.57388486,127.03763020000001,동대문구,용신동,동대문구 용신동
2020,영업중,0,0,0,20121214,왕십리휴요양병원,서울특별시 동대문구 용두동 129-281,서울특별시 동대문구 무학로26길 58,37.57334272,127.0340703,동대문구,용신동,동대문구 용신동
2020,영업중,0,0,0,20110328,재단법인한국산업보건환경연구소부설 해상병원,서울특별시 영등포구 신길동 232-79,서울특별시 영등포구 신길로 179,37.50820963,126.91068,영등포구,신길3동,영등포구 신길3동
2020,영업중,0,0,0,20080918,효림요양병원,서울특별시 동대문구 답십리동 497-1,서울특별시 동대문구 고미술로 16,37.5694727,127.05031770000001,동대문구,답십리1동,동대문구 답십리1동
2020,영업중,0,0,0,20170131,민트병원,서울특별시 송파구 문정동 383-2,서울특별시 송파구 정의로 30,37.48176792,127.11546270000001,송파구,문정2동,송파구 문정2동
2020,영업중,0,0,0,20170908,어울림병원,서울특별시 영등포구 신길동 65-1,서울특별시 영등포구 영등포로67가길 20,37.51487703,126.9206596,영등포구,신길1동,영등포구 신길1동
2020,영업중,0,0,0,20140520,강동모커리한방병원,서울특별시 강동구 천호동 51-1,서울특별시 강동구 양재대로121길 7,37.54229378,127.1410608,강동구,천호3동,강동구 천호3동
2020,영업중,0,0,0,20181214,강동우리들요양병원,서울특별시 강동구 천호동 421-1,서울특별시 강동구 구천면로 205,37.54068599,127.1274487,강동구,천호2동,강동구 천호2동
2020,영업중,0,0,0,20170407,서재곤링커병원,서울특별시 송파구 송파동 135,서울특별시 송파구 백제고분로 426,37.5088649,127.11161229999999,송파구,송파1동,송파구 송파1동
2020,영업중,0,0,0,20140204,한국보훈복지의료공단 보훈요양병원,서울특별시 강동구 둔촌동 6-2,서울특별시 강동구 동남로 625,37.52968902,127.14769229999999,강동구,둔촌2동,강동구 둔촌2동
2020,영업중,0,0,0,20120316,강동연세병원,서울특별시 강동구 천호동 315,서울특별시 강동구 올림픽로 746,37.5476722,127.1269446,강동구,천호2동,강동구 천호2동
2020,영업중,0,0,0,20060227,강동경희대학교치과병원,서울특별시 강동구 상일동 149,서울특별시 강동구 동남로 892,37.55322236,127.1573815,강동구,상일동,강동구 상일동
2020,영업중,0,0,0,20101208,참튼튼병원,서울특별시 구로구 구로동 1126-1,서울특별시 구로구 시흥대로 551,37.48272258,126.9004429,구로구,구로3동,구로구 구로3동
2020,영업중,0,0,0,20191213,연세바로척병원,서울특별시 성동구 성수동2가 279,서울특별시 성동구 성수동2가 아차산로13길 38,37.54629179,127.06217279999998,성동구,성수2가3동,성동구 성수2가3동
2020,영업중,0,0,0,20140818,새롬한방병원,서울특별시 영등포구 대림동 603-2,서울특별시 영등포구 대방천로 28,37.50587255,126.89678290000002,영등포구,대림3동,영등포구 대림3동
2020,영업중,0,0,0,20200727,러스크서울병원,서울특별시 중랑구 망우동 207-2,서울특별시 중랑구 망우로 470,37.60007083,127.1043101,중랑구,망우본동,중랑구 망우본동
2020,영업중,0,0,0,20191226,치유본한방병원,서울특별시 관악구 신림동 1638-1,서울특별시 관악구 신원로 35,37.48222721,126.9288943,관악구,서원동,관악구 서원동
2020,영업중,0,0,0,20160705,늘찬병원,서울특별시 중랑구 망우동 460-1,서울특별시 중랑구 봉우재로 234,37.59512388,127.0988679,중랑구,망우3동,중랑구 망우3동
2020,영업중,0,0,0,19970929,더와이즈황병원,서울특별시 강서구 화곡동 105-68,서울특별시 강서구 까치산로 23,37.54211637,126.8429797,강서구,화곡본동,강서구 화곡본동
2020,영업중,0,0,0,20190726,대윤한방병원,서울특별시 영등포구 신길동 103-1,서울특별시 영등포구 영등포로 357,37.51475447,126.9183635,영등포구,신길1동,영등포구 신길1동
2020,영업중,0,0,0,20100429,은천요양병원,서울특별시 관악구 봉천동 937-1,서울특별시 관악구 은천로11길 7,37.4864386,126.941775,관악구,은천동,관악구 은천동
2020,영업중,0,0,0,20150113,심정병원,서울특별시 관악구 신림동 527-13,서울특별시 관악구 난곡로66길 14,37.48254879,126.9154668,관악구,신사동,관악구 신사동
2020,영업중,0,0,0,20150121,서울석병원,서울특별시 송파구 가락동 122,서울특별시 송파구 송이로 136,37.49449363,127.123232,송파구,가락본동,송파구 가락본동
2020,영업중,0,0,0,20140109,장덕한방병원,서울특별시 서초구 서초동 1603-1,서울특별시 서초구 서초중앙로 42,37.48575312,127.0160733,서초구,서초1동,서초구 서초1동
2020,영업중,0,0,0,20060427,서울특별시 북부병원,서울특별시 중랑구 망우동 227,서울특별시 중랑구 양원역로 38,37.60432352,127.1076716,중랑구,망우본동,중랑구 망우본동
2020,영업중,0,0,0,20180704,서울센트럴요양병원,서울특별시 영등포구 문래동3가 54,서울특별시 영등포구 문래동3가 당산로4길 12,37.516132299999995,126.8967533,영등포구,문래동,영등포구 문래동
2020,영업중,0,0,0,20140206,(本)본브릿지병원,서울특별시 송파구 신천동 7,서울특별시 송파구 올림픽로35길 120,37.51887613,127.0992561,송파구,잠실6동,송파구 잠실6동
2020,영업중,0,0,0,20121213,학교법인대진교육재단 제인병원,서울특별시 성동구 송정동 81-1,서울특별시 성동구 광나루로 279,37.54841534,127.0607814,성동구,송정동,성동구 송정동
2020,영업중,0,0,0,20190708,참푸른병원,서울특별시 서초구 방배동 795-1,서울특별시 서초구 방배로37길 11,37.49351551,126.9891251,서초구,방배본동,서초구 방배본동
2020,영업중,0,0,0,20130715,드림요양병원,서울특별시 송파구 가락동 57,서울특별시 송파구 송이로 111,37.49670901,127.1221817,송파구,가락본동,송파구 가락본동
2020,영업중,0,0,0,19890520,재단법인아산사회복지재단 서울아산병원,서울특별시 송파구 풍납동 388,서울특별시 송파구 강동대로 13,37.52905385,127.11036999999999,송파구,풍납2동,송파구 풍납2동
2020,영업중,0,0,0,19800620,에이치플러스 양지병원,서울특별시 관악구 신림동 10-270,서울특별시 관악구 남부순환로184가길 49,37.48314468,126.9336486,관악구,서원동,관악구 서원동
2020,영업중,0,0,0,19820419,한림대학교 한강성심병원,서울특별시 영등포구 영등포동7가 94-76,서울특별시 영등포구 영등포동7가 버드나루로12길 8,37.52500138,126.9106888,영등포구,영등포동,영등포구 영등포동
2020,영업중,0,0,0,19800111,한림대학교 강남성심병원,서울특별시 영등포구 대림동 948-1,서울특별시 영등포구 신길로 1,37.49328975,126.90867649999998,영등포구,대림1동,영등포구 대림1동
2020,영업중,0,0,0,20200812,서울성심한방병원,서울특별시 강동구 길동 420,서울특별시 강동구 진황도로 124,37.5343823,127.1395719,강동구,길동,강동구 길동
2020,휴업,0,20191120,20201119,20110602,을지치과병원,서울특별시 중구 을지로3가 302-1,서울특별시 중구 을지로3가 을지로14길 16-6,37.56558528,126.9918659,중구,을지로동,중구 을지로동
2020,휴업,0,20200801,20210731,20090831,강남을지대학교병원,서울특별시 강남구 논현동 59,서울특별시 강남구 도산대로 202,37.51940003,127.0285596,강남구,논현2동,강남구 논현2동
2020,휴업,0,20201005,20201011,19990602,강서연세병원,서울특별시 강서구 염창동 263,서울특별시 강서구 양천로 706,37.54911877,126.87400009999999,강서구,염창동,강서구 염창동
2020,휴업,0,20200810,20201012,20081215,서울요양병원,서울특별시 동작구 상도동 255,서울특별시 동작구 성대로 31,37.49914207,126.93376979999998,동작구,상도4동,동작구 상도4동
2020,폐업,20200723,0,0,20050610,경동요양병원,서울특별시 동대문구 청량리동 689,서울특별시 동대문구 약령시로 124,37.58293498,127.0437429,동대문구,청량리동,동대문구 청량리동
2020,폐업,20200831,0,0,20170628,서울스페셜병원,서울특별시 노원구 공릉동 323-1,서울특별시 노원구 동일로 1107,37.62852102,127.07106979999999,노원구,공릉1동,노원구 공릉1동
2020,폐업,20200314,0,0,20110211,서울인화요양병원,서울특별시 양천구 신월동 549-1,서울특별시 양천구 신월로 150,37.51706281,126.8404798,양천구,신월6동,양천구 신월6동
2020,폐업,20200501,0,0,20121108,서울그린치과병원,서울특별시 양천구 신정동 1023-1,서울특별시 양천구 신월로36길 17,37.52019634,126.858628,양천구,신정1동,양천구 신정1동
2020,폐업,20200828,0,0,20060519,네모치과병원,서울특별시 강남구 대치동 889,서울특별시 강남구 선릉로 435,37.50421934,127.0493313,강남구,대치4동,강남구 대치4동
2020,폐업,20200531,0,0,20120516,이지앤성형외과병원,서울특별시 강남구 신사동 597,서울특별시 강남구 논현로164길 14,37.52345235,127.02920220000001,강남구,압구정동,강남구 압구정동
2020,폐업,20200817,0,0,20181101,서울실버한방병원,서울특별시 강동구 길동 419,서울특별시 강동구 진황도로 122,37.53454948,127.1394144,강동구,길동,강동구 길동
2020,영업중,0,0,0,20090603,서울효사랑요양병원,서울특별시 성동구 성수동2가 275-2,서울특별시 성동구 성수동2가 동일로 93,37.54114734,127.06309879999999,성동구,성수2가3동,성동구 성수2가3동
2020,영업중,0,0,0,20101006,서울연세병원,서울특별시 성동구 행당동 198-1,서울특별시 성동구 왕십리로 296,37.56063992,127.0361477,성동구,행당1동,성동구 행당1동
2020,영업중,0,0,0,20070528,제니스병원,서울특별시 광진구 구의동 80-25,서울특별시 광진구 자양로 215,37.54651443,127.0864477,광진구,구의2동,광진구 구의2동
2020,영업중,0,0,0,19660107,삼육서울병원,서울특별시 동대문구 휘경동 283-1,서울특별시 동대문구 망우로 82,37.58972578,127.06254240000001,동대문구,휘경2동,동대문구 휘경2동
2020,영업중,0,0,0,19710821,경희대학교한방병원,서울특별시 동대문구 회기동 1-5,서울특별시 동대문구 경희대로 23,37.59377356,127.0507402,동대문구,회기동,동대문구 회기동
2020,영업중,0,0,0,20110325,참튼튼병원,서울특별시 동대문구 장안동 294-11,서울특별시 동대문구 답십리로 261,37.57273223,127.06935870000001,동대문구,장안2동,동대문구 장안2동
2020,영업중,0,0,0,19921112,삼육치과병원,서울특별시 동대문구 휘경동 283-1,서울특별시 동대문구 망우로 82,37.58972578,127.06254240000001,동대문구,휘경2동,동대문구 휘경2동
2020,영업중,0,0,0,20051207,의료법인유라의료재단 온누리요양병원,서울특별시 성북구 장위동 50-50,서울특별시 성북구 화랑로 271,37.61217113,127.0588094,성북구,장위2동,성북구 장위2동
2020,영업중,0,0,0,19930203,도봉병원,서울특별시 도봉구 방학동 705-4,서울특별시 도봉구 도봉로 720,37.66875973,127.043802,도봉구,방학1동,도봉구 방학1동
2020,영업중,0,0,0,20040823,경희늘푸른노인전문병원,서울특별시 도봉구 방학동 442,서울특별시 도봉구 시루봉로 137,37.66319356,127.0273695,도봉구,방학3동,도봉구 방학3동
2020,영업중,0,0,0,20080317,다나병원,서울특별시 도봉구 창동 715-28,서울특별시 도봉구 해등로 129,37.65505324,127.040438,도봉구,창5동,도봉구 창5동
2020,영업중,0,0,0,20100721,정병원,서울특별시 도봉구 쌍문동 707-13,서울특별시 도봉구 도봉로 639,37.66153921,127.0418209,도봉구,쌍문2동,도봉구 쌍문2동
2020,영업중,0,0,0,20070427,태릉마이크로병원,서울특별시 노원구 공릉동 680-9,서울특별시 노원구 동일로 987,37.61825474,127.0749418,노원구,공릉1동,노원구 공릉1동
2020,영업중,0,0,0,19660505,서울특별시은평병원,서울특별시 은평구 응암동 232-3,서울특별시 은평구 백련산로 90,37.59420556,126.9237628,은평구,응암2동,은평구 응암2동
2020,영업중,0,0,0,20030822,로고스치과병원,서울특별시 강서구 등촌동 673-1,서울특별시 강서구 공항대로 281,37.55886306,126.8389048,강서구,등촌3동,강서구 등촌3동
2020,영업중,0,0,0,19851105,실버한방병원,서울특별시 금천구 독산동 960,서울특별시 금천구 독산로 362,37.47906927,126.90418729999999,금천구,독산3동,금천구 독산3동
2020,영업중,0,0,0,19960429,구로한방병원,서울특별시 금천구 독산동 899-5,서울특별시 금천구 남부순환로 1398,37.47994439,126.90613770000002,금천구,독산3동,금천구 독산3동
2020,영업중,0,0,0,20031107,아카시아병원,서울특별시 금천구 독산동 1012-18,서울특별시 금천구 시흥대로114길 5,37.46808921,126.89854950000002,금천구,독산4동,금천구 독산4동
2020,영업중,0,0,0,20110302,뉴연세여성병원,서울특별시 금천구 시흥동 999-31,서울특별시 금천구 시흥대로 239,37.45521246,126.8999472,금천구,시흥1동,금천구 시흥1동
2020,영업중,0,0,0,20110620,녹십자요양병원,서울특별시 금천구 시흥동 890-6,서울특별시 금천구 시흥대로 202,37.45196729999999,126.90211709999998,금천구,시흥1동,금천구 시흥1동
2020,영업중,0,0,0,19910222,의료법인성석의료재단동작경희병원,서울특별시 동작구 상도동 188-19,서울특별시 동작구 상도로 146,37.50247633,126.9358622,동작구,상도4동,동작구 상도4동
2020,영업중,0,0,0,20111017,아이엠치과병원,서울특별시 강동구 천호동 425-5,서울특별시 강동구 올림픽로 664,37.54055443,127.1249756,강동구,천호2동,강동구 천호2동
2020,영업중,0,0,0,20081118,사랑요양병원,서울특별시 서대문구 북가좌동 392-24,서울특별시 서대문구 수색로 131,37.57420741,126.90567730000001,서대문구,북가좌1동,서대문구 북가좌1동
2020,휴업,0,20190101,20211231,19910519,의료법인 현창의료재단 서서울병원,서울특별시 서대문구 북아현동 126-22,서울특별시 서대문구 신촌로37길 10,37.55771785,126.957006,서대문구,북아현동,서대문구 북아현동
2020,영업중,0,0,0,19891012,서울지구병원,서울특별시 종로구 삼청동 26-3,서울특별시 종로구 삼청로10길 12,37.58786755,126.98200940000001,종로구,삼청동,종로구 삼청동
2020,영업중,0,0,0,20040901,서울대학교치과병원,서울특별시 종로구 연건동 28-21,서울특별시 종로구 대학로 101,37.5785473,126.998354,종로구,이화동,종로구 이화동
2020,영업중,0,0,0,19770401,서울적십자병원,서울특별시 종로구 평동 164,서울특별시 종로구 새문안로 9,37.56749742,126.96738590000001,종로구,교남동,종로구 교남동
2020,영업중,0,0,0,20060622,더블유치과병원,서울특별시 중구 을지로6가 18-17,서울특별시 중구 을지로6가 장충단로 263,37.56811504,127.0084723,중구,광희동,중구 광희동
2020,영업중,0,0,0,20111028,연세스위트치과병원,서울특별시 중구 황학동 688,서울특별시 중구 퇴계로 447,37.56604228,127.02172220000001,중구,황학동,중구 황학동
2020,영업중,0,0,0,20100402,국립중앙의료원,서울특별시 중구 을지로6가 18-79,서울특별시 중구 을지로6가 을지로 245,37.56802249,127.0062719,중구,광희동,중구 광희동
2020,영업중,0,0,0,19760310,인제대학교 서울백병원,서울특별시 중구 저동2가 85,서울특별시 중구 저동2가 마른내로 9,37.56508767,126.98885630000001,중구,을지로동,중구 을지로동
2020,영업중,0,0,0,19940225,서울송도병원,서울특별시 중구 신당동 366-97,서울특별시 중구 다산로 78,37.55116814,127.00838200000001,중구,약수동,중구 약수동
2020,영업중,0,0,0,20170804,굿모닝요양병원,서울특별시 성동구 용답동 235-3,서울특별시 성동구 천호대로 436,37.56069135,127.06720940000001,성동구,용답동,성동구 용답동
2020,영업중,0,0,0,20030917,녹색병원,서울특별시 중랑구 면목동 608,서울특별시 중랑구 사가정로49길 53,37.58356426,127.08606090000002,중랑구,면목제3.8동,중랑구 면목제3.8동
2020,영업중,0,0,0,20140521,브레인요양병원,서울특별시 동대문구 장안동 311-5,서울특별시 동대문구 장한로32길 7,37.57546837,127.0725832,동대문구,장안2동,동대문구 장안2동
2020,영업중,0,0,0,20050329,의료법인한국의료재단프라임병원,서울특별시 중랑구 묵동 158-7,서울특별시 중랑구 공릉로 76,37.6172287,127.0794602,중랑구,묵1동,중랑구 묵1동
2020,영업중,0,0,0,20160502,연세본병원,서울특별시 중랑구 면목동 617-2,서울특별시 중랑구 면목로 310,37.57963775,127.08797539999999,중랑구,면목7동,중랑구 면목7동
2020,영업중,0,0,0,19830822,의료법인풍산의료재단동부제일병원,서울특별시 중랑구 망우동 94-2,서울특별시 중랑구 망우로 511,37.60086346,127.10957830000001,중랑구,망우본동,중랑구 망우본동
2020,영업중,0,0,0,20071205,서울선병원,서울특별시 중랑구 상봉2동 74-43,서울특별시 중랑구 망우로 373,37.59862277,127.0936277,중랑구,상봉1동,중랑구 상봉1동
2020,영업중,0,0,0,19880329,의료법인 우신향병원,서울특별시 성북구 안암동5가 103-130,서울특별시 성북구 안암동5가 안암로 99,37.58461773,127.03094109999998,성북구,안암동,성북구 안암동
2020,영업중,0,0,0,20030602,로덴치과병원,서울특별시 성북구 종암동 10-125,서울특별시 성북구 종암로 72,37.59699923,127.03561129999999,성북구,종암동,성북구 종암동
2020,영업중,0,0,0,20080901,라본병원,서울특별시 중랑구 망우동 149-17,서울특별시 중랑구 망우로 476,37.60031007,127.1050929,중랑구,망우본동,중랑구 망우본동
2020,영업중,0,0,0,20060911,보문효사랑요양병원,서울특별시 성북구 보문동7가 105-3,서울특별시 성북구 보문동7가 보문로 46,37.57973781,127.0227254,성북구,보문동,성북구 보문동
2020,영업중,0,0,0,20110628,동서요양병원,서울특별시 성북구 하월곡동 88-747,서울특별시 성북구 동소문로 306,37.60689201,127.02892340000001,성북구,길음2동,성북구 길음2동
2020,영업중,0,0,0,19880115,의료법인서광의료재단 성북중앙병원,서울특별시 성북구 종암동 10-125,서울특별시 성북구 종암로 72,37.59699923,127.03561129999999,성북구,종암동,성북구 종암동
2020,영업중,0,0,0,20180223,성북우리아이들병원,서울특별시 성북구 하월곡동 88-863,서울특별시 성북구 동소문로46길 10,37.60686454,127.0293598,성북구,길음2동,성북구 길음2동
2020,영업중,0,0,0,20161212,북서울요양병원,서울특별시 강북구 번동 461-68,서울특별시 강북구 한천로 1002,37.63813574,127.0300183,강북구,번1동,강북구 번1동
2020,영업중,0,0,0,19940221,국립재활원,서울특별시 강북구 수유동 520,서울특별시 강북구 삼각산로 58,37.63917458,127.0114587,강북구,인수동,강북구 인수동
2020,영업중,0,0,0,20130719,정요양병원,서울특별시 도봉구 쌍문동 707-13,서울특별시 도봉구 도봉로 639,37.66153921,127.0418209,도봉구,쌍문2동,도봉구 쌍문2동
2020,영업중,0,0,0,19740328,의료법인한전의료재단 한일병원,서울특별시 도봉구 쌍문동 388-1,서울특별시 도봉구 우이천로 308,37.64538852,127.0295405,도봉구,쌍문3동,도봉구 쌍문3동
2020,영업중,0,0,0,20020904,가화실버한방병원,서울특별시 도봉구 방학동 665-6,서울특별시 도봉구 도당로 51,37.66283058,127.0343929,도봉구,방학2동,도봉구 방학2동
2020,영업중,0,0,0,20080131,에이치큐브병원,서울특별시 도봉구 창동 731-1,서울특별시 도봉구 도봉로 604,37.65831497,127.0410351,도봉구,창5동,도봉구 창5동
2020,영업중,0,0,0,20080331,의성한방병원,서울특별시 도봉구 방학동 719-3,서울특별시 도봉구 도봉로152길 26,37.66923195,127.0452746,도봉구,방학1동,도봉구 방학1동
2020,영업중,0,0,0,20091109,의료법인 상원의료재단 강북힘찬병원,서울특별시 도봉구 창동 650-46,서울특별시 도봉구 도봉로 446,37.6456628,127.03337720000002,도봉구,창2동,도봉구 창2동
2020,영업중,0,0,0,20141117,케이치과병원,서울특별시 송파구 신천동 11-7,서울특별시 송파구 올림픽로 319,37.51565063,127.1054645,송파구,잠실6동,송파구 잠실6동
2020,영업중,0,0,0,20060913,마리아성모요양병원,서울특별시 영등포구 영등포동8가 50-1,서울특별시 영등포구 영등포동8가 영중로 122,37.52713152,126.90596049999999,영등포구,영등포동,영등포구 영등포동
2020,영업중,0,0,0,20020805,본서부병원,서울특별시 은평구 응암동 87-9,서울특별시 은평구 은평로 133,37.60100759,126.9229088,은평구,응암1동,은평구 응암1동
2020,영업중,0,0,0,20110309,서울특별시서울의료원,서울특별시 중랑구 신내동 316,서울특별시 중랑구 신내로 156,37.61307869,127.09873200000001,중랑구,신내1동,중랑구 신내1동
2020,영업중,0,0,0,20040302,의료법인제민의료재단동서병원,서울특별시 서대문구 연희동 194-37,서울특별시 서대문구 성산로 365-14,37.56466512,126.9302592,서대문구,연희동,서대문구 연희동
2020,영업중,0,0,0,19840227,의료법인제민의료재단동서한방병원,서울특별시 서대문구 연희동 194-37,서울특별시 서대문구 성산로 365-14,37.56466512,126.9302592,서대문구,연희동,서대문구 연희동
2020,영업중,0,0,0,20181211,목동성모요양병원,서울특별시 양천구 목동 408-121,서울특별시 양천구 오목로 282,37.52518551,126.86855800000001,양천구,목1동,양천구 목1동
2020,영업중,0,0,0,20030728,포미즈여성병원,서울특별시 양천구 목동 513-2,서울특별시 양천구 공항대로 610,37.546789700000005,126.87235840000001,양천구,목2동,양천구 목2동
2020,영업중,0,0,0,20041001,마루치과병원,서울특별시 구로구 구로동 26-2,서울특별시 구로구 새말로 110,37.50633461,126.8921352,구로구,구로5동,구로구 구로5동
2020,영업중,0,0,0,20181226,이화여자대학교의과대학부속서울병원,서울특별시 강서구 마곡동 728-24,서울특별시 강서구 공항대로 260,37.55726306,126.8362668,강서구,발산1동,강서구 발산1동
2020,영업중,0,0,0,20121228,포근한맘요양병원,서울특별시 도봉구 쌍문동 508-2,서울특별시 도봉구 삼양로 606,37.65707697,127.01380800000001,도봉구,쌍문1동,도봉구 쌍문1동
2020,영업중,0,0,0,20070222,남부효요양병원,서울특별시 구로구 가리봉동 137-5,서울특별시 구로구 남부순환로 1291,37.47905202,126.89437590000001,구로구,가리봉동,구로구 가리봉동
2020,영업중,0,0,0,20101109,아나파한방병원,서울특별시 구로구 고척동 324,서울특별시 구로구 중앙로1길 18-18,37.49923145,126.86358100000001,구로구,고척1동,구로구 고척1동
2020,영업중,0,0,0,20140612,목동현대요양병원,서울특별시 구로구 고척동 176-3,서울특별시 구로구 중앙로 91,37.50555424,126.8604237,구로구,고척2동,구로구 고척2동
2020,영업중,0,0,0,19811113,의료법인 인봉의료재단 영등포병원,서울특별시 영등포구 당산동3가 386-3,서울특별시 영등포구 당산동3가 당산로31길 10,37.52690865,126.8959973,영등포구,당산1동,영등포구 당산1동
2020,영업중,0,0,0,20080404,마디세상병원,서울특별시 중랑구 묵동 180-55,서울특별시 중랑구 동일로 890,37.60991545,127.07818929999999,중랑구,묵1동,중랑구 묵1동
2020,영업중,0,0,0,20091015,대림요양병원,서울특별시 영등포구 대림동 668-12,서울특별시 영등포구 가마산로 381,37.50261844,126.89977240000002,영등포구,대림3동,영등포구 대림3동
2020,영업중,0,0,0,19950520,강남고려병원,서울특별시 관악구 봉천동 36-83,서울특별시 관악구 관악로 242,37.48561534,126.95677959999999,관악구,행운동,관악구 행운동
2020,영업중,0,0,0,19820930,성애의료재단 성애병원,서울특별시 영등포구 신길동 451-5,서울특별시 영등포구 여의대방로53길 22,37.51205002,126.9223689,영등포구,신길1동,영등포구 신길1동
2020,영업중,0,0,0,19950114,노원을지대학교병원,서울특별시 노원구 하계동 280-1,서울특별시 노원구 한글비석로 68,37.63643466,127.0699341,노원구,하계1동,노원구 하계1동
2020,영업중,0,0,0,20080415,강남효요양병원,서울특별시 관악구 봉천동 945-2,서울특별시 관악구 남부순환로 1704,37.4830464,126.939398,관악구,청룡동,관악구 청룡동
2020,영업중,0,0,0,20081104,서울탑치과병원,서울특별시 서초구 서초동 1602-8,서울특별시 서초구 서초중앙로 39,37.48527671,127.01571100000001,서초구,서초3동,서초구 서초3동
2020,영업중,0,0,0,19780523,서울특별시어린이병원,서울특별시 서초구 내곡동 375,서울특별시 서초구 헌릉로 260,37.45529233,127.06881680000001,서초구,내곡동,서초구 내곡동
2020,영업중,0,0,0,19800502,학교법인가톨릭학원가톨릭대학교서울성모병원,서울특별시 서초구 반포동 505,서울특별시 서초구 반포대로 222,37.49923118,127.00518159999999,서초구,반포4동,서초구 반포4동
2020,영업중,0,0,0,20010918,필치과병원,서울특별시 서초구 방배동 774,서울특별시 서초구 방배로 245,37.49476868,126.98886509999998,서초구,방배본동,서초구 방배본동
2020,영업중,0,0,0,20151214,세바른병원,서울특별시 서초구 서초동 1600-10,서울특별시 서초구 서초중앙로 47,37.48595229,127.0153412,서초구,서초3동,서초구 서초3동
2020,영업중,0,0,0,20160311,의료법인 참예원의료재단 서초참요양병원,서울특별시 서초구 우면동 791,서울특별시 서초구 양재대로 54,37.45976449,127.025361,서초구,양재1동,서초구 양재1동
2020,영업중,0,0,0,20100429,의료법인 명경의료재단 꽃마을한방병원,서울특별시 서초구 서초동 1656-4,서울특별시 서초구 서초중앙로 110,37.49159037,127.0145228,서초구,서초1동,서초구 서초1동
2020,영업중,0,0,0,20050601,김정수여러분병원,서울특별시 강남구 논현동 206-10,서울특별시 강남구 봉은사로 171,37.50721955,127.0325757,강남구,논현1동,강남구 논현1동
2020,영업중,0,0,0,20050303,우리들병원,서울특별시 강남구 청담동 47-4,서울특별시 강남구 학동로 445,37.51909116,127.04960829999999,강남구,청담동,강남구 청담동
2020,영업중,0,0,0,20151223,한성한방병원,서울특별시 강남구 논현동 192-5,서울특별시 강남구 논현로 609,37.50801397,127.0331838,강남구,논현1동,강남구 논현1동
2020,영업중,0,0,0,20080411,에스플란트치과병원,서울특별시 강남구 청담동 2-8,서울특별시 강남구 도산대로 410,37.522976899999996,127.0404834,강남구,청담동,강남구 청담동
2020,영업중,0,0,0,20080626,메드렉스병원,서울특별시 강남구 논현동 37-21,서울특별시 강남구 논현로 705,37.51490115,127.02997820000002,강남구,논현1동,강남구 논현1동
2020,영업중,0,0,0,19920715,윤호병원,서울특별시 강남구 신사동 638-1,서울특별시 강남구 압구정로 304,37.52884466,127.0344143,강남구,압구정동,강남구 압구정동
2020,영업중,0,0,0,20170519,느루요양병원,서울특별시 강남구 신사동 587-16,서울특별시 강남구 도산대로 209,37.52050407,127.02938999999999,강남구,압구정동,강남구 압구정동
2020,영업중,0,0,0,20010719,건강한세상앞선치과병원,서울특별시 강남구 삼성동 159-9,서울특별시 강남구 테헤란로87길 36,37.51023437,127.0585975,강남구,삼성1동,강남구 삼성1동
2020,영업중,0,0,0,20070612,유나이티드병원,서울특별시 강남구 도곡동 957-14,서울특별시 강남구 남부순환로 2609,37.48496357,127.03509679999999,강남구,도곡1동,강남구 도곡1동
2020,영업중,0,0,0,20020419,재단법인베스티안재단베스티안서울병원,서울특별시 강남구 대치동 939-24,서울특별시 강남구 도곡로 429,37.49803149,127.0571965,강남구,대치4동,강남구 대치4동
2020,영업중,0,0,0,19971220,시그마치과병원,서울특별시 송파구 신천동 7-19,서울특별시 송파구 올림픽로 289,37.51461439,127.1025223,송파구,잠실6동,송파구 잠실6동
2020,영업중,0,0,0,19980605,서울병원,서울특별시 송파구 가락동 2,서울특별시 송파구 오금로 290,37.5039067,127.1247092,송파구,가락본동,송파구 가락본동
2020,영업중,0,0,0,19991030,수치과병원,서울특별시 송파구 문정동 150-26,서울특별시 송파구 중대로 68,37.49156636,127.1164382,송파구,문정2동,송파구 문정2동
2020,영업중,0,0,0,20130903,선수촌병원,서울특별시 송파구 잠실동 175-7,서울특별시 송파구 올림픽로 76,37.51156239,127.0791825,송파구,잠실본동,송파구 잠실본동
2020,영업중,0,0,0,20101117,동부센트럴요양병원,서울특별시 강동구 암사동 501-10,서울특별시 강동구 올림픽로98길 8,37.55113494,127.1284399,강동구,암사1동,강동구 암사1동
2020,영업중,0,0,0,20050228,서울양병원,서울특별시 강동구 길동 424,서울특별시 강동구 천호대로 1159,37.53406791,127.1401247,강동구,길동,강동구 길동
2020,영업중,0,0,0,20060227,강동경희대학교한방병원,서울특별시 강동구 상일동 149,서울특별시 강동구 동남로 892,37.55355882,127.1576155,강동구,상일동,강동구 상일동
2020,영업중,0,0,0,20120102,공안과병원,서울특별시 강동구 성내동 24-1,서울특별시 강동구 풍성로37길 45,37.53391594,127.12602820000001,강동구,성내2동,강동구 성내2동
2020,영업중,0,0,0,20031205,강동미즈여성병원,서울특별시 강동구 천호동 452-1,서울특별시 강동구 천호대로 1043,37.53762375,127.1281065,강동구,천호3동,강동구 천호3동
2020,영업중,0,0,0,20130222,달려라병원,서울특별시 강동구 길동 318,서울특별시 강동구 천호대로 1165,37.534082700000006,127.1409297,강동구,길동,강동구 길동
2020,영업중,0,0,0,20140912,리더스병원,서울특별시 강동구 성내동 13-9,서울특별시 강동구 천호대로 1044,37.53694762,127.12772859999998,강동구,성내2동,강동구 성내2동
2020,영업중,0,0,0,20110426,의료법인참예원의료재단 성북참노인전문병원,서울특별시 성북구 정릉동 508-171,서울특별시 성북구 북악산로1길 71,37.59765763,127.0051939,성북구,정릉2동,성북구 정릉2동
2020,영업중,0,0,0,19940622,의료법인동신의료재단 동신병원,서울특별시 서대문구 홍은동 430,서울특별시 서대문구 연희로 272,37.58118785,126.93659099999999,서대문구,홍은2동,서대문구 홍은2동
2020,영업중,0,0,0,19861017,성심의료재단강동성심병원,서울특별시 강동구 길동 445,서울특별시 강동구 성안로 150,37.53615563,127.13533600000001,강동구,길동,강동구 길동
2020,영업중,0,0,0,20060101,사랑의병원,서울특별시 관악구 봉천동 1664-1,서울특별시 관악구 남부순환로 1860,37.479625799999994,126.95628640000001,관악구,낙성대동,관악구 낙성대동
2020,영업중,0,0,0,20170320,서울현대요양병원,서울특별시 강동구 천호동 357,서울특별시 강동구 올림픽로 684,37.54227704,127.1252988,강동구,천호2동,강동구 천호2동
2020,영업중,0,0,0,20141017,대명요양병원,서울특별시 영등포구 양평동4가 68-1,서울특별시 영등포구 양평동4가 양평로 99,37.53648028,126.89607290000001,영등포구,양평2동,영등포구 양평2동
2020,영업중,0,0,0,19860820,가톨릭대학교 여의도성모병원,서울특별시 영등포구 여의도동 62,서울특별시 영등포구 63로 10,37.51790475,126.9360028,영등포구,여의동,영등포구 여의동
2020,영업중,0,0,0,20060227,강동경희대학교의대병원,서울특별시 강동구 상일동 149,서울특별시 강동구 동남로 892,37.55355882,127.1576155,강동구,상일동,강동구 상일동
2020,영업중,0,0,0,19831116,한국보훈복지의료공단 중앙보훈병원,서울특별시 강동구 둔촌동 6-2,서울특별시 강동구 진황도로61길 53,37.52818872,127.14720600000001,강동구,둔촌2동,강동구 둔촌2동
2020,영업중,0,0,0,19851129,한국원자력의학원원자력병원,서울특별시 노원구 공릉동 215-4,서울특별시 노원구 노원로 75,37.62826722,127.0818105,노원구,공릉2동,노원구 공릉2동
2020,영업중,0,0,0,20101122,의료법인 춘혜의료재단 명지춘혜재활병원,서울특별시 영등포구 대림동 782-3,서울특별시 영등포구 대림로 223,37.50064627,126.89702700000001,영등포구,대림3동,영등포구 대림3동
2020,영업중,0,0,0,20141127,마인드웰병원,서울특별시 중랑구 망우동 489-9,서울특별시 중랑구 망우로 403,37.59942823,127.09689159999999,중랑구,망우본동,중랑구 망우본동
2020,영업중,0,0,0,20131224,팔팔병원,서울특별시 중랑구 면목동 180-1,서울특별시 중랑구 동일로 679,37.59093959,127.07969809999999,중랑구,면목2동,중랑구 면목2동
2020,영업중,0,0,0,19840904,재단법인대성병원,서울특별시 서대문구 홍제동 234-2,서울특별시 서대문구 세무서길 20,37.58893789,126.94579159999999,서대문구,홍제3동,서대문구 홍제3동
2020,영업중,0,0,0,19740325,학교법인연세대학교의과대학세브란스병원,서울특별시 서대문구 신촌동 134,서울특별시 서대문구 연세로 50-1,37.56301291,126.9417213,서대문구,신촌동,서대문구 신촌동
2020,영업중,0,0,0,19710220,경찰병원,서울특별시 송파구 가락동 58,서울특별시 송파구 송이로 123,37.49641466,127.1234875,송파구,가락본동,송파구 가락본동
2020,휴업,0,20200801,20201231,20170106,서울동인병원,서울특별시 성동구 하왕십리동 1070-3,서울특별시 성동구 왕십리로 382,37.56511103,127.0280203,성동구,왕십리도선동,성동구 왕십리도선동
2020,폐업,20200712,0,0,20070309,러스크강동병원,서울특별시 강동구 명일동 335-3,서울특별시 강동구 양재대로 1596,37.54808383,127.14378959999999,강동구,명일1동,강동구 명일1동
