도서관명,구명,주소,위도,경도
BIBLIOTECA,강남구,서울특별시 강남구 도산대로 25길 15-4 1층,37.5207695,127.0245651
LH강남3단지작은도서관,강남구,서울특별시 강남구 자곡로3길 22 ,37.46997231,127.0910208
休+밤토리SH작은도서관,강남구,서울특별시 강남구 밤고개로26길 50(율현동 강남한신휴플러스6단지),37.47054284,127.1137731
강남구립못골도서관,강남구,서울특별시 강남구 자곡로 116,37.47153836,127.096582
강남역삼푸른솔도서관,강남구,서울특별시 강남구 테헤란로8길 36. 4층,37.4964968,127.0320274
강남한신휴플러스8단지작은도서관,강남구,서울특별시 강남구 밤고개로27길 20(율현동 강남한신휴플러스8단지) ,37.46971323,127.1130164
강남한양수자인작은씨앗도서관,강남구,서울특별시 강남구 자곡로 260 ,37.47586067,127.1134903
개포4동작은도서관,강남구,서울특별시 강남구 개포로38길 12 개포4동주민센터 ,37.47882622,127.0516625
국립어린이청소년도서관,강남구,서울특별시 강남구 테헤란로7길 21,37.50090187,127.0296764
꿈꾸는작은도서관,강남구,서울특별시 강남구 자곡로3길 21 ,37.47176041,127.0881053
꿈밭작은도서관,강남구,서울특별시 강남구 자곡로 204-19 2층,37.47375667,127.104168
남서울중앙교회작은도서관,강남구,서울특별시 강남구 삼성로 40(개포동) 1층,37.48894236,127.0666071
논현도서관,강남구,서울특별시 강남구 학동로43길 17(논현동) 논현2동주민센터 6층,37.51727791,127.0371879
논현정보도서관,강남구,서울특별시 강남구 학동로 167  3층,37.51386197,127.0293199
다움영어도서관,강남구,서울특별시 강남구 개포로 124길 7(일원동),37.49411388,127.0828722
대치1동작은도서관,강남구,서울특별시 강남구 남부순환로 391길 19 대치1문화센터 지하1층 ,37.49324594,127.0567758
대치도서관,강남구,서울특별시 강남구 삼성로 212 은마아파트 복지상가 2층 215호,37.49879449,127.066997
데시앙숲속작은도서관,강남구,서울특별시 강남구 광평로 34길 55 ,37.48070634,127.0896793
도곡2동작은도서관,강남구,서울특별시 강남구 남부순환로378길 34-9 도곡2동주민센터 ,37.48372309,127.0464069
도곡정보문화도서관,강남구,서울특별시 강남구 도곡로18길 57,37.4883101,127.0388803
드림작은도서관,강남구,서울특별시 강남구 언주로121길 5(논현동) 1층,37.51146572,127.0353539
래미안포레작은도서관,강남구,서울특별시 강남구 밤고개로 21길 25 ,37.47504703,127.1076438
루디아영어어린이도서관,강남구,서울특별시 강남구 헌릉로 569 802호(세곡동) 강남리더스빌딩 802호,37.46575726,127.1012262
맛있는 도서관,강남구,서울특별시 강남구 남부순환로365길 22 B 101호,37.486838,127.0372526
못골한옥어린이도서관,강남구,서울특별시 강남구 영동대로 65길 24 대치2동주민센터3층,37.50230515,127.0641886
브리즈힐도서관,강남구,서울특별시 강남구 자곡로 3길 45,37.47222456,127.0906848
사피엔스 작은도서관,강남구,서울특별시 강남구 삼성로 720 청담동천주교회,37.5203668,127.0478323
산마루 작은도서관,강남구,서울특별시 강남구 영동대로 118길 39 ,37.5178203,127.0590694
삼성도서관,강남구,서울특별시 강남구 봉은사로 616 삼성1동주민센터 동관 4층 ,37.51435272,127.0626058
삼성서울병원의학정보센터,강남구,서울특별시 강남구 일원로 81 삼성서울병원 별관 지하 3층,37.49034493,127.0895905
서울특별시교육청강남도서관,강남구,서울특별시 강남구 선릉로116길 45,37.51368143,127.0468374
서울특별시교육청개포도서관,강남구,서울특별시 강남구 선릉로4길 30,37.48308019,127.063867
세곡도서관,강남구,서울특별시 강남구 밤고개로 286 세곡동주민센터 ,37.4690517,127.1069139
세곡리엔파크1단지아파트 SH도서관,강남구,서울특별시 강남구 헌릉로 590길 100 관리동2층(세곡동) ,37.4640671,127.0984192
세곡리엔파크5단지도서관,강남구,서울특별시 강남구 헌릉로590길 63 ,37.4600486,127.0993931
수서동작은도서관,강남구,서울특별시 강남구 광평로 301-4 수서동주민센터 ,37.48890342,127.1049909
신사동작은도서관,강남구,서울특별시 강남구 압구정로 128 신사동주민센터 ,37.52397487,127.0227972
아름다운도서관,강남구,서울특별시 강남구 논현로68길 5,37.49470924,127.0404834
압구정동작은도서관,강남구,서울특별시 강남구 압구정로33길 48 압구정동주민센터,37.53061779,127.0306528
역삼2동작은도서관,강남구,서울특별시 강남구 언주로 314 강남프라자 2층,37.49588839,127.046474
역삼도서관,강남구,서울특별시 강남구 역삼로7길 16,37.49537399,127.0332844
열린도서관,강남구,서울특별시 강남구 일원로 115 삼성생명빌딩 B동 203호,37.4839558,127.0845367
이편한세상도서관,강남구,서울특별시 강남구 헌릉로 571길 20 ,37.46574983,127.1030362
일원1동작은도서관,강남구,서울특별시 강남구 양재대로55길 14 일원1동 주민센터,37.49184926,127.0880233
일원본동작은도서관,강남구,서울특별시 강남구 광평로 126 일원본동주민센터 ,37.48337783,127.0864821
정다운도서관,강남구,서울특별시 강남구 학동로67길 11 3층정다운도서관,37.51909941,127.0464411
즐거운도서관,강남구,서울특별시 강남구 도곡로77길 23,37.49973075,127.0578497
청담도서관,강남구,서울특별시 강남구 압구정로79길 26 청담주민센터 7층,37.52509298,127.0492914
통계청나라셈도서관,강남구,서울특별시 강남구 언주로 721(논현동) 서울세관 별관 4층,37.51814355,127.0349803
페미니즘 도서관 두잉,강남구,서울특별시 강남구 삼성로 654 B1,37.5185487,127.0485138
푸르지오책사랑,강남구,서울특별시 강남구 자곡로 21 ,37.4662566,127.0923733
피치서가,강남구,서울특별시 강남구 논현로 168길 39 2층,37.5232559,127.0293329
하상시각장애인도서관,강남구,서울특별시 강남구 개포로 613 하상장애인복지회관,37.4924322,127.0728459
하음작은도서관,강남구,서울특별시 강남구 개포로25길 5 B1,37.4792226,127.045865
한국고등교육재단정보자료실,강남구,서울특별시 강남구 테헤란로 211 한국고등교육재단 지하3층,37.50188824,127.0392423
한국관세무역개발원자료실,강남구,서울특별시 강남구 언주로 735 관우빌딩 6층,37.52079171,127.0337358
한국무역협회정보자료실,강남구,서울특별시 강남구 영동대로 511 무역센터 트레이드타워 603호,37.51035608,127.0610231
한국문학번역원번역전문도서관,강남구,서울특별시 강남구 영동대로112길 32,37.51522231,127.0628405
한국지식재산연구원지식재산전문도서관,강남구,서울특별시 강남구 테헤란로 131 한국지식재산센터 3층,37.50008222,127.0329376
행복한도서관,강남구,서울특별시 강남구 영동대로65길 24(대치2문화센터 3층),37.50230515,127.0641886
힐즈도서관,강남구,서울특별시 강남구 자곡로 101,37.4724452,127.0958153
가람슬기작은도서관,강동구,서울특별시 강동구 강동대로53길 76 (성내동) 성내3동주민센터 1층,37.52604274,127.1328841
강동구립강일도서관,강동구,서울특별시 강동구 아리수로 93길 9-14,37.56504077,127.1739073
강동구립성내도서관,강동구,서울특별시 강동구 성안로 106-1,37.53283244,127.1333354
강동구립암사도서관,강동구,서울특별시 고덕로 20길 42 (암사동 471-37),37.55283455,127.1333221
강동구립천호도서관,강동구,서울특별시 강동구 성안로 31마길 1(천호3동 제2공영주차장 지상 2층),37.54052333,127.1340816
강동구립해공도서관,강동구,서울특별시 강동구 올림픽로 702,37.54394314,127.1255359
강동성심병원의학도서실,강동구,서울특별시 강동구 성안로 150 강동성심병원 제2별관 교육연구관 5층,37.53615563,127.135336
강동육아누리도서관,강동구,서울특별시 강동구 상암로 168 강동구민회관 2층 2층,37.54573146,127.1412226
강일1단지작은도서관,강동구,서울특별시 강동구 아리수로 93가길25 관리동 2층,37.56787986,127.1726055
강일리버파크6단지책향기문고,강동구,서울특별시 강동구 아리수로94길 19 강일리버파크6단지아파트 관리사무소 2층 ,37.5636621,127.1760796
게냇골작은도서관,강동구,서울특별시 강동구 구천면로 633(상일동) 상일동 주민센터 2층 ,37.55058375,127.1683004
고덕리엔파크3단지SH작은도서관,강동구,서울특별시 강동구 상일로 74 고덕리엔파크3단지아파트 315동 1층 ,37.55327315,127.176167
글고운작은도서관,강동구,서울특별시 강동구 성내로 13 2층(성내동) 성내1동 주민센터 1층,37.53047266,127.1224554
글마루작은도서관,강동구,서울특별시 강동구 아리수로78길 43-12 2층(고덕동) 고덕2동주민센터 2층,37.56474145,127.1624637
글익는작은도서관,강동구,서울특별시 강동구 고덕로 137 3층(암사동) 암사3동주민센터 3층,37.56262355,127.1384359
글향기작은도서관,강동구,서울특별시 강동구 구천면로42길 59 2층(천호동) 천호1동주민센터 2층,37.55042474,127.1397249
늘솔길작은도서관,강동구,서울특별시 강동구 양재대로156길 123 5층(고덕동) 고덕1동주민센터 5층,37.56446543,127.1615646
다온작은도서관,강동구,서울특별시 강동구 천중로51길 52 (길동) 2층,37.54313195,127.1448914
도담도담북카페,강동구,서울특별시 강동구 양재대로138길 37 1층(명일동) 명일1동주민센터 1층,37.55462967,127.1490347
래미안힐스테이트고덕작은도서관,강동구,서울특별시 강동구 아리수로 50길 50 304동 1층,37.5583596,127.151086
롯데캐슬도서관,강동구,서울특별시 강동구 고덕로 131 강동롯데캐슬퍼스트아파트 관리동 지하1층 ,37.55639905,127.1401469
루르드의작은도서관(구 강일동성당작은도서관),강동구,서울특별시 강동구 고덕로 476 1층,37.5578016,127.1764168
명성교회도서관,강동구,서울특별시 강동구 상암로51길 8,37.54691053,127.1462765
반딧불작은도서관,강동구,서울특별시 강동구 천호대로187길 6  2층(길동 길동자치회관),37.53465461,127.1426205
반석도서관,강동구,서울특별시 강동구 천중로49길 32-10 1층,37.54225826,127.143603
배움의공동체학사재,강동구,서울특별시 강동구 동남로83길21 지하1층,37.56068991,127.1553954
부엉이작은도서관,강동구,서울특별시 강동구 진황도로23길 7 2층(천호동) 천호3동주민센터 1층,37.54004014,127.129784
상상마루작은도서관,강동구,서울특별시 강동구 상일로 152 고덕리엔1단지 107동 1층 ,37.56082582,127.1710307
서울특별시교육청강동도서관,강동구,서울특별시 강동구 양재대로116길 57,37.53815107,127.1434874
서울특별시교육청고덕평생학습관,강동구,서울특별시 강동구 고덕동길 295 (고덕2동 296),37.55930391,127.1579066
서원마을작은도서관,강동구,서울특별시 강동구 올림픽로 936 2층(암사동) 마을회관 2층,37.56400935,127.1333801
성내PLUS작은도서관,강동구,서울특별시 강동구 성내로3길18 지하1층,37.53081531,127.1228364
솔향기북카페,강동구,서울특별시 강동구 고덕로97길 20 관리사무소 2층(강일동) 관리동 2층,37.57900841,127.1719981
아람작은도서관,강동구,서울특별시 강동구 양재대로84길 31  2층 (둔촌동),37.53131068,127.1497915
아빠하우스작은도서관,강동구,서울특별시 강동구 구천면로 279 B102호,37.54506356,127.1328948
안말작은도서관,강동구,서울특별시 강동구 풍성로37가길 62 (성내동) 성내2동주민센터 2층,37.53242851,127.1295401
옹기종기작은도서관,강동구,서울특별시 강서구 공항대로 61길 50 염창지역정보센터 내 2층,37.52925099,127.1429858
작은도서관 웃는책(구 천일어린이도서관),강동구,서울특별시 강동구 구천면로42길 60(천호동) 12층,37.55469166,127.1516834
좋은땅꿈나책작은도서관,강동구,서울특별시 강동구 풍성로37가길 58 (성내동) 2층,37.52925099,127.1429858
주영광작은도서관,강동구,서울특별시 강동구 양재대로115길 28 (길동) 3층,37.53245682,127.1292287
채우리작은도서관,강동구,서울특별시 강동구 고덕로24길 49 1층(암사동) 암사1동자치회관 1층,37.53921083,127.1388733
책꾸러미작은도서관,강동구,서울특별시 강동구 상암로 260 2층(명일동) 명일2동주민센터 2층,37.55236421,127.1357035
초대구름도서관,강동구,서울특별시 강동구 상암로 27나길 13 2층 2층,37.54752943,127.1371075
파랑새작은도서관,강동구,서울특별시 노원구 상계로 118 상계2동주민센터 2층 ,37.53097878,127.1496891
한국시각장애인복지재단점자도서관[이동도서관],강동구,서울특별시 강동구 구천면로 645 한국시각장애인복지관,37.5510679,127.1670404
한국점자도서관,강동구,서울특별시 강동구 상암로4가길 32 암사2동새마을문고,37.5516504,127.1250445
함께크는우리,강동구,서울특별시 강동구 고덕로83길 26(고덕동) 2층,37.55930269,127.1516827
해오름작은도서관,강동구,서울특별시 강동구 상암로3길 28 2층(암사동) 암사2동주민센터 2층,37.56665973,127.1384372
햇살작은도서관,강동구,서울특별시 서대문구 세검정로1길 45 홍은1동자치회관 ,37.55044679,127.1398729
희망샘작은도서관,강동구,서울특별시 강동구 풍성로35길 53(성내동)  602호,37.53397665,127.1252752
CMS영어작은도서관,강북구,서울특별시 강북구 삼양로74길 70 2층,37.6299922,127.0216208
강북문화정보도서관,강북구,서울특별시 강북구 오현로 145,37.6251151,127.0360795
강북새희망도서관,강북구,서울특별시 강북구 삼양로 91가길 2 2층 2층,37.63681136,127.0159405
강북청소년문화정보도서관,강북구,서울특별시 강북구 삼양로54길 68,37.62307414,127.0215511
겨자씨작은도서관,강북구,서울특별시 강북구 삼양로 27길 35 삼양제일교회 ,37.6184596,127.0194136
국립재활원재활연구소도서실,강북구,서울특별시 강북구 삼각산로 58 국립재활원 재활연구소 3층,37.63915539,127.0108963
꼴찌만화방작은도서관 ,강북구,서울특별시 강북구 숭인로 5길 14 ,37.61237679,127.0233397
꿈꾸는문고,강북구,서울특별시 강북구 삼각산로 140 4층 ,37.6408896,127.0175027
꿈이익어가는작은도서관,강북구,서울특별시 강북구 삼양로 106-1 1층,37.6133967,127.0222809
꿈익는책마을어린이도서관,강북구,서울특별시 강북구 삼양로47길 9 삼양동 종합복지센터 2층 2층,37.62293571,127.0185412
닻별작은도서관,강북구,서울특별시 강북구 한천로109가길 8 103호,37.6276632,127.0400769
동은작은도서관,강북구,서울특별시 강북구 4.19로13길 4 4층,37.64383521,127.0110662
미아동새마을문고,강북구,서울특별시 강북구 솔매로 49길 14 미아동주민자치센터 2층,37.63251143,127.0283215
미아문화정보도서관,강북구,서울특별시 강북구 솔매로49길 14,37.62709228,127.0269757
밝은작은도서관,강북구,서울특별시 강북구 삼양로 19길 74 엄마손마트 지하,37.61639737,127.0190458
번1동새마을문고,강북구,서울특별시 강북구 한천로 996 번1동 임시청사 4층,37.63776286,127.0305845
번2동새마을문고,강북구,서울특별시 강북구 한천로 897 번2동주민센터 2층,37.63247391,127.0385158
번3동새마을문고,강북구,서울특별시 강북구 한천로 105길 21 번3동주민센터 2층,37.62579675,127.0465047
번동꿈나무작은도서관,강북구,서울특별시 강북구 오현로31길 21 201호(번동),37.62960188,127.0387461
벧엘도서관,강북구,서울특별시 강북구 삼양로 19길 109 삼각산 아이원 아파트 상가 내 지하,37.61616064,127.0173591
별빛초롱문고,강북구,서울특별시 강북구 삼각산로 157 2층 ,37.64190283,127.0211966
북한산둘레길북카페,강북구,서울특별시강북구 4.19로 28길 10 북한산둘레길 북카페,37.64320846,127.0023678
삼각산동새마을문고,강북구,서울특별시 강북구 솔샘로 174(미아동) SK 아파트 제 1관리사무소 1층,37.61784278,127.035569
삼각산어린이도서관,강북구,서울특별시 강북구 삼양로 299(수유동),37.63005002,127.0175582
삼각산어린이도서관,강북구,서울특별시 강북구 삼양로19길 34,37.63005002,127.0175582
삼양동새마을문고,강북구,서울특별시 강북구 삼양로 268 삼양동주민센터 2층,37.62734029,127.0183669
성바오로딸수도회도서관,강북구,서울특별시 강북구 오현로7길 34 성바오로딸수도회,37.61836537,127.0324154
성심중앙문고,강북구,서울특별시 강북구 삼양로117길 58 성심중앙문고 3층,37.64434104,127.0132456
솔샘문화정보도서관,강북구,서울특별시 강북구 솔샘로 177(미아동),37.62047806,127.0124026
송중동새마을문고,강북구,서울특별시 강북구 오패산로 162 송중동 주민센터 3층,37.61612193,127.0337807
송중문화정보도서관,강북구,서울특별시 강북구 도봉로 20나길 6(미아동),37.61831389,127.0299377
송천동새마을문고,강북구,서울특별시 강북구 솔샘로 284 송천동주민센터 2층,37.61829732,127.0238508
송천북카페,강북구,서울특별시 강북구 숭인로 39 (송천센트레빌) 461,37.61249095,127.0250974
송천아름인도서관,강북구,서울특별시 강북구 솔샘로 271 송천아름인지역아동센터 3층 송천아름인지역아동센터 3층,37.61906174,127.0228658
수유1동새마을문고,강북구,서울특별시 강북구 삼양로 299 수유1동 주민센터 2층,37.63005002,127.0175582
수유2동새마을문고,강북구,서울특별시 강북구 한천로 1117 수유2동주민센터 2층,37.64464425,127.0198896
수유3동새마을문고,강북구,서울특별시 강북구 노해로 36 수유3동주민센터 2층,37.63872001,127.0231503
수유마을작은도서관,강북구,서울특별시 강북구 도봉로 71길 26 2층,37.63155713,127.0224509
수유문화정보도서관,강북구,서울특별시 강북구 삼양로 299(수유동),37.63005002,127.0175582
씽크엘작은도서관,강북구,서울특별시 강북구 삼양로 54길 92 2층3층4층,37.62289462,127.0231387
엘림 작은도서관,강북구,서울특별시 강북구 도봉로34길 43-13(미아동),37.6229751,127.0280148
오패산마을공동체마을꿈터도서관,강북구,서울특별시 강북구 오현로 31 삼화그린빌 102호,37.6166993,127.0336376
우리동네작은도서관,강북구,서울특별시 강북구 덕릉로40다길 13 번동제일교회 선교 교육관 2층 526-59,37.62744406,127.0465354
우이동새마을문고,강북구,서울특별시 강북구 삼양로 139길 49 우이동주민센터 2층,37.66370709,127.0123551
작은도서관 별찌,강북구,서울특별시 강북구 오현로 45 꿈의숲해링턴 111동 104호,37.61693604,127.0346097
작은도서관두루,강북구,서울특별시 강북구 삼양로 73길 23 2층 2층,37.62946981,127.0197854
작은도서관책이랑놀자,강북구,서울특별시 강북구 삼양로 79길 19-3 수유동,37.6310508,127.0187333
작은도서관함께놀자,강북구,서울특별시 강북구 인수봉로72길 4(수유동 극동아파트) 상가 13동 3층 2호 113동(상가동) 3층 2호,37.64178968,127.0123048
좋은맘작은도서관,강북구,서울특별시 강북구 삼양로 430 2층 2층,37.64184914,127.0168699
주영광어린이도서관,강북구,서울특별시 강북구 한천로 109길 67 한양아파트 2층,37.62719884,127.0408086
지혜어린이도서관,강북구,서울특별시 강북구 도봉로65길 35 3층,37.62941282,127.0226664
책읽는마을,강북구,서울특별시 강북구 삼양로54길 68 강북청소년문화정보도서관 1층,37.62307414,127.0215511
트리베라1차문고,강북구,서울특별시 강북구 삼양로19길 25 삼성래미안트리베라1차 아파트 관리사무소,37.61282768,127.0214348
푸른별환경도서관,강북구,서울특별시 강북구 삼양로51길 22 양지마을사랑채 1층(미아동),37.62391618,127.0172388
하늘을 나는 작은도서관,강북구,서울특별시 강북구 한천로124나길 27 지층 101동,37.6380173,127.0290972
e편한세상염창작은도서관,강서구,서울특별시 강서구 공항대로 583 관리동,37.5482976,126.8678862
가람작은도서관,강서구,서울특별시 강서구 양천로57길 36 가양5종합사회복지관 ,37.5635654,126.8525312
가양9-1단지작은도서관,강서구,서울특별시 강서구 허준로224 관리동 2층 ,37.55982697,126.8627765
가양도서관,강서구,서울특별시 강서구 양천로61길101(가양동 1493),37.55994851,126.8655346
강서영어도서관,강서구,서울특별시 강서구 곰달래로57가길 26,37.53468572,126.8608018
강서점자도서관,강서구,서울특별시 강서구 공항대로8길 77-24,37.5573639,126.8107549
곰달래도서관,강서구,서울특별시 강서구 강서로5길 50 (곰달래문화복지센터 5 6층),37.52905938,126.8488976
공룡어린이도서관,강서구,서울특별시 강서구 까치산로 144 꿈이있는어린이도서관 강남교회,37.55007327,126.8522095
국립국어원자료실,강서구,서울특별시 강서구 금낭화로 154 3층,37.57915455,126.8138354
글고운SH작은도서관,강서구,서울특별시 강서구 공항대로 124 1102동 1층 ,37.55941384,126.8208126
글마루SH작은도서관,강서구,서울특별시 강서구 마곡서1로 146 ,37.56912773,126.820556
글벗누리작은도서관,강서구,서울특별시 강서구 방화대로 330 방화1동주민센터 2층 2,37.57034125,126.8170501
길꽃어린이도서관,강서구,서울특별시 강서구 금낭화로24길 5,37.57871971,126.8136582
꿈꾸는어린이도서관,강서구,서울특별시 강서구 공항대로 615,37.54733669,126.8733189
꿈나래작은도서관,강서구,서울특별시 강서구 양천로47가길 25-10 양천교회,37.57132885,126.8393354
꿈빛작은도서관,강서구,서울특별시 강서구 공항대로 140 1203동 1층 ,37.55930889,126.8225324
꿈이있는도서관,강서구,서울특별시 강서구 강서로47길 108,37.55372781,126.8299298
꿈자람책놀이터작은도서관,강서구,서울특별시 강서구 개화동로 21길 4 방화11단지아파트 종합사회복지관 ,37.59002188,126.8041536
꿈터작은도서관,강서구,서울특별시 강서구 곰달래로 79 화곡1동주민센터 3층,37.53050717,126.8415913
나무그늘작은도서관,강서구,서울특별시 강서구 마곡서1로 100 2층,37.56485283,126.8216804
나팔부는작은도서관,강서구,서울특별시 강서구 마곡중앙로 33 관리동 2층,37.5561197,126.8618507
내발산작은도서관,강서구,서울특별시 강서구 강서로52길 89 내발산동문화센터 5층 ,37.55744761,126.8247026
다빈작은도서관,강서구,서울특별시 강서구 마곡서로 168 럭스나인오피스텔L동 205호,37.55749787,126.8431987
다솜SH작은도서관,강서구,서울특별시 강서구 마곡서1로 131 2층 ,37.5689636,126.8255406
도란도란쉼터작은도서관,강서구,서울특별시 강서구 허준로 30 가양1동주민센터 2층 ,37.56856045,126.8189022
도리샘작은도서관,강서구,서울특별시 강서구 허준로 202 가양3동주민센터 2층 ,37.56109265,126.8605614
등마루골작은도서관,강서구,서울특별시 강서구 등촌로 143 등촌2동주민센터 2층,37.54265831,126.8625031
등불작은도서관,강서구,서울특별시 강서구 강서로 29길 20 ,37.5396417,126.8404796
등빛도서관,강서구,서울특별시 강서구 강서로62길 48,37.56245409,126.8423739
등촌아이파크도서관,강서구,서울특별시 강서구 등촌로 163 등촌아이파크아파트 ,37.54332407,126.8620737
람원문고,강서구,서울특별시 강서구 까치산로 164,37.5517845,126.8530048
렘넌트문화센터두란노도서관,강서구,서울특별시 강서구 화곡로63길 65 12층,37.5579368,126.8469821
로뎀북카페작은도서관,강서구,서울특별시 강서구 양천로24길 31(방화동),37.57196293,126.815772
마곡엠밸리5단지SH작은도서관,강서구,서울특별시 강서구 마곡서1로 111-11 ,37.56584834,126.8175009
많은샘작은도서관,강서구,서울특별시 강서구 양천로 75길 13 2층 2층,37.5503824,126.8750658
발음작은도서관,강서구,서울특별시 강서구 강서로47나길 35 발음교회 ,37.53177397,126.8455239
방그리나작은도서관,강서구,서울특별시 강서구 금낭화로24길 5 방화3동주민센터 2층,37.57871971,126.8136582
배다리작은도서관,강서구,서울특별시 강서구 곰달래로25길 45 화곡8동주민센터 2층,37.53269878,126.8483319
볏고을작은도서관,강서구,서울특별시 강서구 곰달래로 57가길 26 화곡4동주민센터 2층,37.53468572,126.8608018
새싹작은도서관,강서구,서울특별시 강서구 수명로2길 105 514동 1층 ,37.55216553,126.8270329
생각빚는작은도서관,강서구,서울특별시 강서구 공항대로 481 2층 ,37.55337187,126.8604179
생각열매작은도서관,강서구,서울특별시 강서구 공항대로53가길55 등촌1동주민센터 2층 ,37.55583112,126.8589109
서울특별시교육청강서도서관,강서구,서울특별시 강서구 등촌로51나길 29,37.5479003,126.8599262
솔뫼작은도서관,강서구,서울특별시 강서구 가로공원로77길 30 솔뫼공원경로당 2층,37.53801623,126.8385166
송정작은도서관,강서구,서울특별시 강서구 송정길 45 공항동주민센터 2층 ,37.56355592,126.814849
수명산작은도서관,강서구,서울특별시 강서구 수명로 1길 131 내발산동공공기숙사 지하 1층 ,37.55411388,126.8255181
승리행복작은도서관,강서구, ,,
아리향기작은도서관,강서구,서울특별시 강서구 양천로67가길 63 염창동주민센터2층,37.55377439,126.8709675
아이편한작은도서관,강서구,서울특별시 강서구 강서로 266 우장산아이파크이편한세상,37.54918164,126.8395323
어울림작은도서관,강서구,서울특별시 강서구 마곡중앙1로 72(마곡동 마곡10단지) ,37.572344,126.8380573
역마을작은도서관,강서구,서울특별시 강서구 화곡로 312 화곡6동주민센터 2층 ,37.55181465,126.8500752
염창작은도서관,강서구,서울특별시 강서구 공항대로75길 30 상가동 301호 ,37.54766948,126.8740357
예뜰작은도서관,강서구,서울특별시 은평구 은평로 3길 7 은평비전센터 1층 ,37.59959068,126.9145269
예인작은도서관,강서구,서울특별시 강서구 방화대로 34길 120,37.57174834,126.8232974
옹기종기작은도서관,강서구,서울특별시 강서구 공항대로 61길 50 염창지역정보센터 내,37.52925099,127.1429858
옹달샘작은도서관,강서구,서울특별시 구로구 천왕로 56(천왕동 천왕이펜하우스3단지) 2층,37.5318233,126.854486
우리작은도서관,강서구,서울특별시 강서구 방화대로6라길 26 2층,37.55614907,126.8185107
우장산숲속도서관,강서구,서울특별시 강서구 우현로 34,37.54828757,126.8418355
위드영어전문작은도서관,강서구,서울특별시 강서구 월정로32길 30 1층,37.5352355,126.8370888
작은뜰작은도서관,강서구,서울특별시 강서구 마곡서로 175 작은뜰작은도서관,37.56985973,126.8248177
종이비행기작은도서관,강서구,서울특별시 강서구 남부순환로19길 50 202호,37.5465825,126.8242049
좋은친구어린이도서관,강서구,서울특별시 강서구 방화대로6나길 28 한사랑교회 2층,37.55626806,126.8170781
채움작은도서관,강서구,서울특별시 강서구 개화동로23길20 방화2동주민센터 2층 ,37.54680952,126.8316262
책마루작은도서관,강서구,서울특별시 강서구 강서로33가길 17 화곡3동주민센터 2층 ,37.59763325,126.7988721
책향기작은도서관,강서구,서울특별시 구로구 고척로 18길 92 오류동 감리교회 별관 2층,37.55312086,126.8331803
천사작은도서관,강서구,서울특별시 강서구 마곡서로 133 705동 3층,37.56519009,126.8221487
초록동작은도서관,강서구,서울특별시 강서구 초록마을로 14길 36 2층 초록동 경로당 2층,37.54114762,126.8485095
초록향기작은도서관,강서구,서울특별시 강서구 초록마을로5길 29 화곡본동주민센터 2층 ,37.54404753,126.8476629
큰마음작은도서관,강서구,서울특별시 강서구 화곡로63길 96 등촌3동주민센터 2층 ,37.55888732,126.8479185
푸른들청소년도서관,강서구,서울특별시 강서구 강서로45다길 71,37.54467538,126.835182
하늘꿈작은도서관,강서구,서울특별시 송파구 오금로 473 하늘꿈작은도서관,37.54902225,126.8344231
하늘담은작은도서관,강서구,서울특별시 강서구 방화동로 72 2층 하늘담은 작은도서관,37.58410347,126.8212247
하늘뜰작은도서관,강서구,서울특별시 강서구 마곡중앙1로 71(마곡동 마곡힐스테이트) 1311동,37.55690585,126.8178733
한국문화관광연구원정책자료실,강서구,서울특별시 강서구 금낭화로 154,37.57915455,126.8138354
해뜰작은도서관,강서구,서울특별시 강서구 방화대로 48길 40 방화2 종합사회복지관 방화2종합사회복지관 3층,37.57364524,126.8185226
허준마을작은도서관,강서구,서울특별시 강서구 허준로 93 가양2동주민센터 2층 ,37.5673976,126.8512711
화곡푸르지오도서관,강서구,서울특별시 강서구 화곡로13길 107 ,37.54680952,126.8316262
환원어린이작은도서관,강서구,서울특별시 강서구 금낭화로26가길 120 지온보육원 강서지역아동복지센터 ,37.58396156,126.8118064
희망문고,강서구,서울특별시 강서구 화곡로 18길 30-11 원흥타운 207호 ,37.5385771,126.8354767
갈보리작은도서관,관악구,서울특별시 관악구 관천로11길 57 지하1층,37.4837085,126.9196097
고맙습니다하난곡작은도서관,관악구,서울특별시 관악구 난우10가길 20-7 하난곡어린이집 23층,37.47681645,126.919935
관악문화관도서관,관악구,서울특별시 관악구 신림로 3길 35,37.46759816,126.9448714
관악산시도서관,관악구,서울특별시 관악구 신림로23길 100 효성빌라,37.46656086,126.9340203
국제백신연구소자료실,관악구,서울특별시 관악구 관악로 1 서울대학교 연구공원 내,37.4487334,126.954225
그림숲 그림책작은도서관,관악구,서울특별시 관악구 청룡9길 12-39 청룡동자치회관 1층,37.4780063,126.9442643
글빛정보도서관,관악구,서울특별시 관악구 관악로 30길 23,37.4862426,126.9596701
꿈꾸는작은도서관(관악),관악구,서울시 관악구 광신길 115,37.4642348,126.9234343
꿈나무영유아도서관,관악구,서울특별시 관악구 신림로 3길 35 문화복합시설내 2층 ,37.46759816,126.9448714
꿈마을도서관,관악구,서울특별시 관악구 중앙2길 16 2층,37.48714477,126.8901557
낙성대공원도서관,관악구,서울특별시 관악구 낙성대로 77 낙성대공원 내,37.47194333,126.9595864
낙성대동우듬지작은도서관,관악구,서울특별시 관악구 낙성대로4가길 5 낙성대동주민센터 4층 ,37.47629474,126.9583866
난곡동책사랑작은도서관,관악구,서울특별시 관악구 난곡로30길 40 난곡동주민센터3층 ,37.47102459,126.9216436
난곡주민도서관새숲,관악구,서울특별시 관악구 난향5길 2 난향꿈둥지 2~3층,37.46277952,126.9173014
난향동뜰안에작은도서관,관악구,서울특별시 관악구 난곡로 67 난향동주민센터 4층,37.46152156,126.9187981
남현동우리작은도서관,관악구,서울특별시 관악구 남현1가길 29 남현동복합청사 3층,37.47455503,126.9778721
대학동녹두작은도서관,관악구,서울특별시 관악구 신림로 111 대학동주민센터 2층 ,37.47059713,126.9369585
도림천에서용나는작은도서관,관악구,서울특별시 관악구 신림로 297 도림천에서 용나는 작은도서관,37.4810201,126.9298756
문성작은도서관,관악구,서울특별시 관악구 신림로 58길 13 문성교회,37.48262033,126.9306346
미성동책의향기작은도서관,관악구,서울특별시 관악구 난곡로 249 미성동주민센터 3층 ,37.47617969,126.9155546
별별창작꿈터 봉현작은도서관,관악구,서울특별시 관악구 관악로 255-7 1층,37.48722136,126.9566372
보라매동다사랑작은도서관,관악구,서울특별시 관악구 봉천로 279-8 보라매동주민센터 2층 2,37.48817959,126.9327805
봉천5동작은문고,관악구,서울특별시 관악구 성현로 10 대한예수교회장로회은천제일교회,37.49204526,126.9453523
블루밍문고,관악구,서울특별시 관악구 은천로 93 벽산블루밍아파트관리사무소,37.49066216,126.9442455
사랑기쁨도서관,관악구,서울특별시 관악구 난향길 10 3층,37.46298416,126.9183698
삼성동샛별작은도서관,관악구,서울특별시 관악구 호암로 589 삼성동주민센터 3층 ,37.47010823,126.9329623
삼성작은도서관,관악구,서울특별시 관악구 호암로 520 삼성동자치회관 1층 ,37.46412118,126.931828
서림동글사랑작은도서관,관악구,서울특별시 관악구 신림로29길 6 주민센터 2층 ,37.6102844,127.0152428
서울대학교박물관도서자료실,관악구,서울특별시 관악구 관악로 1 서울대학교 박물관 내,37.4487334,126.954225
서원동어울작은도서관,관악구,서울특별시 관악구 신림로 282 서원동주민센터 2층 ,37.47977219,126.9313766
성현동작은도서관,관악구,서울특별시 관악구 관악로37길 56 동아아파트 상가B동 5층,37.48731057,126.956182
성현동파랑새작은도서관,관악구,서울특별시 관악구 구암길 38 성현동주민센터 2층 ,37.4895301,126.9481593
숲속작은도서관,관악구,서울특별시 관악구 관악산나들길 114(신림동) 관악산 제1광장 산50-2,37.458872,126.9466781
신림동굴렁쇠작은도서관,관악구,서울특별시 관악구 신림동길 14 신림동주민센터 2층 ,37.48740071,126.9271173
신림푸르지오도서관,관악구,서울특별시 관악구 남부순환로 1430 신림푸르지오아파트,37.47943594,126.9098975
신사동해오름작은도서관,관악구,서울특별시 관악구 조원로 151-1 신사경로당 3층 ,37.48595212,126.9191023
신원동울타리작은도서관,관악구,서울특별시 관악구 신원로3길 13 신원동주민센터2층 2층,37.48157793,126.9273363
실로암점자도서관,관악구,서울특별시 관악구 남부순환로 1717,37.4830195,126.9389777
안디아모작은도서관,관악구,서울시 관악구 관악로 12길97 2층,37.4771849,126.9555524
용꿈꾸는작은도서관,관악구,서울특별시 관악구 관악로 145 관악구청 본관 1층 (청룡동 1570-1) 1층,37.47846743,126.9511318
우리동네 작은도서관,관악구,서울시 관악구 조원로16길33,37.4826559,126.9091717
은천2단지작은도서관,관악구,서울특별시 관악구 인헌12길 46-1 (은천2단지아파트),37.4706759,126.9645708
은천동작은도서관,관악구,서울특별시 관악구 봉천로33나길 30,37.48530503,126.9424097
은천동한울작은도서관,관악구,서울특별시 관악구 국회단지2길 29-10 은천동자치회관 2층 ,37.48690437,126.9415636
이편한세상 서울대입구1단지 작은도서관,관악구,서울특별시 관악구 청룡10길45,37.4793054,126.9450919
이편한세상 서울대입구2단지 작은도서관,관악구,서울특별시 관악구 청룡16길43,37.479022,126.9417378
인헌동보물섬작은도서관,관악구,서울특별시 관악구 남부순환로246가길 20 인헌동주민센터 2층 ,37.47509832,126.9653238
조원도서관,관악구,서울특별시 관악구 조원로12길 25,37.48256322,126.9077952
중앙동새싹작은도서관,관악구,서울특별시 관악구 양녕로6다길 7 중앙동주민센터 1층 ,37.48419247,126.949751
책 N 꿈 도서관,관악구,서울특별시 관악구 남부순환로1989,37.4755524,126.9677028
책쉼터,관악구,서울특별시 관악구 낙성대로3길 37 관악구민종합체육센터 2층 223-9 2층,37.47306768,126.9603155
책이랑놀이랑도서관,관악구,서울특별시 관악구 행운1길 12 신창문화복지센터 2층 1675-12 신창문화복지센터 2층 ,37.47998681,126.9586067
청룡동숯고을작은도서관,관악구,서울특별시 관악구 쑥고개로 44 청룡동주민센터 2층 ,37.47911357,126.9416385
청림동푸른숲작은도서관,관악구,서울특별시 관악구 관악로 40길 39 청림동주민센터 3층 ,37.49184879,126.9586286
푸른들작은도서관,관악구,서울시 관악구 청림2길16,37.4876406,126.9562654
한울타리도서관,관악구,서울특별시 관악구 인헌12길 46-2 은천아파트,37.47166951,126.9652754
행운동마루작은도서관,관악구,서울특별시 관악구 행운1길 43 행운동주민센터 2층 ,37.48064099,126.9570298
광장동새마을작은도서관,광진구,서울특별시 광진구 광장로 52 광장동주민센터 2층,37.55821672,127.1137041
광장현대파크빌도서관,광진구,서울특별시 광진구 아차산로 549 현대파크빌아파트관리사무소 1층 ,37.54476697,127.1015203
광진정보도서관,광진구,서울특별시 광진구 아차산로78길 90(광장동),37.55067985,127.1102945
구의2동새마을작은도서관,광진구,서울특별시 광진구 천호대로136길 55 구의2동주민센터 2층,37.54723979,127.0899234
구의제3동도서관,광진구,서울특별시 광진구 강변역로 17(구의동),37.53799119,127.0919832
국립정신건강센터의학정보실,광진구,서울특별시 광진구 용마산로 127 국립정신건강센터 5층,37.56508561,127.0857768
국제문학작은도서관,광진구,서울특별시 광진구 광나루로15길 41 1층 101호 102호 ,37.5501,127.067457
군자동새마을작은도서관,광진구,서울특별시 광진구 군자로 151 군자동주민센터 3층,37.55729618,127.0746256
날마다자라는나무,광진구,서울특별시 광진구 자양번영로 4길 8 2층 ,37.5313857,127.0757649
능동새마을작은도서관,광진구,서울특별시 광진구 천호대로112길 55 능동주민센터 1층,37.55376088,127.0805523
더바움문화예술작은도서관(구 더바움지식문화작은도서관),광진구,서울특별시 광진구 구의로 39 지하1층 지하1층,37.54141413,127.089731
사람아이앤지작은도서관,광진구,서울특별시 광진구 천호대로 691 (구의동) 4층 ,37.55337193,127.0987983
사하라작은도서관,광진구,서울특별시 광진구 광장로78 2층(광장동광성빌딩) ,37.5475803,127.1034371
새빛작은도서관,광진구,서울특별시 광진구 아차산로46가길 23(태천해오름 주상복합아파트 1층) 1층,37.53632573,127.0822566
샘터작은도서관,광진구,서울특별시 광진구 용마산로24길 10 (중곡동) 1층,37.56515649,127.087356
서울물연구원자료실,광진구,서울특별시 광진구 천호대로 716-10,37.54661293,127.0920664
성신비전스쿨작은도서관,광진구,서울특별시 광진구 동일로 160(화양동) 성신교회 ,37.546461,127.0666556
아름드리작은도서관,광진구,서울특별시 광진구 워커힐로 93 정립회관 본관 2층,37.55000134,127.098123
아차산아래작은도서관놀자,광진구,서울특별시 광진구 자양로 50가길 45 2층 2층,37.55384882,127.094449
어린이작은도서관주영심나무,광진구,서울특별시 광진구 용마산로1길 91 101호 101호,37.5562389,127.0835628
예드림작은도서관,광진구,서울특별시 광진구 구의강변로 96 현대6차 종합상가 지하 101호,37.54349454,127.0902226
운룡도서관,광진구,서울특별시 광진구 자양로43길 85 지층,37.55419292,127.0893539
이룸도서관,광진구,서울특별시 광진구 용마산로 49 ,37.55798366,127.0875979
자양1동새마을작은도서관,광진구,서울특별시 광진구 자양로13길 37 자양1동주민센터 2층,37.53449755,127.0823948
자양2동새마을작은도서관,광진구,서울특별시 광진구 자양로3가길 26 자양2동주민센터 3층,37.52880243,127.0843895
자양3동새마을작은도서관,광진구,서울특별시 광진구 뚝섬로 568 자양3동주민센터 1층,37.53383609,127.0729037
자양4동새마을작은도서관,광진구,서울특별시 광진구 아차산로24길 17 공공힐링센터 3층,37.5402635,127.0651096
자양전통시장작은도서관,광진구,서울특별시 광진구 뚝섬로47길 45-2 고객쉼터 2층,37.53899463,127.0694433
자양제4동도서관,광진구,서울특별시 광진구 뚝섬로26길 58 (자양동),37.5341003,127.0662596
자양한강도서관,광진구,서울특별시 광진구 뚝섬로52길 66(자양동),37.52921552,127.077668
중곡1동새마을작은도서관,광진구,서울특별시 광진구 긴고랑로12길 49 중곡1동주민센터 2층,37.56066679,127.0800515
중곡2동새마을작은도서관,광진구,서울특별시 광진구 능동로 346 중곡2동주민센터 2층,37.56027082,127.0814959
중곡3동새마을작은도서관,광진구,서울특별시 광진구 동일로76가길 28 중곡3동주민센터 1층,37.56880629,127.0801374
중곡4동새마을작은도서관,광진구,서울특별시 광진구 긴고랑로 131 중곡4동주민센터 1층,37.55910106,127.0894338
중곡교회작은도서관,광진구,서울특별시 광진구 긴고랑로 36길 56 중곡교회 지층 지층,37.55696219,127.0909499
중곡문화체육센터도서관,광진구,서울특별시 광진구 능동로 433 (중곡동),37.55064684,127.0761197
평강마을도서관,광진구,서울특별시 광진구 자양번영로4길 13(평강침례교회) 1층 ,37.53157833,127.0760941
푸른꿈도서관,광진구,서울특별시 광진구 자양로32길 53 은혜제일교회 2층 ,37.54436121,127.0880267
하람도서관,광진구,서울특별시 광진구 용마산로 16길 18 1층 102호 ,37.56213142,127.0883493
화양동새마을작은도서관,광진구,서울특별시 광진구 능동로17길 39 화양동주민센터 3층,37.54293803,127.0712746
가리봉동도서관,구로구,서울특별시 구로구 남부순환로 105길 198 가리봉동자치회관,37.48413635,126.8840475
개봉2동도서관,구로구,서울특별시 구로구 개봉로16가길 17 개봉2동주민센터 ,37.49083213,126.8565463
개봉3동도서관,구로구,서울특별시 구로구 개봉로3길 47 개봉3동주민센터 2층,37.4850123,126.8535627
개봉도서관,구로구,서울특별시 구로구 개봉로16길 30-11,37.49008228,126.8584998
개봉어린이도서관,구로구,서울특별시 구로구 경인로 318-15,37.49674271,126.8559101
개봉푸르지오도서관,구로구,서울특별시 구로구 남부순환로 775 1층,37.50157435,126.8471657
고척1동도서관,구로구,서울특별시 구로구 중앙로3길 18-8 고척1동 주민센터,37.50040227,126.8627869
고척2동도서관,구로구,서울특별시 구로구 중앙로15길 22 고척2동주민센터 ,37.50669361,126.8586066
고척교회도서관책마을,구로구,서울특별시 구로구 중앙로 79 고척교회 ,37.50477182,126.8605308
고척벽산베스트블루밍아파트 ,구로구,서울특별시 구로구 고척로 60길 30 관리사무소 2층,37.4939123,126.8240528
고척벽산블루밍(아)경로당 작은도서관,구로구,서울특별시 구로구 경인로390 벽산블루밍 경로당,37.4956619,126.862255
광진교회도서실,구로구,서울특별시 구로구 개봉로3길 102 광진교회,37.48598646,126.8506177
구로1동도서관,구로구,서울특별시 구로구 구일로4길 57 구로1동주민센터 2층,37.49303785,126.8757865
구로2동도서관,구로구,서울특별시 구로구 구로동로50길 10 구로2동자치회관 ,37.50561451,126.890248
구로4동도서관,구로구,서울특별시 구로구 구로동로28길 94 구로4동주민센터,37.50516431,126.8917412
구로5동도서관,구로구,서울특별시 구로구 구로중앙로28길 66 구로5동주민센터,37.50010536,126.8893397
구로구근로자복지센터작은도서관,구로구,서울특별시 구로구 디지털로242 한화비즈메트로 203호 213호,37.48081222,126.8926785
구로기적의도서관,구로구,서울특별시 구로구 구로중앙로40길 24(신도림동),37.50673545,126.877376
구로꿈나무도서관,구로구,서울특별시 구로구 구로동로26길 54 2층 (구로구시설관리공단),37.50622215,126.8920012
궁동어린이도서관,구로구,서울특별시 구로구 오리로 1352,37.50531416,126.8928724
그래그래작은도서관,구로구,서울특별시 구로구 구일로8길 131 ,37.49854338,126.8767532
글로벌나눔도서관,구로구,서울특별시 구로구 경인로 619-30 3층,37.50687303,126.8844852
글마루한옥어린이도서관,구로구,서울특별시 구로구 고척로27바길 7,37.50692111,126.8456405
글초롱작은도서관,구로구,서울특별시 구로구 오리로 1102-10 천왕연지타운2단지 관리동 ,37.48393872,126.8431745
금강수목원아파트작은도서관,구로구,서울특별시 구로구 오리로 1197 관리사무소 건물 2층,37.48852245,126.8327814
길숲도서관,구로구,서울특별시 구로구 신도림로 3길 19 새서울교회,37.50770108,126.8784577
꿈꾸는SH작은도서관,구로구,서울특별시 구로구 연동로 234 하버라인 2단지 1층,37.4823292,126.8200105
꿈꾸는언덕작은도서관(천왕1단지),구로구,서울특별시 구로구 천왕로 91 천왕이펜하우스1단지 천왕이펜하우스 1단지 104동 지하층 관리사무소 옆,37.48605558,126.8376898
꿈꾸는작은도서관(구로),구로구,서울특별시 구로구 도림로 20길 40 ,37.4884005,126.8913081
꿈마루작은도서관,구로구,서울특별시 구로구 구로중앙로28다길 5 대신교회 2층,37.50068547,126.888869
꿈마을도서관,구로구,서울특별시 구로구 디지털로27다길 65,37.48714477,126.8901557
꿈터작은도서관(천왕이펜6단지),구로구,서울특별시 구로구 천왕로 9 천왕이펜하우스 6단지 ,37.47850742,126.8422493
담쟁이넝쿨도서관,구로구,서울특별시 구로구 개봉로11길 35-9 영문교회 이심전심마을회관 내,37.48753624,126.8542013
도담도담작은도서관,구로구,서울특별시 구로구 경인로8길 75 삼천리APT 상가 3층 ,37.49249364,126.8399385
도토리SH작은도서관,구로구,서울특별시 구로구 연동로 191-5 하버라인 11단지 1층,37.4779004,126.8202586
둘레길작은도서관(천왕4단지),구로구,서울특별시 구로구 천왕로 29 408 (천왕이펜하우스4단지) 408동 1층,37.48080242,126.838595
따뜻한마음작은도서관(구 코딱지도서관),구로구,서울특별시 구로구 신도림로11길8 4층 코딱지도서관 ,37.5083255,126.8778689
로아스페이스,구로구,서울특별시 구로구 새말로 31 롯데구로아파트 상가 205호206호 ,37.50315618,126.8847208
로즈빌도서관,구로구,서울특별시 구로구 경인로 343 (삼환로즈빌) 관리사무소건물 2층,37.49752104,126.8581477
마중물도서관,구로구,서울특별시 구로구 부일로 853 2층(양곡빌딩) 대흥상가 3층,37.49224488,126.8218625
몽당연필도서관,구로구,서울특별시 구로구 오리로20길 32 평화의교회 평화의 교회,37.4974904,126.8312889
미소누리작은도서관,구로구,서울특별시 구로구 구로중앙로28길 31 지하102호 성화빌딩 지하 102호,37.50105375,126.8866578
배고픈사자,구로구,서울특별시 구로구 구로동로38길 10 2층 3층,37.49467458,126.8834512
별빛맞이SH작은도서관,구로구,서울특별시 구로구 서해안로 2036 ,37.47563834,126.8186953
사랑나무작은도서관,구로구,서울특별시 구로구 경인로3길 97 대흥빌라 3동 105호,37.4909066,126.8200705
새광명도서관,구로구,서울특별시 구로구 개봉로18길 39 새광명교회 ,37.49079345,126.858119
서남작은도서관,구로구,서울특별시 구로구 부일로11길 32 (대주빌라) 서남교회,37.49465064,126.8316147
서울가든빌라도서관,구로구,서울특별시 구로구 경인로 83 (서울가든빌라) 관리사무소건물 2층,37.49252844,126.831493
서울남문고,구로구,서울특별시 구로구 구로동로17길 37-4 서울남교회 ,37.50472904,126.893335
서울특별시교육청고척도서관,구로구,서울특별시 구로구 고척로45길 31,37.50534626,126.8530515
서울특별시교육청구로도서관,구로구,서울특별시 구로구 공원로 15,37.49867236,126.8911162
수궁동도서관,구로구,서울특별시 구로구 오리로15길 32 수궁동주민센터 수궁동주민센터,37.49389273,126.8314773
숲속SH작은도서관,구로구,서울특별시 구로구 항동로 43 항동하버라인3단지,37.4805522,126.821666
신도림3차 동아아파트 작은도서관,구로구,서울특별시 구로구 신도림로 78 관리사무소 2층,37.5095225,126.8820009
신도림4차마을문고,구로구,서울특별시 구로구 경인로65길 16-15 신도림4차 e편한세상 관리실 옆,37.5106111,126.884698
신도림동새마을작은도서관,구로구,서울특별시 구로구 신도림로 40 신도림동주민센터 신도림동 주민자치센터 2층,37.5076945,126.8785058
신도림어린이영어작은도서관,구로구,서울특별시 구로구 신도림로 40 신도림동주민센터 신도림동주민센터2층,37.5076945,126.8785058
신도림월드메르디앙,구로구,서울특별시 구로구 신도림로 65 ,37.5095202,126.8798584
신도림현대도서관,구로구,서울특별시 구로구 새말로9길 45 (신도림현대아파트) ,37.50518161,126.886385
아름도서관,구로구,서울특별시 구로구 부일로9길 127 온수힐스테이트 ,37.49603347,126.8217901
에델도서관,구로구,서울특별시 구로구 천왕로 47 에델마을 복지회관,37.48124944,126.8379415
연지타운1단지작은도서관,구로구,서울특별시 구로구 오류로 30 천왕연지타운1단지 103동 1층 103동 1층,37.48728188,126.8403986
열린숲작은도서관,구로구,서울특별시 구로구 디지털로33길 27(구로동) 삼성IT밸리 1층(삼성아이티밸리),37.48605841,126.8946698
예샘작은도서관,구로구,서울특별시 구로구 구로중앙로6길 40 3층 ,37.5002117,126.8658983
오류1동도서관,구로구,서울특별시 구로구 경인로 221 오류1동주민센터 2층(3층),37.49708019,126.8451579
오류2동도서관,구로구,서울특별시 구로구 오리로 10길 44-5 오류2동주민센터 ,37.48868891,126.8393378
오류도서관,구로구,서울특별시 구로구 경인로19길 29-4,37.4971852,126.8401143
오류동제일교회작은도서관,구로구,서울특별시 구로구 오류로8나길 9-5 1층,37.49070017,126.8419819
오류문고,구로구,서울특별시 구로구 경인로8길 75 삼천리아파트 ,37.49249364,126.8399385
온누리도서관,구로구,서울특별시 구로구 구로중앙로27나길 9 4층 (구로초등학교 온누리관),37.49751199,126.8854812
옹달샘작은도서관,구로구,서울특별시 구로구 천왕로 56(천왕동 천왕이펜하우스3단지),37.5318233,126.854486
은성도서관,구로구,서울특별시 구로구 고척로23길 20 은성교회 ,37.50274653,126.8464272
이니텍도서관,구로구,서울특별시 구로구 벚꽃로 484 화원종합사회복지관 3층,37.49732865,126.8801331
이룸작은도서관,구로구,서울특별시 구로구 고척로 33길 48 ,37.50479396,126.848501
중앙하이츠도서관,구로구,서울특별시 구로구 구로동로47길 24 구로중앙하이츠아파트 복지관 2층 ,37.5013536,126.8920189
지혜의숲작은도서관,구로구,서울특별시 구로구 구로동로205,37.49700282,126.8822513
참새소풍작은도서관(천왕2단지),구로구,서울특별시 구로구 천왕로 92 천왕이펜하우스2단지 천왕이펜하우스 203동 1층 ,37.48454796,126.8392817
책향기작은도서관,구로구,서울특별시 구로구 고척로 18길 92 오류동 감리교회 별관,37.55312086,126.8331803
천왕7단지작은도서관,구로구,서울특별시 구로구 천왕로21 701동 1층 701동 1층,37.47917844,126.838931
천왕마을작은도서관,구로구,서울특별시 구로구 천왕로36 센타프라자 306호,37.4811855,126.8378564
카페함크작은도서관,구로구,서울특별시 구로구 고척로141 2층,37.5027908,126.8472543
코비나작은도서관,구로구,서울특별시 구로구 가마산로26길 27 201호 ,37.49510106,126.891824
쿵짝쿵짝공작소작은도서관,구로구,서울특별시 구로구 부일로17길 24-3 (궁동)지층,37.49442834,126.8343402
큐브북카페,구로구,서울특별시 구로구 경인로 662 B동 30층 (디큐브시티) ,37.50882112,126.8892779
큰숲글터작은도서관,구로구,서울특별시 구로구 신도림로87 동아1차아파트 상가 지층,37.5110588,126.8805732
파크푸르지오도서관,구로구,서울특별시 구로구 중앙로 121 105동(고척파크푸르지오) ,37.5077498,126.8586866
포도나무문고,구로구,서울특별시 구로구 오류로 53 초원교회,37.4896618,126.8374837
푸른꿈북카페,구로구,서울특별시 구로구 공원로8길 30 신성교회 ,37.50273928,126.8912402
푸른꿈작은도서관,구로구,서울특별시 성북구 삼선교로 59-1(삼선동 4가) 은광교회,37.48730413,126.889598
하나비전센터작은도서관,구로구,서울특별시 구로구 구로동로8길 7 하나비전센터작은도서관,37.50580634,126.8903579
하늘도서관,구로구,서울특별시 구로구 구로동로13길 68,37.50531416,126.8928724
하늘마루작은도서관(천왕5단지),구로구,서울특별시 구로구 천왕로 10 천왕이펜하우스5단지 천왕이펜하우스 5단지 504동 1층 ,37.47957923,126.8416999
한국산업기술시험원도서관,구로구,서울특별시 구로구 디지털로26길 87,37.48167016,126.8969618
한우리독서문화원,구로구,서울특별시 구로구 개봉로24길 29 원진연립 금석빌딩 202호 ,37.49637305,126.8585909
행복한작은도서관,구로구,서울특별시 구로구 개봉로12길 42 (개봉동) 2층,37.48953116,126.8570184
흥부네작은도서관,구로구,서울특별시 구로구 고척로1길 30 흥부네작은도서관,37.49497315,126.8390654
금천구립가산도서관,금천구,서울특별시 금천구 가산로5길 43,37.47349155,126.8921299
금천구립금나래도서관,금천구,서울특별시 금천구 시흥대로73길 70,37.45690514,126.8953686
금천구립독산도서관,금천구,서울특별시 금천구 독산로54길 114,37.4675797,126.908105
금천구립시흥도서관,금천구,서울특별시 금천구 금하로 764(시흥동) 금천종합복지타운(시흥2동주민센터),37.44963042,126.9146113
길빛작은도서관,금천구,서울특별시 금천구 독산로 16 (시흥동) 새부대교회,37.4487939,126.902601
꿈꾸는작은도서관,금천구,서울특별시 금천구 시흥대로12길 45 2층,37.4392969,126.9035813
꿈씨어린이작은도서관,금천구,서울특별시 금천구 독산로 232 독산4동주민센터 2층,37.46755324,126.9021683
나누리작은도서관,금천구,서울특별시 은평구 진관1로 55 (진관동 은평뉴타운 마고정) 301호,37.45309891,126.9089166
도란도란작은도서관,금천구,서울특별시 노원구 동일로 186길 3-24 공릉1동주민센터 ,37.45898011,126.9061848
롯데캐슬1차작은도서관,금천구,서울특별시 금천구 벚꽃로40 ,37.45911886,126.8953296
맑은누리작은도서관,금천구,서울특별시 금천구 시흥대로58길 36 시흥1동주민센터 5층 ,37.4535504,126.90325
미래향기작은도서관,금천구,서울특별시 금천구 독산로179 독산2동주민센터 1층 ,37.4631499,126.9034839
산돌어린이도서관,금천구,서울특별시 금천구 시흥대로75길 12 산돌문화센터 2층 ,37.45760105,126.8983827
샘솟는작은도서관,금천구,서울특별시 금천구 독산로64길 15 (독산동) 샘솟는화평교회 ,37.46522963,126.9034349
소망의나무어린이작은도서관,금천구,서울특별시 금천구 금하로 11길 14 시흥장로교회,37.45455142,126.9037967
와서작은도서관,금천구,서울특별시 벚꽃로56길 62 B01,37.46494502,126.8940183
우리울작은도서관,금천구,서울특별시 금천구 범안로12가길 49 (독산동) 샘물교회 2층 ,37.45229932,126.9137506
은행나무어린이도서관,금천구,서울특별시 금천구 탑골로 43-8 1층,37.49700282,126.8822513
지혜의숲작은도서관,금천구,서울특별시 서초구 청계산로7길 43 서초포레스타5단지 503동 2층,37.49700282,126.8822513
참새작은도서관,금천구,서울특별시 금천구 한내로 69-15 (주공13단지아파트) 금천한내종합복지관 3층,37.4574952,126.8878808
책달샘숲속작은도서관,금천구,서울특별시 금천구 독산동 373 감로천생태공원 내 ,37.4696109,126.9057318
책이든거리작은도서관,금천구,서울특별시 금천구 범안로 1130 독산역2번출구앞 ,37.46552072,126.8876719
책읽는마을작은도서관,금천구,서울특별시 금천구 독산로74길 31 1층,37.46864681,126.9041046
책읽는주민사랑방작은도서관,금천구,서울특별시 금천구 금하로21길 20 시흥5동주민센터 2층 ,37.45239622,126.9083066
청개구리작은도서관,금천구,서울특별시 금천구 독산로 317 독산3동주민센터 3층 ,37.47516011,126.9031743
트리니티작은도서관,금천구,서울특별시 금천구 시흥대로 72길 13 시흥중앙성결교회 1층 ,37.45717241,126.9002906
한국대학교육협의회문헌정보실,금천구,서울특별시 금천구 서부샛길 606 대성디폴리스 A동 22~23층,37.47995321,126.877008
해오름작은도서관,금천구,서울특별시 금천구 시흥대로123길 11 독산1동 주민센터 4층,37.56665973,127.1384372
가온작은도서관,노원구,서울특별시 노원구 노원로530 상계10동주민센터 ,37.6612804,127.0602571
가재울 지혜마루 작은도서관,노원구,서울특별시 노원구 한글비석로 97 (하계1동) 에너지제로주택 주민커뮤니티동 1층,37.64056098,127.0725612
공릉청소년문화정보센터화랑도서관,노원구,서울특별시 노원구 노원로1나길 10,37.62151605,127.0830474
공릉행복발전소공릉도서관,노원구,서울특별시 노원구 동일로179길 22,37.62204715,127.0727749
국민체육진흥공단한국스포츠개발원도서관,노원구,서울특별시 노원구 화랑로 727 국민체육진흥공단 한국스포츠개발원,37.63067781,127.0972116
글빛작은도서관,노원구,서울특별시 노원구 중계로 144 민호프라자 4층 민호프라자 3층,37.64796253,127.0808329
금빛도서관,노원구,서울특별시 노원구 상계로26길 20 대동청솔아파트 상가3층 대동아파트 상가3층,37.65727748,127.0707067
꿈꾸는작은도서관,노원구,서울특별시 노원구 석계로 59 월계1동주민센터 꿈꾸는 작은도서관,37.47176041,127.0881053
노원문화원작은도서관,노원구,서울특별시 노원구 동일로 197길 24 노원문화원 2층 ,37.62880091,127.0698024
노원어린이도서관,노원구,서울특별시 노원구 한글비석로 346,37.65795038,127.07638
노원정보도서관,노원구,서울특별시 노원구 노원로34길 43,37.66109973,127.0650094
달내작은도서관,노원구,서울특별시 노원구 초안산로5길 28 월계2동주민센터,37.63251006,127.0507798
도란도란작은도서관,노원구,서울특별시 노원구 동일로 186길 3-24 공릉1동주민센터,37.45898011,126.9061848
메아리작은도서관,노원구,서울특별시 노원구 동일로217길 48 노원평생교육원 1층 ,37.65303481,127.0579938
반디작은도서관,노원구,서울특별시 노원구 동일로 227길 97 상계8동주민센터 ,37.66673107,127.0515502
북서울미술관아트도서실,노원구,서울특별시 노원구 동일로 1238,37.64066081,127.0668657
불암도서관,노원구,서울특별시 노원구 중계로 106,37.64528936,127.0825433
상계문화정보도서관,노원구,서울특별시 노원구 동일로243길 57,37.67852767,127.0519406
상계숲속작은도서관,노원구,서울특별시 노원구 동일로 227길 106 ,37.66944103,127.0504411
상계주공14단지아파트문화사랑방도서실,노원구,서울특별시 노원구 동일로228길 23 관리동 2층(상계주공14단지아파트),37.67045198,127.0574022
서울점자도서관,노원구,서울특별시 노원구 동일로 1335,37.6268348,127.077297
서울특별시교육청노원평생학습관,노원구,서울특별시 노원구 동일로204길 13,37.63953995,127.067837
수락작은도서관,노원구,서울특별시 노원구 덕릉로 859 상계34동주민센터 ,37.67291209,127.0832369
열린작은도서관,노원구,서울특별시 노원구 공릉로55길 88 하계2동주민센터 ,37.63203897,127.0679492
원더풀도서관,노원구,서울특별시 노원구 초안산로 19 큰무리교회 지하 1층 ,37.62954507,127.0541685
월계문화정보도서관,노원구,서울특별시 노원구 월계로 319,37.62863532,127.0561218
월계어린이도서관,노원구,서울특별시 월계로 42길 9 월계문화복지센터,37.62426736,127.0507933
육사작은도서관,노원구,서울특별시 노원구 화랑로 564 1층,37.62058345,127.0902071
을지대학교을지병원의학도서실,노원구,서울특별시 노원구 한글비석로 68 을지병원 도서실,37.6364895,127.0695484
인제대학교상계백병원의학도서실,노원구,서울특별시 노원구 동일로 1353 성일빌딩 5층,37.64941796,127.0615528
작고행복한청구3차도서관,노원구,서울특별시 노원구 중계로 233 청구3차아파트 관리동2층 ,37.6500505,127.0733726
중계사랑작은도서관,노원구,서울특별시 노원구 덕릉로82길 50 중계4동주민센터,37.6587571,127.0779712
중계주공10단지책과친구들,노원구,서울특별시 노워구 노원로22길 53 주공10단지아파트관리사무소 ,37.64794584,127.0730389
책누리작은도서관,노원구,서울특별시 노원구 중계로 143 중계본동주민센터 ,37.6477949,127.0802812
책사랑작은도서관,노원구,서울특별시 노원구 한글비석로 279 중계1동주민센터,37.65255189,127.0774784
책이랑친구랑작은도서관,노원구,서울특별시 노원구 노원로1길 68 공릉2동주민센터 ,37.62128738,127.0833787
초안산숲속작은도서관,노원구,서울특별시 노원구 덕릉로 60길 199 ,37.63207893,127.0444286
파랑새작은도서관,노원구,서울특별시 노원구 상계로 118 상계2동주민센터 2층,37.53097878,127.1496891
푸른숲작은도서관,노원구,서울특별시 노원구 동일로 1697 상계1동주민센터 ,37.6799248,127.054958
하늘작은도서관,노원구,서울특별시 노원구 노원로 17길 56 중계23동 주민센터 4층,37.64213007,127.0687317
하늘품작은도서관,노원구,서울특별시 노원구 상계로23다길 33 지하1층,37.65996921,127.0701066
한길문고,노원구,서울특별시 노원구 한글비석로49길 63 4층 102호,37.66140145,127.0661719
한내지혜의숲도서관,노원구,서울특별시 노원구 마들로86(월계동) 한내근린공원내,37.62358744,127.0687821
한내행복발전소 작은도서관 ,노원구,서울특별시 노원구 마들로3길 15(월계동) 한내행복발전소 ,37.6264442,127.0597204
한울문고,노원구,서울특별시 노원구 누원로 28 수락리버시티3단지 주민공동시설 수락리버시티 주민공동시설내,37.688162,127.0540801
한울작은도서관,노원구,서울특별시 노원구 한글비석로 487 상계9동주민센터 2층 ,37.66451805,127.0638167
해솔작은도서관,노원구,서울특별시 노원구 한글비석로 434 상계5동주민센터 ,37.66297913,127.0693658
향기나무도서관,노원구,서울특별시 노원로 331 노원아동복지관,37.64618165,127.0696625
김수영문학도서관,도봉구,서울특별시 도봉구 해등로32길 80 김수영문학관 3층 ,37.6598912,127.0216263
꿈을심는작은도서관,도봉구,서울특별시 도봉구 우이천로 38 라길 28-4 1층,37.65288652,127.024228
나눔플러스아름인도서관,도봉구,서울특별시 도봉구 도봉로109길 40 2층,37.64712303,127.0311208
도봉1동작은도서관,도봉구,서울특별시 도봉구 도봉로169나길 22 도봉1동 주민센터 2층,37.67869091,127.043413
도봉2동작은도서관,도봉구,서울특별시 도봉구 마들로 668 도봉2동 주민센터 2층 ,37.66967394,127.0465333
도봉기적의도서관,도봉구,서울특별시 도봉구 마들로 797,37.68080449,127.0501336
도봉문화정보도서관,도봉구,서울특별시 도봉구 덕릉로 315,37.64477544,127.0438644
도봉아이나라도서관,도봉구,서울특별시 도봉구 노해로 69길 151,37.65904725,127.0495075
둘리도서관,도봉구,서울특별시 도봉구 시루봉로1길 6,37.65243153,127.0276397
라온제나작은도서관,도봉구,서울특별시 도봉구 우이천로20길 7 지하1층,37.64098867,127.0337486
맑은샘작은도서관,도봉구,서울특별시 도봉구 도봉로 145길 69 2층,37.66455623,127.0386014
무수골도서관,도봉구,서울특별시 도봉구 도봉로 175길 10 3층,37.68298934,127.042872
반딧불이작은도서관,도봉구,서울특별시 도봉구 해등로 307(방학동 우성2차 아파트) 관리동 2층,37.67114693,127.0387304
방학1동작은도서관,도봉구,서울특별시 도봉구 방학로2길 27 방학1동 주민센터 2층 ,37.66422282,127.0406557
방학2동작은도서관,도봉구,서울특별시 도봉구 시루봉로 226 방학2동 주민센터,37.66821414,127.0350517
번창작은도서관,도봉구,서울특별시 도봉구 노해로 66길 95 지하1층,37.64714742,127.0486293
북서울중학교도서관(해오름도서관),도봉구,서울특별시 도봉구 도봉로169가길 33 해오름터 2층,37.6810801,127.0426995
북한산아이파크작은도서관,도봉구,서울특별시 도봉구 도봉로136길 28 북한산아이파크 516동 지하1층,37.65783602,127.043618
산미소작은도서관,도봉구,서울특별시 도봉구 노해로 57길 94(쌍문동) 1층,37.6551793,127.0346582
생글작은도서관,도봉구,서울특별시 도봉구 우이천로 32길 35 2층,37.64935124,127.0248408
서울특별시교육청도봉도서관,도봉구,서울특별시 도봉구 삼양로 556,37.65253218,127.0127628
솔밭작은도서관,도봉구,서울특별시 도봉구 삼양로 580 베다니교회 2층,37.65479887,127.0135521
신창영어작은도서관,도봉구,서울특별시 도봉구 덕릉로 249 3층,37.66050764,127.0393464
쌍문1동작은도서관,도봉구,서울특별시 도봉구 노해로 147 쌍문1동주민센터 2층 ,37.64803683,127.0260507
쌍문2동작은도서관,도봉구,서울특별시 도봉구 방학로3길 117 쌍문2동주민센터 7층 ,37.6580908,127.0387456
쌍문3동작은도서관,도봉구,서울특별시 도봉구 노해로44길 9 쌍문3동주민센터 2층 ,37.64898397,127.0279223
쌍문4동작은도서관,도봉구,서울특별시 도봉구 시루봉로 62-7 쌍문4동 주민센터 2층,37.65645236,127.0283979
쌍문채움도서관,도봉구,서울특별시 도봉구 우이천로 340,37.6441856,127.0294746
씨앗작은도서관,도봉구,서울특별시 도봉구 도봉로 901 부성빌딩 402호,37.68493479,127.0456997
아름다운도서관,도봉구,서울특별시 도봉구 도봉로104길 63 3층,37.49470924,127.0404834
외갓집에가자작은도서관,도봉구,서울특별시 도봉구 우이천로44길 26 B01호,37.65458079,127.0175122
지혜의등대작은도서관,도봉구,서울특별시 도봉구 도봉로 552 도봉구민회관 4층 도봉구민회관 4층,37.65383589,127.0385898
참솔도서관,도봉구,서울특별시 도봉구 시루봉로 193 2층 ,37.66666598,127.0321721
창1동작은도서관,도봉구,서울특별시 도봉구 해등로 46 창1동주민센터 2층,37.64837505,127.0438261
창2동작은도서관,도봉구,서울특별시 도봉구 덕릉로 59길 73-3 창2동주민센터 2층,37.64140627,127.0356481
창3동작은도서관,도봉구,서울특별시 도봉구 덕릉로62길 89 창3동주민센터 3층 ,37.63809071,127.042922
창4동작은도서관,도봉구,서울특별시 도봉구 노해로 390 창4동주민센터 5층 관리사무소 지하1층,37.65223421,127.0515367
창5동작은도서관,도봉구,서울특별시 도봉구 도봉로 136나길 20 창5동주민센터 3층 ,37.656334,127.0435868
초록나라도서관,도봉구,서울특별시 도봉구 도봉로181길 65-8 2층 ,37.6848287,127.0421774
키움작은도서관,도봉구,서울특별시 도봉구 삼양로144길 11 2층 ,37.65168369,127.0135555
학마을도서관,도봉구,서울특별시 도봉구 시루봉로 128,37.6621577,127.0278303
행복작은도서관,도봉구,서울특별시 도봉구 마들로 656 지하1층,37.66871632,127.0471316
&Lounge작은도서관,동대문구,서울특별시 동대문구 고산자로36길 3 경동시장 신관 2층 ,37.57925068,127.0390682
sk북카페꿈땅,동대문구,서울특별시 동대문구 사가정로 148 SK아파트 내,37.5764963,127.0582646
가톨릭대성바오로병원의학도서관,동대문구,서울특별시 동대문구 왕산로 180 가톨릭대학교 성바오로병원 별관 1층,37.5792566,127.0434914
경희의료원의학도서실,동대문구,서울특별시 동대문구 경희대로 23 정보행정동 지하 2층,37.59377356,127.0507402
광석어린이작은도서관,동대문구,서울특별시 동대문구 왕산로 26길 49 광석교회 1층 ,37.57584143,127.0367896
국립산림과학원도서관,동대문구,서울특별시 동대문구 회기로 57 국립산림과학원 임산공학연구동 1층,37.59215181,127.0444505
글놀이작은도서관,동대문구,서울특별시 동대문구 약령시로 67 2층 ,37.58303561,127.0374529
글로벌지식협력단지 도서자료관,동대문구,서울특별시 동대문구 회기로 47 글로벌지식협력단지 교육동 1층,37.59502511,127.0421726
꿈꾸는도서관,동대문구,서울특별시 양천구 신월로24길 19(신월동) ,37.57267143,127.0467838
꿈나래 작은도서관,동대문구,서울특별시 동대문구 답십리로 296(동천교회 내) ,37.5718945,127.0709718
꿈나무작은도서관,동대문구,서울특별시 동대문구 전농로4길 7 답십리교회 1층,37.56781524,127.0577193
꿈마루도서관,동대문구,서울특별시 동대문구 이문로 55 동안교회 선교센터 ,37.59231127,127.0570265
꿈사랑도서관,동대문구,서울특별시 동대문구 한천로37길 33 래미안엘파인아파트 아파트내,37.57598852,127.0644652
나들목가족도서관,동대문구,서울특별시 동대문구 안암로6 대광고 60주년 기념관 대광고 60주년 기념관 1층,37.57795461,127.0253232
다양한문화가모이는어린이도서관모두,동대문구,서울특별시 동대문구 이문로 3 5층 민족통일빌딩 5층,37.5940097,127.0583814
답십리1동아름드리작은도서관,동대문구,서울특별시 동대문구 사가정로 30 답십리1동 주민세터 3층 ,37.5718176,127.0512713
답십리2동민들레작은도서관,동대문구,서울특별시 동대문구 한천로11길 18 답십리2동주민센터 2층,37.56739923,127.0612831
동대문구답십리도서관,동대문구,서울특별시 동대문구 서울시립대로4길 75,37.57319319,127.0503606
동대문구문화회관자료정보실,동대문구,서울특별시 동대문구 답십리로 210-9 동대문구문화회관 ,37.57179682,127.0637642
동대문구정보화도서관,동대문구,서울특별시 동대문구 회기로10길 60,37.58996904,127.0472892
둥그레문고,동대문구,서울특별시 동대문구 장안벚꽃로1길 7 장안힐스테이트 관리동 지층,37.57650997,127.0761842
래미안위브 작은도서관,동대문구,서울특별시 동대문구 답십리로 130 ,37.5748906,127.0506612
루씨 작은도서관,동대문구,서울특별시 동대문구 회기로18길 8(룻교회) 1층,37.5909561,127.0500384
배봉산 숲속도서관,동대문구,서울특별시 동대문구 전농로16길 97,37.5784361,127.0605702
사랑듬북작은도서관,동대문구,서울특별시 동대문구 사가정로23나길 12(장안동) 참사랑교회 1층,37.580498,127.0711777
서울특별시교육청동대문도서관,동대문구,서울특별시 동대문구 천호대로4길 22,37.57348736,127.0247655
슈필라움작은도서관,동대문구,서울특별시 동대문구 전농로16길 30 2층,37.5781051,127.0567432
아름숲어린이문고,동대문구,서울특별시 동대문구 전농로16길 51 관리동 (래미안아름숲아파트) 110동 지하1층,37.5806066,127.0588096
아주좋은꿈터작은도서관,동대문구,서울특별시 동대문구 왕산로16가길 7 ,37.577178,127.0294572
어린이도서관꿈틀,동대문구,서울특별시 동대문구 전농로16길 59(전농동) 1층,37.5782218,127.0583844
예스아이캔 작은도서관,동대문구,서울특별시 동대문구 답십리로60길 74 2층,37.5698691,127.0611009
용두어린이영어도서관,동대문구,서울특별시 동대문구 무학로 133 용두어린이 영어도서관,37.57611784,127.0303249
용신동작은도서관,동대문구,서울특별시 동대문구 천호대로27길 35 용신주민센터 3층 ,37.57579709,127.037274
이문1동꿈꾸는작은도서관,동대문구,서울특별시 동대문구 외대역동로 114-1 이문1동주민센터 3층 ,37.59781152,127.0654822
이문2동작은도서관,동대문구,서울특별시 동대문구 신이문로27-5 이문2동주민센터 1층 ,37.60337376,127.0651022
이문어린이도서관(숲속작은도서관),동대문구,서울특별시 동대문구 천장산로9길 68(이문동) 고황경로당 ,37.59889462,127.0538429
이문체육문화센터어린이도서관,동대문구,서울특별시 동대문구 한천로58길 81-49,37.60224443,127.0687022
장안1동작은도서관,동대문구,서울특별시 동대문구 장한로26가길 113 장안1동자치회관 지층 ,37.56697548,127.0695029
장안2동작은도서관,동대문구,서울특별시 동대문구 사가정로 230-1 장안2동주민센터 3층 ,37.57847272,127.0705898
장안꿈마루어린이작은도서관,동대문구,서울특별시 동대문구 한천로28길 5 ,37.5738492,127.0653412
장안마루작은도서관,동대문구,서울특별시 동대문구 사가정로 64  성우스타팰리스 101동,37.5742514,127.051223
장안어린이도서관,동대문구,서울특별시 동대문구 장한로26다길 10 ,37.57124544,127.0732012
전농2동뜨락작은도서관,동대문구,서울특별시 동대문구 사가정로 137 전농2동주민센터 3층 ,37.57809232,127.0600085
제기동미래뜰작은도서관,동대문구,서울특별시 동대문구 약령시로 71 제기동주민센터 2층,37.58312836,127.0378225
청솔우성아파트 작은도서관,동대문구,서울특별시 동대문구 전농로10길 20 ,37.5746242,127.0578432
포도나무작은도서관,동대문구,서울특별시 동대문구 장한로27가길 58 영성감리교회 1층 ,37.5755851,127.0691713
한국과학기술원고등과학원도서실,동대문구,서울특별시 동대문구 회기로 85 한국과학기술원 부속 고등과학원 1호관 4층,37.59553603,127.0461199
한국국방연구원지식정보실,동대문구,서울특별시 동대문구 회기로 37 한국국방연구원 본관 1~2층,37.59323032,127.0404397
회기동꿈자람작은도서관,동대문구,서울특별시 동대문구 회기로25길 12-1 회기동주민센터 2층,37.59134717,127.0548175
회기마루작은도서관,동대문구,서울특별시 동대문구 경희대로3길 56 연화사 1층 ,37.594202,127.0482889
휘경1동새싹마루작은도서관,동대문구,서울특별시 동대문구 외대역동로6길 3 휘경1동주민센터 3층 주,37.59291254,127.0657309
휘경2동꿈빛누리작은도서관,동대문구,서울특별시 동대문구 한천로 329 휘경2동주민센터 4층 ,37.59012542,127.0685866
휘경어린이도서관,동대문구,서울특별시 동대문구 망우로18가길 38,37.58868538,127.0606088
국사봉숲속작은도서관,동작구,서울특별시 동작구 양녕로23길 27 (상도동) ,37.49543219,126.9405901
기상청도서관,동작구,서울특별시 동작구 여의대방로16길 61,37.49418992,126.9176068
까망돌어린이도서관,동작구,서울특별시 동작구 흑석한강로 132층 서울남부교회,37.50564647,126.9665712
꿈담도서관,동작구,서울특별시 동작구 성대로2길 9 3층,37.4991168,126.9294071
꿈먹작은도서관,동작구,서울특별시 동작구 동작대로11길 77 성진교회,37.4809331,126.9749408
꿈익는책마을,동작구,서울특별시 동작구 상도로38길 24 남현교회,37.5012919,126.9455533
나무별작은도서관,동작구,서울특별시 동작구 장승배기로 6 지층,37.50412767,126.9457756
노량진1동작은도서관,동작구,서울특별시 동작구 장승배기로28길 30 (노량진동) 노량진1동 주민센터 3층 ,37.51641097,126.9471849
노량진2동작은도서관,동작구,서울특별시 동작구 장승배기로19길 48 (노량진동) 노량진2동 주민센터 1층,37.51578562,126.9450252
농심식문화전문도서관,동작구,서울특별시 동작구 여의대방로 112,37.4969239,126.9188865
다울작은도서관,동작구,서울특별시 동작구 사당로20길 132 (사당동) 2층 ,37.4789027,126.9732534
담소작은도서관,동작구,서울특별시 동작구 강남초등길 24 (상도동) 3층 ,37.50512326,126.9519663
담쟁이작은도서관,동작구,서울특별시 동작구 동작대로 13길 27 석천장로교회 1층,37.48168732,126.9787103
대방동작은도서관,동작구,서울특별시 동작구 여의대방로44길 20 (대방동) 대방동주민센터 2층 ,37.50622213,126.9343255
대방어린이도서관,동작구,서울특별시 동작구 대방동길55(대방동379-2),37.51310982,126.9311477
동작상도국주도서관,동작구,서울특별시 동작구 매봉로 37,37.50682006,126.950995
동작샘터도서관,동작구,서울특별시 동작구 동작대로29길 63-26(동작구다문화가족지원센터) 1층 ,37.48837378,126.9775871
동작어린이도서관,동작구,서울특별시 동작구 장승배기로 16길 98(노량진 2동 225-161),37.50919685,126.9434278
보라매e편한세상작은도서관,동작구,서울특별시 동작구 보라매로 70 보라매e편한세상아파트 101동 정문입구 1층 ,37.49547288,126.9286026
비전어린이도서관,동작구,서울특별시 동작구 사당로20길 126 온세상교회 ,37.4789559,126.9714856
사당1동작은도서관,동작구,서울특별시 동작구 동작대로17길 28 (사당동) 사당1동주민센터 주민센터 내,37.49217125,126.9824604
사당2동작은도서관,동작구,서울특별시 동작구 동작대로29길 52 (사당동) 사당2동주민센터 2층,37.48871356,126.9792532
사당3동작은도서관,동작구,서울특별시 동작구 사당로17길 86 (사당동) 사당3동주민센터 2층,37.48668611,126.9720387
사당4동작은도서관,동작구,서울특별시 동작구 사당로16아길 6 (사당동) 사당4동주민센터 2층,37.48097418,126.9716328
사당5동작은도서관,동작구,서울특별시 동작구 사당로2가길 219 (사당동) 사당5동주민센터 3층,37.48566632,126.9669812
사당솔밭도서관,동작구,서울특별시 동작구 솔밭로 86,37.48408051,126.9673502
상도1동작은도서관,동작구,서울특별시 동작구 상도로53길 9 (상도동) 상도1동주민센터 2층 2,37.50856136,126.9529989
상도2동작은도서관,동작구,서울특별시 동작구 상도로 211 (상도동) 상도2동주민센터 2층,37.50679453,126.9504458
상도3동작은도서관,동작구,서울특별시 동작구 성대로2길 11 (상도동) 상도3동주민센터 ,37.49912671,126.9314045
상도4동작은도서관,동작구,서울특별시 동작구 성대로29길 53 (상도동) 상도4동주민센터 2층 ,37.50377461,126.9327064
상도SH.Ville작은도서관,동작구,서울특별시 동작구 상도로 53길 70 주민공동시설 지하 2층 지,37.50177751,126.9540272
상도더?아파트작은도서관,동작구,서울특별시 동작구 장승배기로4길 9 상도더샵아파트 관리동,37.50144818,126.9438134
상도중앙작은도서관,동작구,서울특별시 동작구 상도로15길 47 상도중앙교회 ,37.50197734,126.9323629
생명나무도서관,동작구,서울특별시 동작구 양녕로249 1층,37.50946978,126.9516771
서울특별시교육청동작도서관,동작구,서울특별시 동작구 장승배기로 94,37.50596898,126.9401028
성대골어린이도서관,동작구,서울특별시 동작구 성대로10길 23 1층,37.49690683,126.935103
소망작은도서관,동작구,서울특별시 동작구 보라매로 71 3층,37.4957269,126.9251117
신대방1동작은도서관,동작구,서울특별시 동작구 신대방길 72 (신대방동) 신대방1동주민센터 주민센터 내,37.50552251,126.9331587
신대방2동작은도서관,동작구,서울특별시 동작구 여의대방로24길 106 (신대방동) 신대방2동주민센터 2층 층,37.50622213,126.9343255
신상도문고,동작구,서울특별시 동작구 양녕로20길 108 신상도교회 3층,37.49701112,126.9452223
아트앤힐링작은도서관,동작구,서울특별시 동작구 상도로62길 61 지하1층,37.50387013,126.93848
애스톤파크작은도서관,동작구,서울특별시 동작구 상도로346-2 ,37.4975753,126.9498544
약수도서관,동작구,서울특별시 동작구 양녕로22바길 64(상도동),37.4978869,126.9474565
양문작은도서관,동작구,서울특별시 동작구 시흥대로646 1층,37.4894807,126.9051387
열림카페속작은도서관,동작구,서울특별시 동작구 여의대방로 44길 22 열림교회1층 ,37.50840148,126.9264682
오손도손우리동네작은도서관,동작구,서울특별시 동작구 양녕로 266 2층,37.5033678,126.9464664
주님의숲작은도서관,동작구,서울특별시 동작구 사당로17길 31 (사당동) 사당중앙교회 1층 ,37.49217125,126.9824604
중소기업연구원자료실,동작구,서울특별시 동작구 신대방1가길 77,37.48678099,126.9060992
중앙대학교병원의학정보실,동작구,서울특별시 동작구 흑석로 102 중앙대학교병원 본관 B2,37.50715267,126.9603489
지혜문고,동작구,서울특별시 동작구 장승배기로 19길 50 노량진2동어린이집,37.50828965,126.9371924
지혜샘터작은도서관,동작구,서울특별시 동작구 상도로34길 34 (상도동) 1층 ,37.50856136,126.9529989
푸른도서관,동작구,서울특별시 송파구 위례광장로 185 2층 ,37.50108096,126.9336234
하늘사다리문고,동작구,서울특별시 동작구 현충로 119 B상가 207호 (명수대현대아파트) ,37.50853305,126.9663286
하늘숲작은도서관,동작구,서울특별시 동작구 알마타길 21-42 대방교회 ,37.51179815,126.9278071
한숲문고,동작구,서울특별시 동작구 알마타길 37 대방1차e-편한세상 관리사무소 2층,37.51221716,126.9291808
행복한래미안작은도서관,동작구,서울특별시 동작구 상도로53길 8 (래미안상도3차아파트) 관리사무소 ,37.50013243,126.9557248
헤브론문고,동작구,서울특별시 동작구 상도로 217-10 헤브론교회 1층,37.50632109,126.9426084
흑석동작은도서관,동작구,서울특별시 동작구 흑석한강로 11 (흑석동) 흑석동주민센터 2층,37.50578061,126.9665943
공덕동문고(마실길북카페),마포구,서울특별시 마포구 만리재옛길 84 공덕동주민센터 ,37.55016941,126.9600304
꿈나래어린이영어도서관,마포구,서울특별시 마포구 월드컵로13길 80(망원동) 2층,37.55522747,126.9056816
꿈빛도서관,마포구,서울특별시 마포구 희우정로 109 화평교회 3층 ,37.55450757,126.9010278
꿈을이루는작은도서관,마포구,서울특별시 마포구 마포대로 7길 18 아현동 주민센터 2층 ,37.54710578,126.9521564
꿈의숲작은도서관,마포구,서울특별시 마포구 상암산로1길 69 4층 (상암동) 69,37.5801449,126.8834606
남북하나재단북한전문자료실,마포구,서울특별시 마포구 새창로 7 SNU빌딩 45층,37.54247829,126.9509232
늘푸른소나무작은도서관,마포구,서울특별시 마포구 백범로 227 2층 마포문화원 3층,37.54223808,126.955496
담쟁이작은도서관,마포구,서울특별시 마포구 포은로6길 25 석천감리교회,37.48168732,126.9787103
도란도란Books,마포구,서울특별시 마포구 새창로4길 25 B1층,37.54101496,126.9512162
래미안밤섬리베뉴I아파트채움작은도서관,마포구,서울특별시 마포구 독막로20나길 22(상수동) ,37.54725963,126.9255083
마포구립서강도서관,마포구,서울특별시 마포구 독막로 165,37.54773525,126.9320621
마포구립하늘도서관,마포구,서울특별시 마포구 월드컵로 212 마포구청 12층,37.56631258,126.9016155
마포어린이영어도서관,마포구,서울특별시 마포구 도화4길 53 (도화동) 2층,37.53952992,126.9519197
마포중앙도서관,마포구,서울특별시 마포구 성산로 128(성산동),37.56379606,126.9082023
마포푸르메어린이도서관,마포구,서울특별시 마포구 월드컵북로 494 푸르메재단 넥슨어린이재활병원 1층,37.58464747,126.8805204
복사골작은도서관,마포구,서울특별시 마포구 도화4길 53 3~4층,37.53952992,126.9519197
상암동문고,마포구,서울특별시 마포구 매봉산로2길 16 상암동주민센터 ,37.57833716,126.8946747
상암월드컵파크11단지도서관,마포구,서울특별시 마포구 월드컵북로 502-37,37.58699214,126.8818297
상암월드컵파크7단지도서관,마포구,서울특별시 마포구 상암산로1길 92,37.58275843,126.8820997
서강어린이영어도서관,마포구,서울특별시 마포구 배범로 35 서강대학교 곤자가국제학사 지하1층,37.5509484,126.9388083
서울특별시교육청마포평생학습관,마포구,서울특별시 마포구 홍익로2길 16,37.5543221,126.9242045
서울특별시교육청마포평생학습관아현분관,마포구,서울특별시 마포구 마포대로 224,37.55416693,126.9573466
성메작은도서관,마포구,서울특별시 마포구 월드컵북로30길 22 성산2동주민센터 2층 ,37.5551119,126.9145906
성미산학교작은도서관꿈꾸는다락방,마포구,서울특별시 마포구 성미산로3나길 6(성산동) 1층 3층 ,37.56861543,126.9089703
성산글마루작은도서관,마포구,서울특별시 마포구 월드컵북로 235 대우복지관 3층,37.56017425,126.9091863
신수동문고,마포구,서울특별시 마포구 독막로 192 신수동주민센터 ,37.56828229,126.9027732
쎌북작은도서관,마포구,서울특별시 마포구 신촌로 12길 11 신촌성결교회 ,37.54715946,126.9351046
아름드리작은도서관,마포구,서울특별시 성북구 길음로 13길 39 길음뉴타운아파트 본관 2층,37.55000134,127.098123
아이도북센터,마포구,서울특별시 마포구 만리재로 29 사랑의전화종합사회복지관 아이도북센터 아,37.55000134,127.098123
연남동문고,마포구,서울특별시 마포구 성미산로29길 17-9 연남동주민센터 ,37.54476769,126.9545543
염리동문고,마포구,서울특별시 마포구 숭문길 14 염리동주민센터 ,37.54706971,126.9456453
와글와글작은도서관,마포구,서울특별시 성북구 길음로 141(길음동 신안아파트) 3층,37.56886407,126.9071105
용강동작은도서관,마포구,서울특별시 마포구 토정로31길 31 용강동 복합청사 2층 ,37.54232557,126.942835
자이열린작은도서관,마포구,서울특별시 마포구 서강대길 40 103-402 마포자이2차아파트,37.54879782,126.9412939
초록리본도서관,마포구,서울특별시 마포구 동교로19길 4 2층 ,37.55559634,126.9179925
초록숲작은도서관,마포구,서울특별시 마포구 마포대로11길 44-81 아현문화건강센터 B1층,37.55212681,126.9512975
푸른나무작은도서관,마포구,서울특별시 마포구 만리재로 48 지층,37.54532805,126.9561138
풀뿌리문고,마포구,서울특별시 마포구 월드컵북로 190 풀뿌리문고 3층 ,37.56836101,126.9078965
하늘꿈작은도서관,마포구,서울특별시 마포구 숭문길 36 풍성한빌딩 풍성한교회,37.54902225,126.8344231
한국경영자총협회자료실,마포구,서울특별시 마포구 백범로 88 경총회관 지하2층,37.54794634,126.9411085
한국연구원도서관,마포구,서울특별시 마포구 토정로31길 12 3층,37.54145858,126.9424756
한국영상자료원영상도서관,마포구,서울특별시 마포구 월드컵북로 400 한국영상자료원,37.58045097,126.8898931
한사랑문고,마포구,서울특별시 마포구 월드컵북로 173-1 한사랑교회 ,37.56738358,126.9091364
합정동문고,마포구,서울특별시 마포구 월드컵로5길 11 합정동주민센터 ,37.55161512,126.9117247
해오름문고,마포구,서울특별시 마포구 월드컵로42길 12,37.57820529,126.8833386
해오름작은도서관,마포구,서울특별시 마포구 신촌로26길 10 우리마포복지관 2층,37.56665973,127.1384372
DMC래미안e편한세상아파트1블럭작은도서관,서대문구,서울특별시 서대문구 수색로 100 1블럭 커뮤니티센터 ,37.57414641,126.9076539
남가좌1동파랑새작은도서관,서대문구,서울특별시 서대문구 모래내로 15길 37 2층 ,37.57327826,126.9197815
남가좌삼성래미안아파트푸른북카페,서대문구,서울특별시 서대문구 증가로 191 (삼성아파트) 푸른북카페,37.57806418,126.9160828
남가좌새롬어린이도서관,서대문구,서울특별시 서대문구 증가로10길 16-15,37.5783399,126.9240451
동북아역사재단동북아역사자료실,서대문구,서울특별시 서대문구 통일로 81,37.56221656,126.9691142
명지어린이영어도서관,서대문구,서울특별시 서대문구 가좌로 117 명지대학교교회 ,37.58217489,126.9251453
봉원교회샘뜰작은도서관,서대문구,서울특별시 서대문구 봉원사 2길 13 1층 봉원교회,37.56790334,126.946641
북가좌1동늘푸른열린작은도서관,서대문구,서울특별시 서대문구 수색로 100-55 북가좌1동주민센터 2층,37.57436841,126.9101365
북가좌2동가슴따뜻한작은도서관,서대문구,서울특별시 서대문구 응암로1길 10 북가좌2동주민센터 2층,37.58159264,126.911033
북가좌2동이팝꽃향기작은도서관,서대문구,서울특별시 서대문구 불광천길 204 ,37.58373848,126.9109474
북아현북카페,서대문구,서울특별시 서대문구 북아현로 24 북아현동주민센터 2층,37.55967614,126.9567951
북한산더샵아파트작은도서관,서대문구,서울특별시 서대문구 통일로 510 커뮤니티센터 ,37.59456867,126.9411671
새솔도서실,서대문구,서울특별시 서대문구 북아현로19길 58-21 이화여대종합사회복지관 1층 ,37.5638977,126.9506818
서대문구립이진아기념도서관,서대문구,서울특별시 서대문구 독립문공원길 80,37.57295407,126.9555492
서울특별시교육청서대문도서관,서대문구,서울특별시 서대문구 모래내로 412,37.58331954,126.9408583
세빛도서관,서대문구,서울특별시 서대문구 통일로 35길 18 2층 ,37.58640372,126.9454939
수화영상도서관,서대문구,서울특별시 서대문구 수색로 4가길 23 1층 ,37.57069457,126.9137991
어깨동무어린이도서관,서대문구,서울특별시 서대문구 거북골로 14길 32 DMC아이파크아파트 2층 458,37.57695677,126.9149689
연희동아이누리작은도서관,서대문구,서울특별시 서대문구 증가로 13-10 자치회관 연희동자치회관 2층,37.56936623,126.9308511
영광시각장애인모바일점자도서관,서대문구,서울특별시 서대문구 세검정로 78-19 2층,37.5597584,126.9547662
이화여자대학교박물관전문도서관,서대문구,서울특별시 서대문구 이화여대길 52 이화여자대학교 박물관 내,37.55955735,126.9448232
천연동하늘샘작은도서관,서대문구,서울특별시 서대문구 독립문로 27 서대문구보건소천연분소 ,37.56992171,126.9613536
천연뜨란채문고,서대문구,서울특별시 서대문구 독립문로8길 54 107동 관리동 ,37.56623615,126.9588387
충현동알음알음작은도서관,서대문구,서울특별시 서대문구 경기대로 40 2층 충현동자치회관 1층,37.56292966,126.9623734
하늘샘어린이도서관,서대문구,서울특별시 서대문구 가좌로 154 서부제일교회,37.58571423,126.923177
하뜰안도서관,서대문구,서울특별시 서대문구 가재울로 13 성은교회 1층,37.57369345,126.9221953
햇살작은도서관,서대문구,서울특별시 서대문구 세검정로1길 45 홍은1동자치회관,37.55044679,127.1398729
행복작은도서관,서대문구,서울특별시 서대문구 모래내로 334 홍은2동주민센터 구청제4별관 3층,37.66871632,127.0471316
홍은2동논골작은도서관,서대문구,서울특별시 서대문구 연희로41가길 33 청년미래공동체주택 101동 102호 B01호,37.591278,126.9330955
홍은도담도서관,서대문구,서울특별시 서대문구 홍은중앙로 129,37.60177311,126.9489548
홍제1동새싹작은도서관,서대문구,서울특별시 서대문구 통일로27길 19 2층,37.58316354,126.9484117
홍제2동꿈이있는작은도서관,서대문구,서울특별시 서대문구 통일로34길 27 2층,37.58610187,126.9493669
홍제3동문화촌어린이작은도서관,서대문구,서울특별시 서대문구 세검정로4길 32 홍제3동주민센터 2층,37.59376361,126.9496893
홍제천작은도서관,서대문구,서울특별시 서대문구 통일로 510 북한산더샵상가 지하1층 214호 ,37.59456867,126.9411671
IT로 열린도서관,서초구,서울특별시 서초구 방배로 36 이삭빌딩 301호,37.4780757,126.9979581
KOTRA무역자료실,서초구,서울특별시 서초구 헌릉로 13 KOTRA 본사 3층,37.46550983,127.0449169
LH서초3단지행복도서관,서초구,서울특별시 서초구 양재대로 2길 34 우면동 LH서초 3단지 아파트 ,37.46902625,127.025174
LH서초4단지작은도서관,서초구,서울특별시 서초구 양재대로2길 33 우면동 LH서초 4단지 아파트 ,37.4687542,127.0252853
LH서초5단지작은도서관,서초구,서울특별시 서초구 양재대로2길 11 LH서초5단지 작은도서관,37.45912974,127.0255375
국립국악원국악자료실,서초구,서울특별시 서초구 남부순환로 2364 국립국악원 국악박물관 306호,37.4777238,127.0098213
국립외교원도서관,서초구,서울특별시 서초구 남부순환로 2572,37.48376281,127.0311821
국립중앙도서관,서초구,서울특별시 서초구 반포대로 201,37.49742252,127.0032279
그림책도서관,서초구,서울특별시 서초구 명달로 150,37.49060375,127.0050971
꿈 익는 작은도서관,서초구,서울특별시 서초구 남부순환로 2271-5 소비코빌딩 B2F,37.474779,126.9979741
내곡도서관,서초구,서울특별시 서초구 청계산로7길 9-20,37.45200429,127.054445
너나울도서관,서초구,서울특별시 서초구 양재대로 2길 90 엘에이치스타힐스 서초힐스아파트,37.45657632,127.0168318
네이처힐1단지 작은도서관,서초구,서울특별시 서초구 형촌길 35 (우면동 서초네이처힐1단지) 주민공동시설,37.4635256,127.0177444
네이처힐3단지작은도서관(꿈찾는도서관),서초구,서울특별시 서초구 태봉로2길 60 서초네이처힐 3단지 305동 1층,37.4652302,127.0267824
네이처힐4단지작은도서관,서초구,서울특별시 서초구 태봉로 2길 5 서초네이처힐4단지 404동 1층 ,37.46221937,127.0250289
네이처힐5단지작은도서관,서초구,서울특별시 서초구 태봉로2길 65 서초네이처힐 508동 1층,37.46352125,127.026003
네이처힐6단지작은도서관,서초구,서울특별시 서초구 태봉로 2길 30 서초네이처힐6단지 아파트 ,37.46156886,127.0271857
네이처힐가든작은도서관,서초구,서울특별시 서초구 형촌길 60 네이처힐가든 아파트,37.46470639,127.0206695
대검찰청검찰중앙도서실,서초구,서울특별시 서초구 반포대로 157 대검찰청 본관 4층,37.49414154,127.006164
대한민국예술원도서실,서초구,서울특별시 서초구 반포대로37길 59,37.4955987,127.0024962
대한민국학술원도서실,서초구,서울특별시 서초구 반포대로37길 59 3층,37.4955987,127.0024962
리본SH작은도서관,서초구,서울특별시 서초구 바우뫼로 18길 20 양재리본타워1단지 아파트 ,37.47288503,127.0321457
리본숲SH작은도서관,서초구,서울특별시 서초구 양재동 매헌로 16길 40 양재리본타워2단지 관리동2층,37.46493167,127.0361714
반포1동작은도서관,서초구,서울특별시 서초구 사평대로 273(반포동) 반포1동 주민센터 3층,37.50509422,127.0133771
반포2동작은도서관,서초구,서울특별시 서초구 신반포로15길 16 반포2동주민센터 2층,37.5045884,126.9944728
반포3동작은도서관,서초구,서울특별시 서초구 신반포로23길 78 반포3동주민센터 4층,37.51155606,127.0057176
반포4동작은도서관,서초구,서울특별시 서초구 사평대로28길 70 반포4동주민센터 4층,37.49748465,127.0003278
반포도서관,서초구,서울특별시 서초구 고무래로 34,37.50248627,127.0125127
반포본동작은도서관,서초구,서울특별시 서초구 신반포로 10 반포본동주민센터 2층,37.50048144,126.9860918
방배1동작은도서관,서초구,서울특별시 서초구 효령로29길 43 방배1동주민센터 2층,37.48336375,126.9945155
방배2동작은도서관,서초구,서울특별시 서초구 청두곶길 36 방배2동주민센터 2층,37.47976922,126.9855579
방배4동작은도서관,서초구,서울특별시 서초구 방배로 173 방배4동주민센터 3층,37.48900788,126.9922427
방배도서관,서초구,서울특별시 서초구 방배로 40,37.4784386,126.9999959
방배본동작은도서관,서초구,서울특별시 서초구 동광로 19길 38 방배본동주민센터 2층,37.494149,126.9888474
삼성경제연구소도서자료실,서초구,서울특별시 서초구 서초대로74길 4 삼성생명 서초타워 30층,37.49674424,127.0257033
서울시교육연수원교육정보자료실,서초구,서울특별시 서초구 남부순환로 2248,37.47088376,126.9972586
서울연구원도서관,서초구,서울특별시 서초구 남부순환로340길 57,37.47943876,127.020569
서울인재개발원도서실,서초구,서울특별시 서초구 남부순환로340길 58,37.48039714,127.0198949
서울지방변호사회도서관,서초구,서울특별시 서초구 법원로1길 21 변호사회관 내,37.49260767,127.0085136
서이도서관,서초구,서울특별시 서초구 서초대로70길 51,37.49206882,127.0249474
서초1동작은도서관,서초구,서울특별시 서초구 사임당로 89 서초1동주민센터 2층,37.4901932,127.0194681
서초3동작은도서관,서초구,서울특별시 서초구 반포대로58 서초아트자이 1-2층,37.48596082,127.0116536
서초4동작은도서관,서초구,서울특별시 서초구 서운로26길 3 서초4동주민센터 2층,37.50271635,127.0222106
서초글벗 작은도서관,서초구,서울특별시 서초구 방배천로 2안길 39 서초영락교회 지하1층,37.4787274,126.9816048
서초더샵포레작은도서관,서초구,서울특별시 서초구 헌릉로8길 58 서초더샵포레 작은도서관 12관,37.45114107,127.0640694
서초포레스타3단지작은도서관,서초구,서울특별시 서초구 헌릉로8길 22 신원동 서초포레스타3단지,37.45526579,127.059178
서초포레스타6단지작은도서관,서초구,서울특별시 서초구 청계산로9길 1-12 611동 1층,37.4492016,127.0557922
서초포레스타7단지풍경이있는작은도서관,서초구,서울특별시 서초구 청계산로11길 7-12 703동 지하1층,37.44810272,127.0566007
수송작은도서관,서초구,서울특별시 서초구 신반포로41길 17 수송교회 지하1층,37.5107882,127.0164529
수학도서관,서초구,서울특별시 서초구 방배중앙로 82 (방배동) 지하1층 지하 1층,37.49547222,126.9927374
시온교회 작은도서관,서초구,서울특별시 서초구 서초대로 84 시온교회 1층,37.4865573,126.9897019
씨넷도서관,서초구,서울특별시 서초구 남부순환로 333길 36 해원빌딩 지하1층,37.48403103,127.0210635
양재1동작은도서관,서초구,서울특별시 서초구 바우뫼로 41 양재1동우면주민센터 2층,37.47166773,127.0266669
양재2동작은도서관,서초구,서울특별시 서초구 마방로6길 7-40 1층,37.4762473,127.0431581
양재도서관,서초구,서울특별시 서초구 양재천로 33,37.47367918,127.0335724
언남돌봄 작은도서관,서초구,서울특별시 서초구 강남대로 10길 65 3층,37.4698939,127.0402316
에코리치작은도서관,서초구,서울특별시 서초구 양재대로2길 109 103동 지하1층,37.4563504,127.0135471
우면SH작은도서관,서초구,서울특별시 서초구 형촌길 15 (네이처힐2단지) ,37.46282332,127.0222427
잠원도서관,서초구,서울특별시 서초구 나루터로 38,37.51496828,127.0139817
잠원도서관,서초구,서울특별시 서초구 나루터로 38,37.51496828,127.0139817
재외동포재단자료실,서초구,서울특별시 서초구 남부순환로 2558 외교센터 1층,37.48360819,127.0296985
지혜의숲작은도서관,서초구,서울특별시 서초구 청계산로7길 43 서초포레스타5단지,37.49700282,126.8822513
통일부북한자료센터,서초구,서울특별시 서초구 반포대로 201 국립중앙도서관 5층 통일부 북한자료센터,37.49742252,127.0032279
통일연구원자료실,서초구,서울특별시 서초구 반포대로 217 통일연구원,37.49926438,127.0020985
포레스타2단지숲속별작은도서관,서초구,서울특별시 서초구 헌릉로8길 45 212동 지하1층,37.45566865,127.0614433
하늘샘 작은도서관,서초구,서울특별시 서초구 헌릉로8길 10-12 1층 8호,37.4555019,127.0543207
한국과학기술기획평가원정보자료실,서초구,서울특별시 서초구 마방로 68 동원산업빌딩 9층,37.47771874,127.0440137
한국교과서연구재단교과서정보관,서초구,서울특별시 서초구 강남대로 547 4층,37.51064914,127.0210392
한국도서관협회도서관,서초구,서울특별시 서초구 반포대로 201,37.49742252,127.0032279
한국문화위원회예술자료원,서초구,서울특별시 서초구 남부순환로 2406 예술의전당 디자인미술관 2~3층,37.47920202,127.0117111
한국부동산연구원부동산정보센터,서초구,서울특별시 서초구 강남대로 587 kcc빌딩 9층,37.5141356,127.0194886
한국세무사회조세도서관,서초구,서울특별시 서초구 명달로 105 4층,37.4866337,127.0038699
한국자동차산업협회도서관,서초구,서울특별시 서초구 반포대로 25 자동차회관 5층 자료실,37.4826788,127.0113958
한국형사정책연구원도서실,서초구,서울특별시 서초구 태봉로 114,37.46760988,127.028492
현대자동차그룹도서관,서초구,서울특별시 서초구 헌릉로 12,37.46436208,127.0426636
금호1가동북카페책단지꿀단지,성동구,서울특별시 성동구 행당로 15 금호1가동주민센터 1층,37.55486645,127.0216535
금호2.3가어린이작은도서관,성동구,서울특별시 성동구 무수막18길 1 금호23가동주민센터 2층,37.55320828,127.0209099
금호4가어린이작은도서관,성동구,서울특별시 성동구 독서당로46길 26 금호4가동주민센터 3층 ,37.54717507,127.0223501
꿈샘작은도서관,성동구,서울특별시 성동구 한림말길 33 1층 ,37.54093943,127.0147456
꿈터어린이도서관,성동구,서울특별시 성동구 사근동9가길 23 별관 1층,37.56181571,127.046747
마장동작은도서관,성동구,서울특별시 성동구 마장로42길 11 마장동주민센터 2층,37.56632182,127.045409
무지개도서관,성동구,서울특별시 성동구 고산자로 270,37.56342271,127.0369648
무학도서관,성동구,서울특별시 성동구 행당로 123 무학교회 별관 지하 1층,37.55908246,127.0320544
사근동어린이놀이터도서관,성동구,서울특별시 성동구 사근동길 45-8 사근동주민센터 사근동공공복합청사 지하 1층,37.56121742,127.0458646
서연푸른꿈터문고,성동구,서울특별시 성동구 독서당로 175 옥수그린상가 3층 서연교회 ,37.54217275,127.0094881
서울제일비젼도서관,성동구,서울특별시 성동구 왕십리로28길 1-1 서울제일교회 ,37.5640345,127.031267
성동구립금호도서관,성동구,서울특별시 성동구 난계로 20,37.55413024,127.0248941
성동구립도서관,성동구,서울특별시 성동구 고산자로10길 9,37.55918517,127.0349643
성동구립용답도서관,성동구,서울특별시 성동구 용답중앙3길 10,37.56670257,127.0513055
성락도서관,성동구,서울특별시 성동구 성수일로10길 33 성락성결교회 5층 506호 ,37.54654382,127.0539607
성수1가2동작은도서관,성동구,서울특별시 성동구 왕십리로 5길 3 성수1가2동주민센터 ,37.54640122,127.0443491
성수1가제1동작은도서관,성동구,서울특별시 성동구 뚝섬로3길 18 성수1가1동주민센터 2층 로비,37.54203211,127.0496882
성수2가제1동작은도서관,성동구,서울특별시 성동구 뚝섬로 385-19 성수2가1동주민센터 2층,37.53954163,127.0540237
성수2가제3동작은도서관,성동구,서울특별시 성동구 광나루로2길 35 성수2가3동주민센터 5층,37.54822411,127.0552462
성수도서관,성동구,서울특별시 성동구 뚝섬로1길 43,37.54542874,127.0469481
어린이도서관책읽는엄마책읽는아이,성동구,서울특별시 성동구 매봉18길 11(금호동3가) 마을소통공간 산책 1층,37.55021984,127.0244981
올리브나무작은도서관,성동구,서울특별시 성동구 독서당로 227 옥수교회 4층 ,37.5448578,127.0160673
왕십리도서관,성동구,서울특별시 성동구 난계로 160 대한예수교장로회 왕십리교회  5층,37.56600312,127.024007
왕십리도선동희망문고,성동구,서울특별시 성동구 마장로 141 왕십리도선동주민센터 2층 ,37.5644462,127.0358921
왕십리제2동작은도서관,성동구,서울특별시 성동구 무학봉길 69 왕십리2동주민센터 3층,37.56108184,127.030512
용답동어린이작은도서관,성동구,서울특별시 성동구 용답중앙23길20 용답동주민센터 2층 ,37.56461275,127.0553294
응봉동어린이작은도서관,성동구,서울특별시 성동구 독서당로 424 응봉동주민센터 2층,37.55313662,127.0334014
청계도서관,성동구,서울특별시 성동구 마장로 141,37.56395923,127.0358722
하이리딩 작은도서관,성동구,서울특별시 성동구 마장로39가길 40 ,37.5669601,127.0411491
행당2동어린이작은도서관,성동구,서울특별시 성동구 행당로9길 9 행당2동주민센터 ,37.55821767,127.0293475
곰세마리어린이도서관,성북구,서울특별시 성북구 삼선교로 54 본교회 3층,37.58848901,127.011781
글빛누리작은도서관,성북구,서울특별시 성북구 삼선교로16길 35 삼선SK뷰아파트 105동 ,37.58802073,127.0121429
기쁨이자라는작은도서관,성북구,서울특별시 성북구 종암로9길 25 극동아파트 상가 202호,37.59568296,127.0340923
길상도서관,성북구,서울특별시 선잠로5길 68 길상사 ,37.59822065,126.9944829
길음1동새마을문고,성북구,서울특별시 길음로 92 길음1동주민센터 3층,37.61048624,127.0194557
길음2동새마을문고,성북구,서울특별시 성북구 삼양로2길 70 길음2동주민센터 ,37.60669169,127.0272911
길음뉴타운푸르지오도서관,성북구,서울특별시 성북구 길음로 119 길음뉴타운 1280번지 대우아파트 211동 앞,37.61118859,127.0159763
길음동 작은도서관,성북구,서울특별시 성북구 길음로15길 23 새생명교회 B1층,37.6102844,127.0152428
길음동부센트레빌어린이글마당,성북구,서울특별시 성북구 숭인로2길 61 길음동동부센트레빌아파트 관리동 1층,37.61178726,127.0243767
꿈의숲푸르지오키즈&맘북카페,성북구,서울특별시 성북구 오패산로 16가길 40 꿈의숲푸르지오아파트 ,37.61158475,127.0383638
꿈터작은도서관,성북구,서울특별시 성북구 정릉로 305 경남아파트 상가 204호 3층,37.53050717,126.8415913
꿈틀도서관,성북구,서울특별시 성북구 종암로 214-6 나눔의집 1층 꿈,37.60900163,127.0310132
다슬도서관,성북구,서울특별시 성북구 장월로 89-10 1층,37.61336466,127.0541015
달빛마루도서관,성북구,서울특별시 성북구 종암로 167 104동 2층,37.60505817,127.0309905
대림아파트작은도서관,성북구,서울특별시 성북구 길음로 118 414동 지하1층,37.61285678,127.0186168
대한불교진각종도서실,성북구,서울특별시 성북구 화랑로13길 17 대한불교진각종 장경각,37.60477383,127.0406257
돈암2동새마을문고,성북구,서울특별시 성북구 흥천사길 7 돈암2동주민센터 2층,37.59801223,127.0105364
돌리네책빵,성북구,서울특별시 성북구 한천로82길 11 2층,37.61221291,127.0621608
뒤죽박죽도서관,성북구,서울특별시 성북구 서경로2길 21 1층,37.60510538,127.0156114
래미안석관북카페,성북구,서울특별시 성북구 화랑로 214 관리동(2층),37.60917932,127.0544721
보문동새마을문고,성북구,서울특별시 성북구 안암로3길 35 보문동주민센터 2층,37.58037584,127.0228048
북악하늘작은도서관,성북구,서울특별시 성북구 북악산로1다길 26 (정릉동) 현대빌리지 B01호,37.59883585,127.0043294
북적book적,성북구,서울특별시 성북구 아리랑로 68(돈암동 돈암 힐스테이트 아파트) ,37.5986269,127.0128676
삼선푸르지오작은도서관,성북구,서울특별시 성북구 보문로29다길 31 (삼선푸르지오아파트) ,37.5842302,127.0139749
생명의전화종합사회복지관가족도서관,성북구,서울특별시 성북구 오패산로 21 생명의전화(종합복지관) 3층,37.60412664,127.0370419
서경로꿈마루도서관,성북구,서울특별시 성북구 서경로 94-1(정릉동) ,37.61146166,127.0138629
석관동미리내도서관,성북구,서울특별시 성북구 한천로66길 203,37.61347396,127.0654922
석관동새마을문고,성북구,서울특별시 성북구 화랑로 296 석관동주민센터 3층,37.61296955,127.0614234
성가소비녀회도서관,성북구,서울특별시 성북구 길음로9길 46 성가소비녀회 60주년기념성재덕관 2층,37.60633892,127.0177822
성광작은도서관,성북구,서울특별시 성북구 보국문로16길 87 예수교 대한성결교회 성광교회 ,37.61385565,127.0102952
성북길빛도서관,성북구,서울특별시 성북구 숭인로8길 52,37.60995927,127.0264414
성북동새마을문고,성북구,서울특별시 성북구 성북로 37 성북동주민센터 2층,37.59105271,127.0032483
성북동작은도서관,성북구,서울특별시 성북구 성북로 65-4(성북동) 성북중앙교회 2층,37.59282016,127.0010497
성북이음도서관,성북구,서울특별시 성북구 보문로 168(삼선동5가) 성북구청 12층,37.58933686,127.0147398
성북점자도서관,성북구,서울특별시 성북구 동소문로25가길 20,37.6077321,126.9591595
성북정보도서관,성북구,서울특별시 성북구 화랑로18자길 13,37.60497334,127.0505857
성신여자대학교박물관자료실,성북구,서울특별시 성북구 보문로34다길 2 성신여자대학교 박물관 행정관 4층,37.59094075,127.0222411
세레니티문고,성북구,서울특별시 성북구 종암로23길 35 래미안 세레니티 205동 로비층,37.59817032,127.0297551
소리마을작은도서관,성북구,서울특별시 성북구 삼양로9길 14-7 2층 ,37.60873899,127.0220069
아름드리작은도서관,성북구,서울특별시 성북구 길음로 13길 39 길음뉴타운아파트,37.55000134,127.098123
아리랑어린이도서관,성북구,서울특별시 성북구 아리랑로 75,37.59882719,127.0136237
아리랑정보도서관,성북구,서울특별시 성북구 아리랑로 82길,37.60006212,127.0139286
안암동새마을문고,성북구,서울특별시 성북구 고려대로 16(안암동2가) 안암동주민센터 2층 ,37.58581896,127.0213758
어울림북터작은도서관,성북구,서울특별시 성북구 동소문로34길 73(돈암동 길음역 금호어울림 센터힐) 103동 ,37.6011664,127.0230636
와글와글작은도서관,성북구,서울특별시 성북구 길음로 141 (길음동 신안아파트),37.56886407,126.9071105
우리들문고작은도서관,성북구,서울특별시 성북구 돌곶이로 157 한전빌딩 4층,37.61545543,127.0510616
월곡1동새마을문고,성북구,서울특별시 성북구 오패산로 96 월곡1동주민센터 ,37.61053692,127.0357622
월곡꿈그림도서관,성북구,서울특별시 성북구 화랑로13길 17 월곡꿈그림도서관,37.60477383,127.0406257
은혜로운 작은도서관,성북구,서울특별시 성북구 월곡로4길 17 1층,37.5961398,127.037435
작은도서관핸드인핸드,성북구,서울특별시 성북구 종암로14길 12-16 1층,37.59648802,127.0362609
장암교회쉴만한물가작은도서관,성북구,서울특별시 성북구 월곡로5길 39 대한예수교장로회장암교회 1층,37.5982026,127.0370531
장월SH빌작은도서관,성북구,서울특별시 성북구 한천로 101길 54 장월SH빌1단지아파트 103동 ,37.62231028,127.0475627
장위1동새마을문고,성북구,서울특별시 성북구 장위로 61 장위1동주민센터 2층,37.61406947,127.0436682
장위행복누림도서관,성북구,서울특별시 성북구 장위로21다길53,37.6157898,127.0435886
정든마을 작은도서관,성북구,서울특별시 성북구 솔샘로6길 18-8 2-3층,37.6094114,127.0039545
정릉1동새마을문고,성북구,서울특별시 성북구 정릉로38마길 33 정릉1동주민센터 2층,37.60143428,127.0166407
정릉4동새마을문고,성북구,서울특별시 성북구 보국문로 106-1 정릉4동주민센터 2층,37.61336215,127.007021
정릉도서관,성북구,서울특별시 성북구 정릉로 242,37.60474095,127.0105829
정릉푸르지오북카페,성북구,서울특별시 성북구 보국문로 19 정릉푸르지오아파트 관리동,37.60643172,127.0104819
정인꿈땅도서관,성북구,서울특별시 성북구 서경로6길 70(길음동) 1층,37.60665335,127.0194499
종암2차SK뷰(아)작은도서관,성북구,서울특별시 성북구 종암로 24길 35 종암2차SK뷰아파트 ,37.60120377,127.0349592
종암동새날도서관,성북구,서울특별시 성북구 종암로 98-8,37.5990314,127.035222
종암동새마을문고,성북구,서울특별시 성북구 종암로 98-8 종암동주민센터 종암동 주민센터 2층,37.5990314,127.035222
청수도서관,성북구,서울특별시 성북구 보국문로16가길 20,37.61175536,127.0107763
큰꿈도서관,성북구,서울특별시 은평구 진관2로 57-37(은평뉴타운우물골) 244동 지하1층 ,37.60482928,127.0346478
푸른꿈작은도서관,성북구,서울특별시 성북구 삼선교로 59-1(삼선동 4가),37.48730413,126.889598
하늘비전작은도서관,성북구,서울특별시 성북구 지봉로20길 47 (보문동5가) 1층,37.58286768,127.0191137
한국과학기술연구원자료실,성북구,서울특별시 성북구 화랑로14길 5,37.59086202,127.0451125
한뜰작은도서관,성북구,서울특별시 성북구 고려대로1길 17(보문동1가) 보문중앙교회 2층,37.586259,127.0193244
한신휴(아)북카페,성북구,서울특별시 성북구 동소문로 15길 99 한신휴아파트 ,37.59559781,127.0138089
해오름어린이도서관,성북구,서울특별시 성북구 성북로4길 52,37.59558967,127.0121197
휴먼빌작은도서관,성북구,서울특별시 성북구 아리랑로 89 (돈암동 일신건영휴먼빌아파트) 106동 옆 ,37.60120274,127.0123705
힐스테이트별빛작은도서관,성북구,서울특별시 성북구 낙산길 243-15 삼선힐스테이트아파트 ,37.58221304,127.0141416
Book積북적도서관,송파구,서울특별시 송파구 가락로 245 진성빌딩 2층 와이즈더샵상가 Y210호,37.5101335,127.1157679
KOBACO광고도서관,송파구,서울특별시 송파구 올림픽로35길 137 한국광고문화회관 4층,37.51592732,127.0996432
Sunplay작은도서관,송파구,서울특별시 송파구 백제고분로 27길 9 2층,37.5039909,127.0905291
THEBRIDGE작은도서관,송파구,서울특별시 송파구 동남로24길 11 2층,37.49962347,127.1375091
가락2동새마을문고(로즈마리작은도서관),송파구,서울특별시 송파구 중대로20길 6 가락2동주민센터 1층 ,37.49867798,127.1266099
가락몰도서관,송파구,서울특별시 송파구 양재대로 932 서울시농수산식품공사 가락몰 업무동 4층,37.49467422,127.1086491
가락본동새마을문고(글향기작은도서관),송파구,서울특별시 송파구 송파대로28길 39 가락본동주민센터 1층 ,37.49557772,127.1217594
거마도서관,송파구,서울특별시 송파구 거마로2길19,37.4935326,127.146824
거여1동새마을문고,송파구,서울특별시 송파구 오금로53길 32 거여1동주민센터 3층,37.49693819,127.143303
거여2동새마을문고(거여2동작은도서관),송파구,서울특별시 송파구 거마로2길 19 거여2동주민센터 2층,37.4935326,127.146824
경찰병원의학도서실,송파구,서울특별시 송파구 송이로 123 경찰병원 본관 2층,37.49638571,127.1225211
고려작은도서관,송파구,서울특별시 송파구 백제고분로 11길 35 ,37.5084119,127.0811374
글벗SH작은도서관,송파구,서울특별시 송파구 위례순환로 477 위례포레샤인아파트 2302동 1층,37.4750201,127.136567
꿈꾸는작은도서관,송파구,서울특별시 송파구 동남로 280 성진빌딩 4층,37.47176041,127.0881053
꿈이자라는땅작은도서관,송파구,서울특별시 송파구 마천로35길 19 비손빌딩 2층 ,37.50081551,127.1456767
누리미좋은물결작은도서관,송파구,서울특별시 송파구 성내천로 230 4층,37.4991909,127.1529327
다우리작은도서관,송파구,서울특별시 송파구 성내천로 100 진미식품 143-6,37.50005435,127.1394918
대한체육회작은도서관,송파구,서울특별시 송파구 올림픽로 424 올림픽회관 10층,37.51889593,127.115509
더미소작은도서관,송파구,서울특별시 송파구 오금로35길 17 오금현대아파트B상가 205,37.5044872,127.1262231
더믹스만드는작은도서관,송파구,서울특별시 송파구 삼전로 38 2층,37.50235782,127.0866942
돌마리도서관,송파구,서울특별시 송파구 백제고분로 37길 16,37.50356529,127.1036861
레미니스SH작은도서관,송파구,서울특별시 송파구 성내천로 6 송파레미니스 103-905,37.50759958,127.1350103
마천1동새마을문고,송파구,서울특별시 송파구 마천로 303 마천1동주민센터 1층 ,37.49601274,127.1499544
마천2동새마을문고(글수레작은도서관),송파구,서울특별시 송파구 마천로 287 마천2동 주민센터 2층,37.49683885,127.1485322
마천한늘꿈작은도서관,송파구,서울특별시 송파구 거마로 22길 49 범양빌딩 하늘사닥다리교회 3층,37.496855,127.1497802
문정1동새마을문고(느티나무작은도서관),송파구,서울특별시 송파구 동남로 116 문정1동주민센터 2층 ,37.49007127,127.1241789
문정2동새마을문고(숯내작은도서관),송파구,서울특별시 송파구 중대로 16 문정2동 주민센터 1층 ,37.48987846,127.1108941
방이1동새마을문고,송파구,서울특별시 송파구 위례성대로16길 22 방이1동주민센터 2층 ,37.51097748,127.1239065
방이2동새마을문고(방이2동작은도서관),송파구,서울특별시 송파구 백제고분로 495 방이2동주민센터 1층 ,37.51455243,127.1144492
쁘레네작은도서관별찌,송파구,서울특별시 송파구 오금로46길 11 2층 202호,37.49593438,127.1359566
삼전동새마을문고(삼학사작은도서관),송파구,서울특별시 송파구 백제고분로 236 삼전동주민센터 2층 ,37.50684121,127.0912943
새비전도서관,송파구,서울특별시 송파구 거마로7길 44(거여동) 2층,37.49775174,127.1414889
서울동부지방법원도서실,송파구,서울특별시 송파구 법원로 101 서울동부지방법원 5층,37.48349409,127.1197511
서울역사편찬원서울역사자료실,송파구,서울특별시 송파구 올림픽로 424 올림픽공원 내,37.51889593,127.115509
서울특별시교육청송파도서관,송파구,서울특별시 송파구 동남로 263,37.49999503,127.1348515
소나무언덕1호작은도서관,송파구,서울특별시 송파구 올림픽로47길9 3층,37.52781185,127.1173554
소나무언덕2호작은도서관,송파구,서울특별시 송파구 석촌호수로 155,37.5072682,127.0942189
소나무언덕3호작은도서관,송파구,서울특별시 송파구 성내천로 319,37.49233228,127.1566451
소나무언덕4호작은도서관,송파구,서울특별시 송파구 송이로 34 구 송파2동치안센터,37.50221953,127.1168475
소나무언덕잠실본동작은도서관,송파구,서울특별시 송파구 탄천동로 205 (잠실동 306번지) 잠실빗물펌프장 관사동,37.50309253,127.0788491
송파 꿈꾸는 작은도서관,송파구,서울특별시 송파구 동남로 341 송파레미니스 2단지 주민공동시설 1의 2층 ,37.5066307,127.1352373
송파1동새마을문고,송파구,서울특별시 송파구 백제고분로392 송파1동주민센터 2층 ,37.50625438,127.1093064
송파2동새마을문고,송파구,서울특별시 송파구 송이로 32 송파2동주민센터 2층,37.50231606,127.1167353
송파글마루도서관,송파구,서울특별시 송파구 충민로 120,37.4808353,127.1304785
송파꿈에그린작은도서관,송파구,서울특별시 송파구 위례광장로 121 2401동 1층,37.47475906,127.1392698
송파어린이도서관,송파구,서울특별시 송파구 올림픽로 105 (잠실동 19-6),37.51210257,127.0823945
송파어린이영어작은도서관,송파구,서울특별시 송파구 오금로 1(신천동) 신천빗물펌프장 4~5층,37.5223926,127.102983
송파위례도서관,송파구,서울특별시 송파구 장지동 위례광장로 210 위례동복합청사 4 5층,37.48116507,127.1439372
송파파크데일1단지도서관,송파구,서울특별시 송파구 성내천로37길 37 송파파크데일1단지 582,37.49847753,127.1598321
송파한라비발디작은도서관(위례22단지),송파구,서울특별시 송파구 위례광장로 163 아파트관리사무소 아파트 관리사무소(위례동 주민센터 옆),37.47966715,127.1393219
스토리빈작은도서관,송파구,서울특별시 송파구 중대로 56 국제빌딩 2층 203호 ,37.49118233,127.1151209
스토리지작은영어도서관,송파구,서울특별시 송파구 문정로13길 15 102,37.4942737,127.134902
쌍용북카페,송파구,서울특별시 송파구 동남로 193 가락쌍용아파트 140,37.49662157,127.1276262
아름다운꿈작은도서관,송파구,서울특별시 송파구 마천로 305 3층 3층,37.49579305,127.1499774
예꿈틀어린이도서관,송파구,서울특별시 송파구 오금로46길 28 중원빌딩3층 ,37.49526348,127.1343478
예인작은도서관,송파구,서울특별시 송파구 문정로11길 16 신안빌라상가 2층 201호 ,37.57174834,126.8232974
오금동새마을문고(오동나무작은도서관),송파구,서울특별시 송파구 중대로25길 5 오금동주민센터 2층 ,37.50471274,127.1418199
오륜동새마을문고,송파구,서울특별시 송파구 양재대로 1232 오륜동주민센터 3층 ,37.51544723,127.1343264
올리브트리영어작은도서관,송파구,서울특별시 송파구 오금로46길 9 베스트빌딩303호,37.49623338,127.1361093
우리 작은도서관,송파구,서울특별시 송파구 마천로41길17 3층(영흥교회) 3층,37.4972446,127.1474438
울산의대아산의학도서관,송파구,서울특별시 송파구 올림픽로43길 88 아산병원 아산교육연구관 내,37.52636373,127.1079574
은송愛書家작은도서관,송파구,서울특별시 송파구 올림픽로49길 8 지하1층 ,37.53049393,127.1195898
이사랑나눔도서관,송파구,서울특별시 송파구 마천로 291(마천동) 거여제일교회 마천빌딩 3층,37.4968489,127.1488513
잠실3동새마을문고,송파구,서울특별시 송파구 잠실로 51-29 잠실3동주민센터 2층 ,37.51330132,127.0941042
잠실4동새마을문고,송파구,서울특별시 송파구 올림픽로35길 16 잠실4동주민센터 2층 ,37.52015847,127.1122307
잠실6동새마을문고(장미마을작은도서관),송파구,서울특별시 송파구 올림픽로35길 120 잠실6동주민센터 3층 ,37.51811765,127.1006386
잠실7동새마을문고,송파구,서울특별시 송파구 올림픽로4길 17 송파문화원 1층 ,37.50867282,127.0770893
잠실본동새마을문고,송파구,서울특별시 송파구 백제고분로15길 9 잠실본동주민센터 1층 ,37.50614091,127.084327
잠실참좋은작은도서관,송파구,서울특별시 송파구 올림픽로 145 리센츠상가 5층 22호 ,37.51198105,127.0870421
장지동새마을문고,송파구,서울특별시 송파구 새말로19길 6 장지동주민센터 2층 ,37.48696736,127.1324391
주님의교회문고,송파구,서울특별시 송파구 올림픽로4길 16 주님의 교회 5층 ,37.50921317,127.0725773
즐거운가작은도서관,송파구,서울특별시 송파구 새말로 149-1(문정동) 지층,37.48437945,127.1301255
지샘터올림픽공원도서관,송파구,서울특별시 송파구 올림픽로 424(방이동) 스포츠비즈홀 1층,37.51225244,127.1135035
참벗영어작은도서관,송파구,서울특별시 송파구 백제고분로46길 20 3층,37.50775208,127.1131965
참좋은작은도서관,송파구,서울특별시 송파구 송이로 26길 16-68 지층,37.49359948,127.1222042
책과의어울림금호작은도서관,송파구,서울특별시 송파구 송파대로 32길 15 금호아파트 106동 1층(가락동),37.49590903,127.1168819
책읽는나무의자,송파구,서울특별시 송파구 토성로19길 7 지하,37.52928979,127.1179357
푸른도서관,송파구,서울특별시 송파구 위례광장로 185,37.50108096,126.9336234
풍납1동새마을문고(바람드리작은도서관),송파구,서울특별시 송파구 천호대로152길 7 풍납1동주민센터 솔바람복지관1층,37.53806987,127.1220726
하늘꿈작은도서관,송파구,서울특별시 송파구 오금로 473,37.54902225,126.8344231
하품작은도서관,송파구,서울특별시 송파구 새말로 6길 5 송파교회(문정동71-5) ,37.4822534,127.1239427
한국근현대사작은도서관,송파구,서울특별시 송파구 중대로20길 51 지하1층,37.49615684,127.1306745
한성백제박물관정보자료실,송파구,서울특별시 송파구 위례성대로 71 한성백제박물관 지하2층,37.5154282,127.1208007
한아람작은도서관,송파구,서울특별시 송파구 성내천로47길 38 송파파크데일2단지 607,37.4965529,127.1577896
헬리오시티작은도서관,송파구,서울특별시 송파구 송파대로 345 (407동 지하 관리사무소옆 에듀존)  지하,37.4984398,127.1062278
7단지 작은도서관,양천구,서울특별시 양천구 목동로 212(목동) ,37.52816409,126.867022
EL영어작은도서관,양천구,서울특별시 양천구 남부순환로57길 2 4층,37.5330206,126.828726
K-Culture 작은도서관,양천구,서울특별시 양천구 목동로3길 57 ,37.5104483,126.8618164
갈산도서관,양천구,서울특별시 양천구 목동남로4길 48,37.50898517,126.8671394
강서성결 어린이도서관,양천구,서울특별시 양천구 월정로19길 11(신월동) ,37.52889327,126.8376663
강서제일 어린이 도서관,양천구,서울특별시 양천구 화곡로10길 19(신월동) ,37.53788877,126.8314886
개울건강도서관,양천구,서울특별시 양천구 중앙로52길 56,37.52597157,126.8565997
고맙습니다 신정3동 작은도서관,양천구,서울특별시 양천구 중앙로 209 신정3동주민센터 2층,37.51515003,126.8547908
고운달작은도서관,양천구,서울특별시 양천구 곰달래로1길 38 신월1동주민센터 2층,37.5327627,126.8293463
고운맘작은도서관,양천구,서울특별시 양천구 중앙로53길 47 신월2동주민센터 2층,37.5226094,126.8454888
그루터기,양천구,서울특별시 양천구 신정이펜2로 55 ,37.5399609,126.8249719
글로벌 꿈꾸는 작은도서관,양천구,서울특별시 양천구 지양로2길 30  ,37.5193298,126.8349702
글바라기 (이펜1),양천구,서울특별시 양천구 신정이펜1로 99(신정동) ,37.51017141,126.8299397
기쁨을나누는작은도서관,양천구,서울특별시 양천구 월정로 62(신월동) ,37.52517302,126.841513
꿈꾸는도서관,양천구,서울특별시 양천구 신월로24길 19 상아아름아파트 B101,37.57267143,127.0467838
꿈자람작은도서관,양천구,서울특별시 양천구 목동중앙남로16나길 55 목3동주민센터 2층,37.5447082,126.862234
넓은들 작은도서관,양천구,서울특별시 양천구 남부순환로88길 5-7 현장민원실 1층,37.51143648,126.8415149
달마을작은도서관,양천구,서울특별시 양천구 목동중앙본로 120 목2동주민센터 2층,37.54614282,126.8717009
달빛마을작은도서관,양천구,서울특별시 양천구 남부순환로54길 5 신월3동주민센터 2층,37.5336237,126.8269021
마을도서관 (학마을2단지) - 장기휴관,양천구,서울특별시 양천구 신정로14길 1(신정동) ,37.5097494,126.8456957
마을속 도서관 나무그늘 (이펜3),양천구,서울특별시 양천구 신정이펜1로 50(신정동) ,37.51355896,126.8302587
목1동도서방,양천구,서울특별시 양천구 목동서로 192 목1동주민센터 2층,37.5303191,126.8690565
목마교육도서관,양천구,서울특별시 양천구 목동서로 41 목5동주민센터,37.54250898,126.8721113
미감도서관,양천구,서울특별시 양천구 목동중앙남로 57-10(목동) 목사랑시장고객주차장 및 공유센터 3층,37.53896815,126.8654892
방송통신심의위원회자료실,양천구,서울특별시 양천구 목동동로 233 한국방송회관 17층 자료실,37.54111713,126.8690978
방아다리문학도서관,양천구,서울특별시 양천구 화곡로4길 10,37.53858309,126.8271748
사랑방문고 (이펜5),양천구,서울특별시 양천구 신정이펜1로 27(신정동) ,37.51093167,126.8330706
새희망작은도서관,양천구,서울특별시 양천구 지양로 96(신월동) ,37.52345413,126.8319612
생명샘 작은도서관,양천구,서울특별시 양천구 목동중앙본로3길 10(목동) ,37.5391555,126.8688116
서울특별시교육청양천도서관,양천구,서울특별시 양천구 목동서로 113,37.53349939,126.8757691
숲 속 북카페,양천구,서울특별시 양천구 신정로 110(신정동) ,37.5060181,126.8360553
신월6동도서방,양천구,서울특별시 양천구 신남3길 6 신월6동주민센터,37.51454576,126.8409607
신월7동도서방,양천구,서울특별시 양천구 남부순환로70길 16-3 신월7동주민센터 남부순환로 70길 16-3,37.52187649,126.8347047
신월음악도서관,양천구,서울특별시 양천구 오목로5길 34,37.5246975,126.8400821
신정1동그린나래작은도서관,양천구,서울특별시 양천구 중앙로32길 1 신정1동주민센터 중앙로 32길 1,37.51857583,126.8542882
신정6동도서방,양천구,서울특별시 양천구 목동서로 353 목동서로 353,37.51706003,126.8643908
신정7동도서방,양천구,서울특별시 양천구 목동동로 37 목동동로 37,37.51439926,126.8596715
아인어린이작은도서관,양천구,서울특별시 양천구 신정로 13길 21 3층 ,37.51130148,126.8425705
양천영어특성화도서관,양천구,서울특별시 양천구 목동동로 81 해누리타운 7층 양천영어도서관 및 영어체험센터,37.5159767,126.8638554
에듀카페맘,양천구,서울특별시 양천구 월정로48길 15-2 12층,37.54147786,126.8325921
연세 작은도서관,양천구,서울특별시 양천구 오목로 64-3(신월동) 2층,37.5222123,126.8425049
은행정책마당,양천구,서울특별시 양천구 오목로 110 2층,37.52364872,126.8496732
이레작은도서관,양천구,서울특별시 양천구 목동중앙남로 57-7 ,37.53872766,126.865706
작은도서관내일새싹,양천구,서울특별시?양천구?월정로50길?6(신월동) ,37.54163378,126.8306798
종이비행기작은도서관,양천구,서울특별시 강서구 남부순환로19길 50 202호,37.5465825,126.8242049
지양마을작은도서관,양천구,서울특별시 양천구 지양로17길 33 지양로17길33,37.52187163,126.8266897
책읽는쉼터,양천구,서울특별시 양천구 목동동로 10 목동신시가지아파트11단지 관리사무소,37.50937955,126.8592059
푸른나래어린이도서관,양천구,서울특별시 양천구 남부순환로 340 일성빌딩 3층,37.53646908,126.8275072
푸른마을해바라기작은도서관(푸른마을1단지),양천구,서울특별시 양천구 신정로7길 70 푸른마을아파트 1단지,37.51279032,126.835803
한사랑작은도서관,양천구,서울특별시 양천구 목동동로 33 ,37.5144979,126.8574578
한어울터(신정이펜4단지),양천구,서울특별시 양천구 신정이펜1로 51 신정이펜하우스 4단지,37.51017141,126.8299397
해맞이역사도서관,양천구,서울특별시 양천구 지양로 37,37.51907269,126.8356052
행복한도서관,양천구,서울특별시 양천구 목동로15길 16-1 지층,37.50230515,127.0641886
혜윰도서관,양천구,서울특별시 양천구 신정로7길 60-2(신정동) ,37.5122367,126.8377279
호롱불작은도서관,양천구,서울특별시 양천구 목동동로 152 신정2동주민센터 목동동로 152,37.51919891,126.870564
H HOUSE 라이브러리,영등포구,서울특별시 영등포구 시흥대로 595 대림뉴스테이 201호,37.4860181,126.902551
KBS도서관,영등포구,서울특별시 영등포구 여의공원로 13 한국방송공사 내,37.52624684,126.9156261
국회도서관,영등포구,서울특별시 영등포구 의사당대로 1,37.53185974,126.920604
금융감독원자료실,영등포구,서울특별시 영등포구 여의대로 38,37.52308243,126.9214217
꿈이있는 작은도서관,영등포구,서울특별시 영등포구 신풍로16길 1 ,37.4993227,126.9130543
꿈이있는도서관,영등포구,서울특별시 강서구 강서로47길 108 마곡수명산파크 1단지,37.55372781,126.8299298
단비 작은도서관,영등포구,서울특별시 영등포구 도신로 63 태원빌딩 2층,37.5061164,126.8973546
당성책세상 우리세상 문고,영등포구,서울특별시 영등포구 당산로 16길 25 2층,37.5225023,126.8965347
대림3동새마을공립작은도서관,영등포구,서울특별시 영등포구 대림로 197 주민센터 2층,37.49831357,126.8980342
대림동 작은마을문고,영등포구,서울특별시 영등포구 디지털로436 ,37.4946754,126.903896
대림정보문화도서관,영등포구,서울특별시 영등포구 도신로 27,37.50431669,126.8960768
도란도란 에스티움 작은도서관,영등포구,서울특별시 영등포구 신풍로 77 ,37.5001728,126.9125071
도림동새마을공립작은도서관,영등포구,서울특별시 영등포구 도신로33길 4 ,37.51039688,126.9079757
동네작은도서관,영등포구,서울특별시 영등포구 당산로 214 당산 삼성래미안 4차아파트 상가1동 B1호 ,37.53176177,126.9047467
두껍아두껍아어린이도서관,영등포구,서울특별시 영등포구 디지털로 412 2층 ,37.49302905,126.90421
두날개작은도서관,영등포구,서울특별시 영등포구 가마산로 333 유현빌딩 3층,37.49943584,126.8962844
목화마을공립작은도서관,영등포구,서울특별시 영등포구 선유로13길 25 (문래동6가) 에이스하이테크시티2차 218호 ,37.51888095,126.8885366
문래동새마을공립작은도서관,영등포구,서울특별시 영등포구 도림로141가길 16 ,37.51553231,126.8913548
문래정보문화도서관,영등포구,서울특별시 영등포구 문래로20길 49,37.51685383,126.8908928
반딧불어린이 문고,영등포구,서울특별시 영등포구 도림로141가길 4-1 ,37.5148939,126.8903629
보험연구원(kiri),영등포구,서울특별시 영등포구 국제금융로6길 38 화재보험협회 8층,37.52138533,126.9259953
북마크어린이도서관,영등포구,서울특별시 영등포구 선유로277-9 ,37.5373039,126.8956031
서울특별시교육청영등포평생학습관,영등포구,서울특별시 영등포구 버드나루로15길 10,37.52580934,126.9071819
선유정보문화도서관,영등포구,서울특별시 영등포구 선유로43가길 10-8,37.53333762,126.8929418
신길1동새마을공립작은도서관,영등포구,서울특별시 영등포구 영등포로84길 24-5 신길종합사회복지관 ,37.51116548,126.9214401
신길2동새마을공립작은도서관,영등포구,서울특별시 영등포구 영등포로64길 15 청소년문화회관내 1층 문고 ,37.51365655,126.9170772
신길3동새마을공립작은도서관,영등포구,서울특별시 영등포구 신길로41라길 13-8 신길3동주민센터 2층 ,37.50730069,126.9077512
신길4동새마을공립작은도서관,영등포구,서울특별시 영등포구 신길로42길 1 신길4동주민센터 209-102,37.50845059,126.9112765
신길5동새마을공립작은도서관,영등포구,서울특별시 영등포구 도림로 264 신길5동주민센터 ,37.50163872,126.9052171
신길6동새마을공립작은도서관,영등포구,서울특별시 영등포구 대방천로 193 구립신길6동복지회관 ,37.49920628,126.9124302
신길7동새마을공립작은도서관,영등포구,서울특별시 영등포구 여의대방로43길10 신길7동 주민센터 5층 ,37.50638748,126.9215116
쌍용도서관,영등포구,서울특별시 영등포구 도영로7길 15 쌍용플레티넘시티 104동 2층 ,37.50889658,126.8940768
양평1동새마을공립작은도서관,영등포구,서울특별시 영등포구 영등포로 11길 12 양평1동주민센터 211-1,37.52366097,126.8882353
양평2동새마을공립작은도서관,영등포구,서울특별시 영등포구 선유로53길 20-7 구립양평제2동복지관 3층 4가 243-1 ,37.53810327,126.8964128
언니네작은도서관,영등포구,서울특별시 영등포구 대림로35길 13 2층 미루빌딩 4층,37.49837617,126.8966309
에듀까페맘작은도서관,영등포구,서울특별시 영등포구 대방천로 140-1 신길동,37.49922683,126.9064072
여의동새마을공립작은도서관,영등포구,서울특별시 영등포구 국제금융로 124 여의동주민센터 3층 ,37.51769079,126.9346118
여의샛강마을도서관,영등포구,서울특별시 영등포구 여의대로 24 전국경제인연합회 후생복지동,37.52217929,126.9199164
영등포동새마을공립작은도서관,영등포구,서울특별시 영등포구 영신로 200 서울시립청소년 직업체험센터 자치회관 1층 ,37.52516668,126.9032989
영등포본동새마을공립작은도서관,영등포구,서울특별시 영등포구 신길로61길 17 영등포본동주민센터 3층 ,37.5146671,126.9093401
영등포새마을구지부공립작은도서관,영등포구,서울특별시 영등포구 국회대로 596 영등포구민회관 3층  ,37.52600915,126.9001092
요셉의원작은도서관,영등포구,서울특별시 영등포구 경인로 100길 6 ,37.51535082,126.9050567
입암도서관 (구 도림도서관),영등포구,서울특별시 영등포구 도영로 37 도림교회 사회봉사관 2층,37.5101758,126.8974631
주택산업연구원도서관,영등포구,서울특별시 영등포구 국제금융로8길 25 주택건설회관 10층,37.52032142,126.9284754
중소기업중앙회자료정보실,영등포구,서울특별시 영등포구 은행로 30 중소기업중앙회 자료정보실,37.52820022,126.9226561
쪼물왕국 어린이도서관,영등포구,서울특별시 영등포구 선유로53길 34-14 ,37.5388423,126.8954467
한국가정법률상담소도서실,영등포구,서울특별시 영등포구 국회대로76가길 14,37.53071348,126.9244157
한국경제연구원정보자료센터,영등포구,서울특별시 영등포구 여의대로 24 전경련회관 45층,37.52217929,126.9199164
한국노동조합총연맹도서관,영등포구,서울특별시 영등포구 국제금융로6길 26,37.5219546,126.9269734
한국소방안전협회자료실,영등포구,서울특별시 영등포구 영중로 170 한국소방안전협회 5층 자료실,37.53158827,126.9063071
한국화재보험협회자료실,영등포구,서울특별시 영등포구 국제금융로6길 38 화재보험협회,37.52138533,126.9259953
한림대학교강남성심병원도서실,영등포구,서울특별시 영등포구 신길로 1,37.49324869,126.9086731
한믿음도서관,영등포구,서울특별시 영등포구 대방천로12길 5-2 ,37.49860498,126.9089052
한화생명정보자료실,영등포구,서울특별시 영등포구 63로 50 63한화생명빌딩 4층 한화생명 정보자료실,37.51966412,126.9399092
함께하는 문고,영등포구,서울특별시 영등포구 대림로248 서울중앙교회 2층,37.5027299,126.8946028
함께하는작은도서관,영등포구,서울특별시 영등포구 대림로 248 2층  2층,37.50276559,126.8968091
해오름어린이작은도서관,영등포구,서울특별시 영등포구 당산로44길 3 608,37.53191448,126.9010777
홍우 작은도서관,영등포구,서울특별시 영등포구 국제금융로 78 601,37.5208345,126.93045
U+Library,용산구,서울특별시 용산구 한강대로 32 (한강로3가)  LG유플러스 1층,37.53394015,126.9633035
고래이야기 작은도서관,용산구,서울특별시 용산구 효창원로 157(효창맨숀아파트) 1층,37.54195219,126.9616935
국립중앙박물관도서관,용산구,서울특별시 용산구 서빙고로 137,37.52388803,126.9803068
국립한글박물관한글도서관,용산구,서울특별시 용산구 서빙고로 139 국립한글박물관,37.52106866,126.9804862
국방부군사편찬연구소정보자료실,용산구,서울특별시 용산구 이태원로 29 전쟁기념관 4층,37.53680003,126.9788228
국방부도서실,용산구,서울특별시 용산구 이태원로 22,37.53365825,126.977571
남영동 작은도서관,용산구,서울특별시 용산구 두텁바위로1길 13(남영동)  지하 1층,37.54571601,126.9730957
단꿈 작은도서관,용산구,서울특별시 용산구 두텁바위로1길 70(후암동) 2층,37.55183648,126.9770166
백범김구기념관자료실,용산구,서울특별시 용산구 임정로 26,37.54427779,126.9592536
백합어린이 작은도서관,용산구,서울특별시 용산구 후암로15길 19-22(후암백합교회) 1층,37.54872046,126.9768004
별밭 작은도서관,용산구,서울특별시 용산구 대사관로34길 49(한남동) 4층,37.5311285,127.0040755
북카페 청마루,용산구,서울특별시 용산구 녹사평대로 150(용산구종합행정타운) 10층 ,37.5324523,126.9904791
서빙고동 작은도서관,용산구,서울특별시 용산구 서빙고로 279(서빙고동 주민센터) 1층,37.52047772,126.9946528
서울비전문고,용산구,서울특별시 용산구 원효로71길 24(원효로2가) 서울비전교회 1층,37.53807408,126.9639003
서울특별시교육청남산도서관,용산구,서울특별시 용산구 소월로 109,37.55255227,126.9821555
서울특별시교육청용산도서관,용산구,서울특별시 용산구 두텁바위로 160,37.55200494,126.9801399
순천향대학병원의학도서관,용산구,서울특별시 용산구 대사관로 59 순천향대학병원 향설교육관 3층,37.53411481,127.0038505
시민과함께하는연구자의집작은도서관,용산구,서울특별시 용산구 한강대로53길 5(한강로2가) 부림빌딩 5층 ,37.5329942,126.9706302
오렌지나무 작은도서관,용산구,서울특별시 용산구 새창로12길 13(용문동 주민센터) 1층,37.53780199,126.9621139
용산e편한세상북카페,용산구,서울특별시 용산구 원효로 216(용산e편한세상)  109동 1층,37.53610529,126.9675541
용산꿈나무도서관,용산구,서울특별시 용산구 백범로329(원효로1가 꿈나무타운) 3층,37.54189105,126.9684171
용암 어린이 영어도서관,용산구,서울특별시 용산구 신흥로3가길 21-7(용산동2가) 2층,37.5409822,126.982463
원동글마루 작은도서관,용산구,서울특별시 용산구 원효로64길 25 (원효로2가) 대한예수교 장로회 원동교회,37.53547356,126.9646299
원효로제2동 작은도서관 두드림,용산구,서울특별시 용산구 효창원로8길 3(원효로제2동 주민센터) 4층 ,37.53435336,126.9515473
이촌2동 작은도서관,용산구,서울특별시 용산구 이촌로18길 20(이촌2동 주민센터) 2층,37.526247,126.9524526
이태원글빛 작은도서관,용산구,서울특별시 용산구 이태원로15길 1(이태원동) 이태원교회 2층,37.5345722,126.9880217
일본국제교류기금서울문화센터문화정보실,용산구,서울특별시 용산구 한강대로 366 트윈시티남산 오피스동 2층,37.55108615,126.9729114
작은도서관 꿈꾸는책마을,용산구,서울특별시 용산구 장문로 95(보광동 주민센터) 1층,37.52806274,127.0022996
주한독일문화원도서관,용산구,서울특별시 용산구 소월로 132,37.55071261,126.982711
주한미국대사관아메리칸센터,용산구,서울특별시 용산구 한강대로72길 3,37.54071034,126.9736374
청소년푸르미르 작은도서관,용산구,서울특별시 용산구 이촌로 71길 24 (청소년수련관) 5층,37.52136132,126.9733009
청파 어린이 영어도서관,용산구,서울특별시 용산구 청파로49길 34(청파동) 4층,37.5454328,126.9662837
청파도서관,용산구,서울특별시 용산구 청파로93길 27(서계동) 1층,37.55278347,126.9675304
한강로동 작은도서관,용산구,서울특별시 용산구 한강대로38길 28(한강로동 주민센터) 3층,37.52814037,126.9692277
한남동 작은도서관,용산구,서울특별시 용산구 이태원로 224-19(한남동 공영주차장) 2층,37.53485685,127.0002689
해다올 작은도서관,용산구,서울특별시 용산구 신흥로 90(용산2가동 주민센터) 지하 1층,37.5460485,126.9833687
햇빛꿈이있는 도서관,용산구,서울특별시 용산구 효창원로86가길 28(청파동교회)  1층,37.54822541,126.9653651
회나무 작은도서관,용산구,서울특별시 용산구 회나무로13길 58(이태원2동 주민센터) 1층,37.54190409,126.9901954
효창동 작은도서관,용산구,서울특별시 용산구 효창원로 161(효창동 주민센터) 3층,37.54250943,126.9618381
후암동 작은도서관 북&캠프,용산구,서울특별시 용산구 후암동 후암로 32-6(후암동 주민센터) 2층,37.5486994,126.9781527
Book Bridge 작은 도서관,은평구,서울특별시 은평구 통일로 590 B동 204호 ,37.5999275,126.934917
고리마루작은도서관,은평구,서울특별시 은평구 갈현로 301(갈현1동청사및문화의집) 갈현1동 주민센터,37.62369524,126.9166928
구산동도서관마을,은평구,서울특별시 은평구 연서로 13길 29-23,37.60950609,126.9130867
꿈꾸는i작은도서관,은평구,서울특별시 은평구 진관3로 46 은평제일교회,37.64049912,126.9214212
꿈꾸는작은도서관,은평구,서울특별시 은평구 진흥로 1길 17 지하 1층 ,37.47176041,127.0881053
꿈담은작은도서관,은평구,서울특별시 은평구 연서로 41길 4(지층) ,37.62575995,126.9285068
꿈마루 작은 도서관,은평구,서울특별시 은평구 진흥로 5길 19 ,37.6025369,126.9167657
꿈샘도서관,은평구,서울특별시 은평구 응암로 20길 24 ,37.59292031,126.9208276
꿈지락작은도서관,은평구,서울특별시 은평구 진관1로 77-8 은평뉴타운폭포동아파트 402동 1층 ,37.63094456,126.9299087
나누리작은도서관,은평구,서울특별시 은평구 진관1로 55 (진관동 은평뉴타운 마고정),37.45309891,126.9089166
내를건너서숲으로도서관,은평구,서울특별시 은평구 증산로17길 50,37.59169634,126.908048
녹번만화도서관,은평구,서울특별시 은평구 은평로 245 은평소방서 옆,37.60110392,126.9351451
다니엘작은도서관,은평구,서울특별시 은평구 연서로 41길 13-3 부림교회 부림교회,37.62579478,126.9276185
다섯콩작은도서관,은평구,서울특별시 은평구 서오릉로4길 10 성암교회교육관 2층 성암비전센터 2층 다섯콩도서관,37.60478315,126.9259272
대조꿈나무어린이도서관,은평구,서울특별시 은평구 연서로20길 24-6,37.61389356,126.920643
대조제일교회꿈꾸는도서관,은평구,서울특별시 은평구 역말로10가길 22-12 ,37.61179373,126.9255511
두근두근작은도서관,은평구,서울특별시 은평구 진관2로 90 (진관동 은평뉴타운 마고정) 마고정3단지아파트 314동 지층문고,37.63289092,126.9272326
두드림도서관,은평구,서울특별시 은평구 진관3로 15-35 은평뉴타운구파발아파트 1001동 1층 ,37.64269952,126.9179894
래미안푸른숲도서관,은평구,서울특별시 은평구 진관3로 77 1층(은평뉴타운구파발아파트) 924동 1층,37.6434267,126.9203847
마고정작은도서관,은평구,서울특별시 은평구 진관2로 60 335동 1층 관리소 334동,37.63261367,126.9237525
매바위북카페,은평구,서울특별시 은평구 백련산로 100 응암2동주민센터 ,37.59436512,126.9232129
모퉁이작은도서관,은평구,서울특별시 은평구 진관4로 48-51 (진관동 은평뉴타운상림마을) 730동 1층,37.64188769,126.9314849
무지개영어도서관,은평구,서울특별시 은평구 서오릉로21길11 ,37.61481284,126.907915
물빛마을작은도서관,은평구,서울특별시 은평구 은평터널로 48 은평종합사회복지관 4층 4층,37.58505337,126.8993249
물푸레작은도서관,은평구,서울특별시 은평구 진관4로 48-51 742동(은평뉴타운상림마을) 1층 ,37.64188769,126.9314849
바다의별작은도서관,은평구,서울특별시 은평구 통일로 786 천주교불광동교회 천주교불광동교회,37.61526019,126.9264047
백련산힐스작은도서관,은평구,서울특별시 은평구 백련산로 38 백련산 힐스테이트 2차 208동 1층 208동 지하1층,37.58970143,126.9231455
북한산힐스테이1차솔숲작은도서관,은평구,서울특별시 은평구 불광로2길 33 북한산힐스테이트1차아파트 1110동 지하 ,37.61216305,126.9360246
불광천작은도서관,은평구,서울특별시 은평구 응암동 586-10 (불광천 휴게데크 위),37.59053397,126.9144185
사랑꿈터 작은도서관,은평구,서울특별시 은평구 진관4로 47 706동 1층) ,37.6458512,126.9271984
산책마을SH작은도서관,은평구,서울특별시 은평구 연서로 46길 7 1110동 B1,37.6339628,126.9326815
상림6작은도서관,은평구,서울특별시 은평구 진관4로 107621동 1층(은평뉴타운상림마을) 621동 1층,37.64887727,126.9298064
상림마을작은도서관,은평구,서울특별시 은평구 진관4로 48-25 공원관리사무실 내,37.64421437,126.9289416
상림책마루작은도서관,은평구,서울특별시 은평구 진관4로 17(은평뉴타운상림마을) 811동 1층 주민편의시설,37.64394268,126.9242814
새자람작은도서관,은평구,서울특별시 은평구 대서문길 36 (진관동) 116동 201호,37.65516993,126.9483464
샘터작은도서관,은평구,서울특별시 은평구 진관2로 111-7(은평뉴타운우물골) 220동 지하1층 ,37.56515649,127.087356
서문어린이도서관,은평구,서울특별시 은평구 가좌로10길 10 서문교회 ,37.59162934,126.9167513
서영영어전문작은도서관,은평구,서울특별시 은평구 증산로11길 7-12 서영교회 1층,37.58652911,126.9111421
성산작은도서관,은평구,서울특별시 은평구 증산서길 90(성산교회) ,37.58417885,126.9073048
솔빛도서관,은평구,서울특별시 연서로 487 524동 1층(3지구) ,37.6387763,126.9324467
수색한숲도서관,은평구,서울특별시 은평구 은평터널로 66 대림한숲타운아파트 제2관리사무소 관리동 1층 ,37.58688137,126.9016463
숲속향기작은도서관,은평구,서울특별시 은평구 연서로48길 12 은평뉴타운제각말아파트 501동 앞,37.63678588,126.9354277
시루뫼쉼터,은평구,서울특별시 은평구 증산서길 89 증산동주민센터 5층 ,37.58435096,126.9070252
신사어린이도서관,은평구,서울특별시 은평구 은평로 38 신사종합사회복지관 26-18,37.59804899,126.9121968
어린이도서관동네북,은평구,서울특별시 은평구 진흥로 174 양광비전센터 3층 ,37.60828545,126.9285954
역마루작은도서관,은평구,서울특별시 은평구 연서로 59(역촌동주민센터) 역촌동 주민센터,37.60440325,126.9151009
영광영재도서관,은평구,서울특별시 은평구 갈현로7가길 10 제일영광교회,37.60308718,126.9087472
우물골작은도서관,은평구,서울특별시 은평구 진관2로 77(은평뉴타운우물골) 206동 1층,37.63456745,126.9258505
은광교회도서관,은평구,서울특별시 은평구 통일로 68길 11 ,37.61348925,126.9301638
은뜨락도서관,은평구,서울특별시 은평구 통일로 972,37.63013936,126.9199312
은평구립도서관,은평구,서울특별시 은평구 통일로78가길 13-84,37.61897708,126.9282714
은평노인종합복지관작은도서관,은평구,서울특별시 은평구 연서로 415 (진관동) 은평노인종합복지관1층,37.63225077,126.9299823
은평뉴타운5단지문고,은평구,서울특별시 은평구 진관4로 87 629동 1층(은평뉴타운상림마을) 629동 1층(1지구),37.64784979,126.9298142
은평뉴타운도서관,은평구,서울특별시 은평구 진관2로 111-51,37.63722997,126.9331171
은평뉴타운상림마을제7단지문고,은평구,서울특별시 은평구 진관4로 100 608동 1층(은평뉴타운상림마을) ,37.64830048,126.9307523
은평어린이영어도서관,은평구,서울특별시 은평구 서오릉로 87(은평구평생학습관) 1층,37.60782227,126.9211829
은평작은도서관,은평구,서울특별시 은평구 은평로 195 (녹번동) 은평구청 1층,37.60279081,126.9291019
응암1동은평문화의집작은도서관,은평구,서울특별시 은평구 백련산로 179 응암1동주민센터 ,37.60070182,126.9267495
응암도서관,은평구,서울특별시 은평구 응암로16길 12-1 응암교회교육관 71-1,37.60038431,126.9295826
응암정보도서관,은평구,서울특별시 은평구 가좌로7길 15,37.58596642,126.9196809
이아이야작은도서관,은평구,서울특별시 은평구 증산서길 63-6(증산동) 1층,37.58254848,126.9052748
정임도서관,은평구,서울특별시 은평구 통일로 951 서광교회 2층 ,37.62774443,126.9191841
종이책갈피작은도서관,은평구,서울특별시 은평구 진관3로 67 912동 1층,37.64172049,126.9189216
증산정보도서관,은평구,서울특별시 은평구 증산로5길 6,37.58280957,126.9076717
지웰작은도서관,은평구,서울특별시 은평구 은평구 진관4로 78-38(진관동) 1503동 지층,37.64273488,126.9324058
지혜누리작은도서관,은평구,서울특별시 은평구 연서로44길 30  425동 2층,37.62739959,126.9340247
징검다리도서관,은평구,서울특별시 은평구 서오릉로 132 징검다리도서관 징검다리도서관,37.61089936,126.918454
책뜰에도서관,은평구,서울특별시 은평구 북한산로 2 은평뉴타운구파발 1023동 1층 1023동 1층,37.64293343,126.9165339
천주교연신내성당북카페,은평구,서울특별시 은평구 연서로43길 6 6,37.62723251,126.9287917
청소년도서관작공,은평구,서울특별시 은평구 통일로 817 3층,37.61503131,126.9160516
청소년문화공간JU역촌동 작은도서관,은평구,서울특별시 은평구 역말로 14 3층 ,37.6052313,126.909748
초록길도서관,은평구,서울특별시 은평구 연서로5길 28 102동 1층(부호아파트) 58-9호,37.6040239,126.9124387
큰꿈도서관,은평구,서울특별시 은평구 진관2로 57-37(은평뉴타운우물골) 244동 지하1층,37.60482928,127.0346478
포수마을만화도서관,은평구,서울특별시 은평구 응암동 114-9 ,37.5983354,126.9160785
푸른작은도서관,은평구,서울특별시 은평구 연서로 455 제각말 537동 1층 ,37.63652951,126.9334107
푸른풀밭작은도서관,은평구,서울특별시 은평구 은평로8길 18 창원빌딩 2층 ,37.598796,126.919936
한국여성정책연구원자료실,은평구,서울특별시 은평구 진흥로 225 한국여성정책연구원 1층,37.61089487,126.9354032
한국행정연구원정보자료실,은평구,서울특별시 은평구 진흥로 235,37.61007616,126.9359632
행복 나눔 작은도서관,은평구,서울특별시 은평구 갈현로31길 7 3층 301호 ,37.6198052,126.9128659
효경골마을문고,은평구,서울특별시 은평구 연서로27길 31-6(갈현2동주민센터) ,37.6183624,126.9157111
(사)국민문화연구소 자료실,종로구,서울특별시 종로구 율곡로13가길 19-5,37.5763951,126.9973672
4.19혁명기념도서관,종로구,서울특별시 종로구 새문안로 17,37.5675109,126.9655318
KCDF아카이브센터,종로구,서울특별시 종로구 인사동 11길 8 KCDF갤러리,37.57319692,126.9865501
LG상남도서관,종로구,서울특별시 종로구 창덕궁 1길 18(원서동 136),37.57952736,126.9881512
강북삼성병원의학정보실,종로구,서울특별시 종로구 새문안로 29(평동) 강북삼성병원,37.56886701,126.9678123
교보생명 정보자료실,종로구,서울특별시 종로구 종로1,37.5719379,126.9667814
국립고궁박물관도서실,종로구,서울특별시 종로구 효자로 12 국립고궁박물관 도서실,37.5765922,126.9749747
국립민속박물관자료실,종로구,서울특별시 종로구 삼청로 37,37.57948428,126.978764
국립현대미술관서울관디지털도서관,종로구,서울특별시 종로구 삼청로 30 국립현대미술관 서울관 2층,37.57875198,126.9813307
김&장법률사무소도서실,종로구,서울특별시 종로구 사직로8길 39 김&장법률사무소 내,37.5742161,126.9708729
꿈꾸는평창동작은도서관,종로구,서울특별시 종로구 평창문화로 65 평창동주민센터 2층 ,37.6123237,126.9801855
나무와열매어린이도서관,종로구,서울특별시 종로구 통일로 266(무악동) 2층 205호 ,37.575848,126.9567832
대한불교조계종중앙기록관,종로구,서울특별시 종로구 우정국로 55,37.57447858,126.9818572
도담도담한옥도서관,종로구,서울특별시 종로구 숭인동길 43  ,37.57941984,127.0169835
두산아파트새마을문고,종로구,서울특별시 종로구 지봉로 5길 7 101동 관리실 맞은편,37.5735002,127.014366
무악다솜방,종로구,서울특별시 종로구 통일로 14길 36 무악동주민센터2층 ,37.57693373,126.9601425
삼청공원숲속도서관,종로구,서울특별시 종로구 북촌로 134-3 삼청공원 내 ,37.58797913,126.984087
서울보증보험전자도서관,종로구,서울특별시 종로구 김상옥로 29 보증보험빌딩 5층,37.57367553,127.0010345
서울역사박물관서울역사자료실,종로구,서울특별시 종로구 새문안로 55,37.56970097,126.9700965
서울적십자병원 의학도서실,종로구,서울특별시 종로구 새문안로 9 외래본관 4층,37.5671402,126.9648733
서울지방경찰청 서경북카페(도서관),종로구,서울특별시 종로구 사직로8길 31 서울지방경찰청 본관 지하1층,37.5748364,126.9697832
서울특별시교육청교육정보자료실,종로구,서울특별시 종로구 송월길 48 서울특별시교육청 별관 1층,37.57019304,126.9667588
서울특별시교육청어린이도서관,종로구,서울특별시 종로구 사직로9길 7,37.57607257,126.9683689
서울특별시교육청정독도서관,종로구,서울특별시 종로구 북촌로5길 48,37.58103147,126.983694
서울특별시교육청종로도서관,종로구,서울특별시 종로구 사직로9길 15-14,37.5764504,126.9664672
석천문화관,종로구,서울특별시 종로구 성균관로 17길 11 (명륜1가 4),37.59026932,126.9978534
세종문화회관자료실,종로구,서울특별시 종로구 세종대로 175 세종문화회관 세종대극장 3층,37.57262058,126.975721
숭인마루작은도서관,종로구,서울특별시 종로구 지봉로 86 숭인1동주민센터 2층 ,37.57781832,127.0156255
아름꿈도서관,종로구,서울특별시 종로구 종로58가길 19,37.57261854,127.0169671
아시아평화와역사교육연대 자료실,종로구,서울특별시 종로구 혜화로 35 경주이씨화수회관 305,37.5671402,126.9648733
어린이도서관꿈과쉼,종로구,서울특별시 종로구 삼청로 77 삼청감리교회 내 삼청교회 내,37.58258598,126.9815674
어린이청소년 국학도서관,종로구,서울특별시 종로구 명륜길 26,37.5885021,126.9932172
에듀 NGO 작은도서관,종로구,서울특별시 종로구 대학로 19 (연지동) 704호,37.5728884,126.9994126
여성가족부자료실,종로구,서울특별시 종로구 세종대로 209,37.57490771,126.9752074
예능도서관,종로구,서울특별시 종로구 평창문화로 81-5 예능교회 내 예능교회,37.60717766,126.9695765
외교부외교정책자료실,종로구,서울특별시 종로구 사직로8길 60,37.57626278,126.9789211
우리소리도서관,종로구,서울특별시 종로구 삼일대로 30길 47 (종로1.2.3.4가동 주민센터 4~5층),37.57449585,126.9902352
이화마을작은도서관,종로구,서울특별시 종로구 이화장길 33 이화동주민센터 2층,37.57697036,127.0043413
작은도서관 뜰,종로구,서울특별시 종로구 창경궁로 287 2층 2호3호,37.5866965,126.999706
작은도서관삼봉서랑,종로구,서울특별시 종로구 삼봉로 43 종로구청 본관 1층 본관1층 ,37.57259064,126.979139
종로 수어영상 도서관,종로구,서울특별시 종로구 대학로3길 14 4층,37.5741105,126.9992322
지혜만들기작은도서관,종로구,서울특별시 종로구 종로35가길 19 종로56가동주민센터 3층 ,37.57206209,127.0050321
창이작은도서관,종로구,서울특별시 종로구 창신길62 창신2동주민센터 ,37.5743581,127.010939
청운문학도서관,종로구,서울특별시 종로구 자하문로36길 40,37.59037936,126.9659196
청운효자동북카페,종로구,서울특별시 종로구 자하문로 92 청운효자동주민센터 2층 ,37.58408878,126.9706189
청파도서관,종로구,서울특별시 종로구 충신길 22 11-1,37.55278347,126.9675304
통인어린이작은도서관,종로구,서울특별시 종로구 자하문로 13길 20  통인어린이작은도서관,37.58027962,126.9706409
하늘폭포도서관,종로구,서울특별시 종로구 동망산길 47 ,37.57984084,127.0159309
학산도서관,종로구,서울특별시 종로구 평창 34길 11 (평창동),37.61350293,126.9758979
한국고전번역원자료실,종로구,서울특별시 은평구 진관1로 85,37.6307894,126.9265575
한국금융연수원도서관,종로구,서울특별시 종로구 삼청로 118,37.58603982,126.9819527
한국사회과학자료원,종로구,서울특별시 종로구 인왕산로 1길 25,37.57349235,126.9643741
한국학생점자도서관,종로구,서울특별시 종로구 자하문로 131-1,37.6077321,126.9591595
한글학회 국어학전문도서관,종로구,서울특별시 종로구 새문안로3길 7,37.5708928,126.9701216
현대건설 기술정보실,종로구,서울특별시 종로구 율곡로 75,37.5781153,126.9853128
현대해상화재보험 도서실,종로구,서울특별시 종로구 세종대로 163,37.5709136,126.9739577
혜윰뜰 작은도서관,종로구,서울특별시 종로구 통일로 246-20 무악현대아파트 104204304호,37.5752043,126.9582214
혜화마을북카페,종로구,서울특별시 종로구 혜화로 12 혜화동 자치회관 4층 ,37.58699421,127.0005336
홍파랑북카페,종로구,서울특별시 종로구 송월길 154 교남동주민센터2층,37.57191646,126.9619613
SC제일은행도서실,중구,서울특별시 중구 남대문로 42 SC제일은행 제일지점 3층 SC러닝센터 도서실,37.5610369,126.9805067
가온도서관,중구,서울특별시 중구 동호로14길 18,37.5563848,127.0108371
공간종합건축사사무소 자료실,중구,서울특별시 중구 퇴계로36가길 104,37.5557123,126.9928718
광희동작은도서관,중구,서울특별시 중구 퇴계로 303-9 광희동주민센터 2층 ,37.56445698,127.005035
국가인권위원회인권도서관,중구,서울특별시 중구 삼일대로 340 나라키움 저동빌딩 11층,37.56504654,126.9881843
국립극장공연예술자료실,중구,서울특별시 중구 장충단로 59 국립극장 공연예술박물관 1층(공연예술자료실 1) 해오름극장 4층(공연예술자료실 2),37.55399915,127.0004913
국립중앙의료원의학정보실,중구,서울특별시 중구 을지로 245,37.56789111,127.0069281
남산타운어린이도서관,중구,서울특별시 중구 다산로 32,37.54949484,127.0088734
농협중앙회도서실,중구,서울특별시 중구 새문안로 16 농협중앙회 3층 도서실,37.5664602,126.9677352
다산동작은도서관,중구,서울특별시 중구 동호로12길 89  ,37.55921997,127.01203
대한상공회의소자료실,중구,서울특별시 중구 세종대로 39 상공회의소 회관 내,37.56071415,126.9737756
덕수궁 롯데캐슬아파트 작은도서관,중구,서울특별시 중구 서소문로9길 28 덕수궁 롯데캐슬 2층,37.5542059,126.9567419
동산작은도서관,중구,서울특별시 중구 다산로24길 73 재건동산교회 ,37.5573885,127.0140622
동화동작은도서관,중구,서울특별시 중구 다산로36길 100 동화동주민센터 3층 ,37.55998038,127.0194208
디자인하우스(주)자료실,중구,서울특별시 중구 동호로 310 태광빌딩 (주)디자인하우스,37.56233972,127.0033626
북소리,중구,서울특별시 중구 수표로 27 중부경찰서 1층 ,37.56360358,126.9895805
생명윤리정책전문도서관,중구,서울특별시 중구 남대문로 113(다동) 동부다동빌딩 5층 생명윤리정책 전문도서관,37.56730233,126.9822878
서울도서관,중구,서울특별시 중구 세종대로 110 태평로1가,37.566258,126.9757136
서울문화예술교육지원센터예술교육정보자료관,중구,서울특별시 중구 소파로 138 남산예술교육센터 예술교육관,37.55883453,126.9883273
서울시립미술관자료실,중구,서울특별시 중구 덕수궁길 61,37.56410621,126.9736993
서울신문정보행정팀,중구,서울특별시 중구 세종대로 124 (태평로1가),37.56742034,126.9778735
서울역센트럴자이아파트 작은도서관,중구,서울특별시 중구 만리재로 175 서울역센트럴자이아파트 ,37.5541849,126.9633348
서울청소년수련관도서실,중구,서울특별시 중구 을지로11길 23 서울청소년수련관 8층,37.56746899,126.9905563
서울특별시교육연구정보원문헌정보실,중구,서울특별시 중구 소파로 46 서울특별시교육연구정보원 9층,37.55455061,126.9812841
서울특별시의회전문도서관,중구,서울특별시 중구 덕수궁길 15 서울시의원회관 4층,37.56454791,126.9759778
손기정어린이도서관,중구,서울특별시 중구 손기정로 101,37.5551209,126.9625541
손기정작은도서관,중구,서울특별시 중구 손기정로 101 손기정공원 손기정문화체육센터 ,37.55562546,126.9638899
신당5동작은도서관,중구,서울특별시 중구 퇴계로 90길 42 경로당 2층 ,37.56343586,127.0216356
신당동작은도서관,중구,서울특별시 중구 다산로 29길 10 신당1동 노인복지관 23층 ,37.56109423,127.0135343
약수동작은도서관,중구,서울특별시 중구 동호로5길 19 중구 청소년수련관 1층  ,37.55254992,127.0109237
어린이도서관느티나무,중구,서울특별시 중구 다산로 75 다니엘빌딩 2층 ,37.55128325,127.0076071
어울림도서관,중구,서울특별시 중구 다산로38길 66-35,37.56171915,127.0189284
인제대학교서울백병원의학도서실,중구,서울특별시 중구 마른내로 9 인제대학교 서울백병원 P동 5층 의학도서실,37.56508767,126.9888563
정동어린이도서관하늘씨앗,중구,서울특별시 중구 정동길 46 정동제일교회 내,37.56538864,126.9727285
정림건축종합건축사사무소 도서자료실,중구,서울특별시 중구 세종대로12길 12,37.5616665,126.9746175
제일병원의학도서실,중구,서울특별시 중구 서애로1길 17 제일병원 본관 지하 2층,37.56206674,126.9995501
주한영국문화원 도서실,중구,서울특별시 중구 서소문로11길 19,37.5637438,126.9701949
주한프랑스문화원미디어도서관,중구,서울특별시 중구 칠패로 42 우리빌딩 18층,37.55947383,126.9735593
중구청작은도서관,중구,서울특별시 중구 창경궁로 17 중구청 별관4층 1층,37.56379791,126.9975655
중국복음선교회애화도서관,중구,서울특별시 중구 정동길 8 중국복음교회 애화도서관,37.56599955,126.9731799
청구동작은도서관,중구,서울특별시 중구 다산로24가길 23 동산 공영주차장 문화마당 1층 ,37.55631251,127.0159763
필동작은도서관,중구,서울특별시 중구 필동로 11 구립 경로당 3층 ,37.56054171,126.9962343
한경직목사기념도서관,중구,서울특별시 중구 수표로 33,37.56428474,126.9889361
한국교육과정평가원자료실,중구,서울특별시 중구 정동길 21-15 정동빌딩 335호,37.56757104,126.9709693
한국교회사연구소도서관,중구,서울특별시 중구 삼일대로 330 평화빌딩 3~4층,37.56438848,126.9884365
한국학생공공도서관대학문화원(구한국학생도서관),중구,서울특별시 중구 동호로27길 30,37.56070426,127.0021513
황학동작은도서관,중구,서울특별시 중구 난계로 11길 52 황학동 주민센터 3층 ,37.57041957,127.0192421
회현동작은도서관,중구,서울특별시 중구 퇴계로 8길 46 회현동주민센터 2층 ,37.55726024,126.9789712
겸재작은도서관,중랑구,서울특별시 중랑구 면목동 1031-22 ,37.58594603,127.0752657
꽃가람 작은도서관,중랑구,서울특별시 답십리로75길 100 2층,37.5760233,127.0786174
꿈꾸는 도서관,중랑구,서울특별시 중랑구 신내로19길 42 2층,37.6152957,127.0889334
꿈꾸는 작은도서관(중랑),중랑구,서울특별시 중랑구 봉우재로 203-1 3층,37.47176041,127.0881053
꿈꾸는도서관,중랑구,서울특별시 중랑구 신내로 19길 42(신내6단지신내아파트),37.57267143,127.0467838
늘품작은도서관,중랑구,서울특별시 중랑구 신내로25길 40 1층,37.6192357,127.0812132
다모아어린이도서관,중랑구,서울특별시 중랑구 용마산로 370 2층,37.5847825,127.094597
데시앙책울터 작은도서관,중랑구,서울특별시 중랑구 용마산로 669 커뮤니티센터 1층,37.6109183,127.0971348
동성12차아파트문고,중랑구,서울특별시 중랑구 신내로 126 1층,37.6099904,127.095156
동성3차아파트문고,중랑구,서울특별시 중랑구 신내로 110 1층,37.6083166,127.0939043
동일 작은도서관,중랑구,서울특별시 중랑구 신내로15길 30 동일교회 1층,37.6108237,127.0923087
만나 작은도서관,중랑구,서울특별시 중랑구 동일로 620 1층,37.5857347,127.0779115
면목종합사회복지관 아름인도서관,중랑구,서울특별시 중랑구 용마산로 228 3층,7.5737809,127.0857385
브릿지 작은도서관,중랑구,서울특별시 중랑구 봉화산로56길 36 4 5층,37.6069684,127.0966966
새마을문고망우3동분회작은도서관,중랑구,서울특별시 중랑구 겸재로61길 40 1층,37.59236263,127.0981502
새마을문고망우본동분회작은도서관,중랑구,서울특별시 중랑구 망우로67길 10 3층,37.60148157,127.1063676
새마을문고면목2동분회작은도서관,중랑구,서울특별시 중랑구 동일로101길 20-15 면목2동주민센터 2층,37.58977103,127.0790279
새마을문고면목38동분회작은도서관,중랑구,서울특별시 중랑구 사가정로51길 48 면목38동 주민센터 4층,37.58295612,127.088069
새마을문고면목4동분회작은도서관,중랑구,서울특별시 중랑구 면목로 246 면목4동주민센터 2층,37.57469791,127.0856068
새마을문고면목5동분회작은도서관,중랑구,서울특별시 중랑구 동일로 619 면목5동복합청사 2층,37.58575379,127.0794746
새마을문고면목7동분회작은도서관,중랑구,서울특별시 중랑구 사가정로50길 91 커뮤니티센터 2층,37.57900994,127.0869653
새마을문고묵1동분회작은도서관,중랑구,서울특별시 중랑구 공릉로2가길 5 묵1동주민센터 2층,37.61241654,127.0784803
새마을문고묵2동분회작은도서관,중랑구,서울특별시 중랑구 동일로157길 29 묵2동주민센터 2층,37.60961237,127.0760149
새마을문고상봉1동분회작은도서관,중랑구,서울특별시 중랑구 상봉중앙로1길 6 상봉1동주민센터 2층,37.59983516,127.0871596
새마을문고신내1동분회작은도서관,중랑구,서울특별시 중랑구 용마산로129나길 35 신내1동주민센터 2층,37.60587165,127.0995057
새마을문고중화1동분회작은도서관,중랑구,서울특별시 중랑구 동일로 134길 17 중화1동주민센터 2층,37.60116769,127.0806587
새마을문고중화2동분회작은도서관,중랑구,서울특별시 중랑구 동일로129길 1 7층,37.60283265,127.0761681
새소망도서관,중랑구,서울특별시 중랑구 용마산로 62길 43 용마동아아파트 상가동 203호,37.57853081,127.0943534
성원아파트문고,중랑구,서울특별시 중랑구 신내로 51 성원아파트 1층,37.6043571,127.0947995
세방도서관,중랑구,서울시 중랑구 숙선옹주로9길 25 102동 606호(묵동 세방아파트),37.61532755,127.0834651
신내2동북카페,중랑구,서울특별시 중랑구 봉화산로 190(신내동) 2층 관상복합청사 2층 관상복합청사,37.61213555,127.1141893
신내우디안1단지도담도담도서관,중랑구,서울특별시 중랑구 신내역로1길 85(신내우디안1단지) 111동 1층 ,37.6164342,127.1068688
신내우디안2단지나무그늘작은도서관,중랑구,서울특별시 중랑구 신내역로 165 신내우디안아파트 커뮤니티센터 1층,37.61655762,127.1097547
신내종합사회복지관맘편한공부방,중랑구,서울특별시 중랑구 봉화산로 153(상봉동 신내12단지신내아파트) 3층 ,37.60637049,127.0915882
신내지혜담은도서관,중랑구,서울특별시 중랑구 봉화산로 194 신아타운 4층 4층,37.60645358,127.0947074
신일도서관,중랑구,서울특별시 중랑구 상봉로20길 77 신일교회 1층,37.5946307,127.0975192
양원숲속도서관,중랑구,서울특별시 중랑구 송림길 172(망우동),37.60266318,127.1039257
양원역 도서관,중랑구,서울특별시 중랑구 송림길147 양원역사 1번출구  1층,37.6065857,127.1057402
에셀나무 작은도서관,중랑구,서울특별시 중랑구 겸재로3길 52(면목동) 2층,37.588236,127.0745665
영지도서관,중랑구,서울특별시 중랑구 공릉로2가길 9(묵동) 영지교회 지하1층 3층,37.61262629,127.0785209
예광독서방,중랑구,서울특별시 중랑구 면목로 78길 13 예광교회 1층,37.59035705,127.088007
은혜의숲작은도서관,중랑구,서울특별시 중랑구 중랑역로 167 2층 은혜의 숲 교회 2층,37.60834023,127.0762678
장미작은도서관,중랑구,서울특별시 중랑구 중랑천로 242 (묵동) 맞은편,37.60626449,127.0736816
중랑구립면목정보도서관,중랑구,서울특별시 중랑구 면목로 397(면목동),37.58735398,127.0875542
중랑구립정보도서관,중랑구,서울특별시 중랑구 신내로15길 197(묵동),37.61517065,127.0869063
중랑상봉도서관,중랑구,서울특별시 중랑구 동일로114길 10(상봉동),37.5930958,127.0787114
중랑숲어린이도서관,중랑구,서울특별시 중랑구 망우로73길 46-1(망우동),37.60266318,127.1039257
중화어린이도서관,중랑구,서울특별시 중랑구 중랑역로3길 28 중화문화복지센터 3층 ,37.59504537,127.0747092
책깨비도서관,중랑구,서울특별시 중랑구 용마산로 250-12 용마폭포공원,37.57335033,127.0891213
책소리 작은도서관,중랑구,서울특별시 중랑구 겸재로 138 2층,37.5870711,127.0808276
초록도서관,중랑구,서울특별시 중랑구 신내로17길 13 2층,37.6137359,127.0930209
행복터작은도서관,중랑구,서울특별시 중랑구 면목동 656번지 샘터공원 내 안전커뮤니티센터 1층 ,37.57310253,127.0832674
휴앤해피 작은도서관,중랑구,서울특별시 중랑구 송림길4 3층,37.5992127,127.0934573
구의1동새마을작은도서관,,서울특별시 광진구 광나루로36길 56 구의1동주민센터 2층,37.5424529,127.0834558
